uri,uri_canonical,id,name,lat,lon,op_type,op_type_label,country,op_type_code,op_type_name
http://data.europa.eu/949/functionalInfrastructure/operationalPoints/033e6ac0164ff80742828079549fcaf39f912205,http://data.europa.eu/949/functionalInfrastructure/operationalPoints/IE%2BOP74,IE+OP74,Clonsilla Station,53.383004,-6.4228954,http://data.europa.eu/949/concepts/op-types/rinf/30,30,http://publications.europa.eu/resource/authority/country/IRL,30,passenger terminal
http://data.europa.eu/949/functionalInfrastructure/operationalPoints/03a09f49ee0f4c3b6946651ccbfe2653b67a312d,http://data.europa.eu/949/functionalInfrastructure/operationalPoints/IE%2BOP198,IE+OP198,Limerick Junction Station Junction,52.501016,-8.1997143,http://data.europa.eu/949/concepts/op-types/rinf/30,30,http://publications.europa.eu/resource/authority/country/IRL,30,passenger terminal
http://data.europa.eu/949/functionalInfrastructure/operationalPoints/04b1ddb0d96d2252d510f2d6d8a97e0552f9c6d0,http://data.europa.eu/949/functionalInfrastructure/operationalPoints/IE%2BOP156,IE+OP156,Roscommon Station,53.62435,-8.1963172,http://data.europa.eu/949/concepts/op-types/rinf/30,30,http://publications.europa.eu/resource/authority/country/IRL,30,passenger terminal
http://data.europa.eu/949/functionalInfrastructure/operationalPoints/04d9c8f336f6b7899e8485724c1b7e6e9eadf055,http://data.europa.eu/949/functionalInfrastructure/operationalPoints/IE%2BOP53,IE+OP53,Blackrock Station,53.302803,-6.1787472,http://data.europa.eu/949/concepts/op-types/rinf/30,30,http://publications.europa.eu/resource/authority/country/IRL,30,passenger terminal
http://data.europa.eu/949/functionalInfrastructure/operationalPoints/05f8ea38e8a633ab55d1b5c326cb7b961aeffa9b,http://data.europa.eu/949/functionalInfrastructure/operationalPoints/IE%2BOP122,IE+OP122,Newbridge Station,53.185166,-6.8084994,http://data.europa.eu/949/concepts/op-types/rinf/30,30,http://publications.europa.eu/resource/authority/country/IRL,30,passenger terminal
http://data.europa.eu/949/functionalInfrastructure/operationalPoints/098b0399970645538ec4e0d862cf139cd4336335,http://data.europa.eu/949/functionalInfrastructure/operationalPoints/IE%2BOP238,IE+OP238,TD 71,52.2699734,-9.6674056,http://data.europa.eu/949/concepts/op-types/rinf/30,30,http://publications.europa.eu/resource/authority/country/IRL,30,passenger terminal
http://data.europa.eu/949/functionalInfrastructure/operationalPoints/0b2af01dc10149595041832ef5177f02f8957882,http://data.europa.eu/949/functionalInfrastructure/operationalPoints/IE%2BOP203,IE+OP203,Killarney Junction,52.128641,-8.6568484,http://data.europa.eu/949/concepts/op-types/rinf/30,30,http://publications.europa.eu/resource/authority/country/IRL,30,passenger terminal
http://data.europa.eu/949/functionalInfrastructure/operationalPoints/0b561757b5999065dfc366b01bd8e8d36d6e51bd,http://data.europa.eu/949/functionalInfrastructure/operationalPoints/IE%2BOP218,IE+OP218,Carrick on Suir Station,52.348865,-7.4045431,http://data.europa.eu/949/concepts/op-types/rinf/30,30,http://publications.europa.eu/resource/authority/country/IRL,30,passenger terminal
http://data.europa.eu/949/functionalInfrastructure/operationalPoints/0cdd47b53794438611b614af185ffa76bab13c9a,http://data.europa.eu/949/functionalInfrastructure/operationalPoints/IE%2BOP103,IE+OP103,Carrick on Shannon Station,53.938334,-8.1068738,http://data.europa.eu/949/concepts/op-types/rinf/30,30,http://publications.europa.eu/resource/authority/country/IRL,30,passenger terminal
http://data.europa.eu/949/functionalInfrastructure/operationalPoints/0ceaaaaaf10f82cdb664ade775ad2601928c0d4c,http://data.europa.eu/949/functionalInfrastructure/operationalPoints/IE%2BOP120,IE+OP120,Hazelhatch Station,53.322368,-6.5239876,http://data.europa.eu/949/concepts/op-types/rinf/30,30,http://publications.europa.eu/resource/authority/country/IRL,30,passenger terminal
http://data.europa.eu/949/functionalInfrastructure/operationalPoints/0d570c9a3ac8fea3bc24c23ed82b59a4177ed31b,http://data.europa.eu/949/functionalInfrastructure/operationalPoints/IE%2BOP44,IE+OP44,Tara Street Station,53.34698,-6.2541677,http://data.europa.eu/949/concepts/op-types/rinf/30,30,http://publications.europa.eu/resource/authority/country/IRL,30,passenger terminal
http://data.europa.eu/949/functionalInfrastructure/operationalPoints/0db2797e5515f1f3cf4fc9445e3535bd6eb2b6e6,http://data.europa.eu/949/functionalInfrastructure/operationalPoints/IE%2BOP106,IE+OP106,Boyle Station,53.967682,-8.3046782,http://data.europa.eu/949/concepts/op-types/rinf/30,30,http://publications.europa.eu/resource/authority/country/IRL,30,passenger terminal
http://data.europa.eu/949/functionalInfrastructure/operationalPoints/0f46ab0fe6d9367646323b190e6b5347ff3a3b33,http://data.europa.eu/949/functionalInfrastructure/operationalPoints/IE%2BOP125,IE+OP125,Heuston,53.346329,-6.2930026,http://data.europa.eu/949/concepts/op-types/rinf/30,30,http://publications.europa.eu/resource/authority/country/IRL,30,passenger terminal
http://data.europa.eu/949/functionalInfrastructure/operationalPoints/0f5b302719ec9b200d02ab472bcd59f009c5eefe,http://data.europa.eu/949/functionalInfrastructure/operationalPoints/IE%2BOP150,IE+OP150,TD 51,53.2282474,-7.377551,http://data.europa.eu/949/concepts/op-types/rinf/30,30,http://publications.europa.eu/resource/authority/country/IRL,30,passenger terminal
http://data.europa.eu/949/functionalInfrastructure/operationalPoints/0f626ee5d8acc2a1f59541d7ff36db6f4fe7b384,http://data.europa.eu/949/functionalInfrastructure/operationalPoints/IE%2BOP129,IE+OP129,TD 72,52.9837954,-6.9696506,http://data.europa.eu/949/concepts/op-types/rinf/30,30,http://publications.europa.eu/resource/authority/country/IRL,30,passenger terminal
http://data.europa.eu/949/functionalInfrastructure/operationalPoints/0fc010b8a31bb6df70a8fc6689ed3e6299992cdf,http://data.europa.eu/949/functionalInfrastructure/operationalPoints/IE%2BOP210,IE+OP210,Fota Station,51.896097,-8.3181165,http://data.europa.eu/949/concepts/op-types/rinf/30,30,http://publications.europa.eu/resource/authority/country/IRL,30,passenger terminal
http://data.europa.eu/949/functionalInfrastructure/operationalPoints/1467b72d9db51903cd874178a0d85143344e38ab,http://data.europa.eu/949/functionalInfrastructure/operationalPoints/IE%2BOP76,IE+OP76,TD 20,53.384979,-6.4331399,http://data.europa.eu/949/concepts/op-types/rinf/30,30,http://publications.europa.eu/resource/authority/country/IRL,30,passenger terminal
http://data.europa.eu/949/functionalInfrastructure/operationalPoints/161cc39240ff5745a6004b272d969a15d61a0a97,http://data.europa.eu/949/functionalInfrastructure/operationalPoints/IE%2BOP75,IE+OP75,Clonsilla Junction,53.383004,-6.4228954,http://data.europa.eu/949/concepts/op-types/rinf/30,30,http://publications.europa.eu/resource/authority/country/IRL,30,passenger terminal
http://data.europa.eu/949/functionalInfrastructure/operationalPoints/1684f6ff4e5a97e184f17007c263ff204cfc0140,http://data.europa.eu/949/functionalInfrastructure/operationalPoints/IE%2BOP6,IE+OP6,East Wall Junction,53.358035,-6.2364995,http://data.europa.eu/949/concepts/op-types/rinf/30,30,http://publications.europa.eu/resource/authority/country/IRL,30,passenger terminal
http://data.europa.eu/949/functionalInfrastructure/operationalPoints/16906bb6fa7df4de4767af548b618ac71ef553eb,http://data.europa.eu/949/functionalInfrastructure/operationalPoints/IE%2BOP127,IE+OP127,TD 07,52.9987963,-6.9795547,http://data.europa.eu/949/concepts/op-types/rinf/30,30,http://publications.europa.eu/resource/authority/country/IRL,30,passenger terminal
http://data.europa.eu/949/functionalInfrastructure/operationalPoints/1843f708bc372866bcd6beacbb8b8f374d20680c,http://data.europa.eu/949/functionalInfrastructure/operationalPoints/IE%2BOP2,IE+OP2,Howth Junction & Donaghmede Station,53.391577,-6.155249,http://data.europa.eu/949/concepts/op-types/rinf/30,30,http://publications.europa.eu/resource/authority/country/IRL,30,passenger terminal
http://data.europa.eu/949/functionalInfrastructure/operationalPoints/187892f25be7588501df2f50ef403bd52902a21d,http://data.europa.eu/949/functionalInfrastructure/operationalPoints/IE%2BOP192,IE+OP192,Limerick Junction North East Junction,52.508721,-8.1923696,http://data.europa.eu/949/concepts/op-types/rinf/30,30,http://publications.europa.eu/resource/authority/country/IRL,30,passenger terminal
http://data.europa.eu/949/functionalInfrastructure/operationalPoints/1a0ae9bb091ba264f5ce50296f3d4b1e36c02586,http://data.europa.eu/949/functionalInfrastructure/operationalPoints/IE%2BOP254,IE+OP254,Gort Station,53.06635,-8.8151182,http://data.europa.eu/949/concepts/op-types/rinf/30,30,http://publications.europa.eu/resource/authority/country/IRL,30,passenger terminal
http://data.europa.eu/949/functionalInfrastructure/operationalPoints/1dee314f4795ea14319e4cd3d19ccc1b3b54bab9,http://data.europa.eu/949/functionalInfrastructure/operationalPoints/IE%2BOP102,IE+OP102,TD 44,53.9334568,-8.101249,http://data.europa.eu/949/concepts/op-types/rinf/30,30,http://publications.europa.eu/resource/authority/country/IRL,30,passenger terminal
http://data.europa.eu/949/functionalInfrastructure/operationalPoints/1e4cd45178c172fcd8003eb8fa2c107a5fef76a1,http://data.europa.eu/949/functionalInfrastructure/operationalPoints/IE%2BOP165,IE+OP165,Westport Station,53.795944,-9.5101845,http://data.europa.eu/949/concepts/op-types/rinf/30,30,http://publications.europa.eu/resource/authority/country/IRL,30,passenger terminal
http://data.europa.eu/949/functionalInfrastructure/operationalPoints/1e52e7570e52271cb10d595d2e30175f7459b6bf,http://data.europa.eu/949/functionalInfrastructure/operationalPoints/IE%2BOP239,IE+OP239,Tralee Station,52.270835,-9.6994555,http://data.europa.eu/949/concepts/op-types/rinf/30,30,http://publications.europa.eu/resource/authority/country/IRL,30,passenger terminal
http://data.europa.eu/949/functionalInfrastructure/operationalPoints/1fc0abb2e1eea3955acc4ebb28fa0784eace9e66,http://data.europa.eu/949/functionalInfrastructure/operationalPoints/IE%2BOP143,IE+OP143,Kilkenny Station,52.654157,-7.243128,http://data.europa.eu/949/concepts/op-types/rinf/30,30,http://publications.europa.eu/resource/authority/country/IRL,30,passenger terminal
http://data.europa.eu/949/functionalInfrastructure/operationalPoints/20e3b0b255a35c15364839f4decf1edabf17d1e3,http://data.europa.eu/949/functionalInfrastructure/operationalPoints/IE%2BOP62,IE+OP62,Bray Daly Station,53.206606,-6.1019913,http://data.europa.eu/949/concepts/op-types/rinf/30,30,http://publications.europa.eu/resource/authority/country/IRL,30,passenger terminal
http://data.europa.eu/949/functionalInfrastructure/operationalPoints/225b11aa83a006db8c0b2ead2ce58660979f581c,http://data.europa.eu/949/functionalInfrastructure/operationalPoints/IE%2BOP14,IE+OP14,Dublin Port,53.350761,-6.2138787,http://data.europa.eu/949/concepts/op-types/rinf/30,30,http://publications.europa.eu/resource/authority/country/IRL,30,passenger terminal
http://data.europa.eu/949/functionalInfrastructure/operationalPoints/23319381d253a48783499c2a7622e00104d7ad39,http://data.europa.eu/949/functionalInfrastructure/operationalPoints/IE%2BOP264,IE+OP264,Pelletstown,53.37517,-6.31389,http://data.europa.eu/949/concepts/op-types/rinf/30,30,http://publications.europa.eu/resource/authority/country/IRL,30,passenger terminal
http://data.europa.eu/949/functionalInfrastructure/operationalPoints/24681e44d5bfe822d4b321ce9a1896ce9b9b3e43,http://data.europa.eu/949/functionalInfrastructure/operationalPoints/IE%2BOP60,IE+OP60,Killiney Station,53.255699,-6.1128721,http://data.europa.eu/949/concepts/op-types/rinf/30,30,http://publications.europa.eu/resource/authority/country/IRL,30,passenger terminal
http://data.europa.eu/949/functionalInfrastructure/operationalPoints/24cb3bc7bd4215d609bc7561142c9014e5e3782b,http://data.europa.eu/949/functionalInfrastructure/operationalPoints/IE%2BOP225,IE+OP225,TD 63,52.1259275,-8.9095337,http://data.europa.eu/949/concepts/op-types/rinf/30,30,http://publications.europa.eu/resource/authority/country/IRL,30,passenger terminal
http://data.europa.eu/949/functionalInfrastructure/operationalPoints/267987cdac12be7ac25867ccbbb4e116edfebd7e,http://data.europa.eu/949/functionalInfrastructure/operationalPoints/IE%2BOP265,IE+OP265,Ashtown,53.37537,-6.33222,http://data.europa.eu/949/concepts/op-types/rinf/30,30,http://publications.europa.eu/resource/authority/country/IRL,30,passenger terminal
http://data.europa.eu/949/functionalInfrastructure/operationalPoints/2791e00b135a6ba77caa7bbcc510974ea2bb5544,http://data.europa.eu/949/functionalInfrastructure/operationalPoints/IE%2BOP258,IE+OP258,TD 11,52.5695594,-8.3287369,http://data.europa.eu/949/concepts/op-types/rinf/30,30,http://publications.europa.eu/resource/authority/country/IRL,30,passenger terminal
http://data.europa.eu/949/functionalInfrastructure/operationalPoints/288e070b6b1970b362e14ab5d49eed0ba06ad49b,http://data.europa.eu/949/functionalInfrastructure/operationalPoints/IE%2BOP214,IE+OP214,Carrigtwohill Station,51.91615,-8.2632577,http://data.europa.eu/949/concepts/op-types/rinf/30,30,http://publications.europa.eu/resource/authority/country/IRL,30,passenger terminal
http://data.europa.eu/949/functionalInfrastructure/operationalPoints/2c55f9b0468f48203a532367994d3d5bd7c64887,http://data.europa.eu/949/functionalInfrastructure/operationalPoints/IE%2BOP163,IE+OP163,Ballina Station,54.108508,-9.1623105,http://data.europa.eu/949/concepts/op-types/rinf/30,30,http://publications.europa.eu/resource/authority/country/IRL,30,passenger terminal
http://data.europa.eu/949/functionalInfrastructure/operationalPoints/2db5b92004b90adef9f1eb2f056becdca7031bb0,http://data.europa.eu/949/functionalInfrastructure/operationalPoints/IE%2BOP149,IE+OP149,TD 85,53.1978305,-7.3101446,http://data.europa.eu/949/concepts/op-types/rinf/30,30,http://publications.europa.eu/resource/authority/country/IRL,30,passenger terminal
http://data.europa.eu/949/functionalInfrastructure/operationalPoints/2e800d0c01d9c10b22258375756248956efd28a2,http://data.europa.eu/949/functionalInfrastructure/operationalPoints/IE%2BOP246,IE+OP246,Killonan Junction,52.640181,-8.5284752,http://data.europa.eu/949/concepts/op-types/rinf/30,30,http://publications.europa.eu/resource/authority/country/IRL,30,passenger terminal
http://data.europa.eu/949/functionalInfrastructure/operationalPoints/2f24fc65b9db84e570791882b316586cf54f56d5,http://data.europa.eu/949/functionalInfrastructure/operationalPoints/IE%2BOP138,IE+OP138,Thomastown Station,52.523019,-7.1489151,http://data.europa.eu/949/concepts/op-types/rinf/30,30,http://publications.europa.eu/resource/authority/country/IRL,30,passenger terminal
http://data.europa.eu/949/functionalInfrastructure/operationalPoints/301f54cb2fb22b209c4a1fb939f217d68ead1c08,http://data.europa.eu/949/functionalInfrastructure/operationalPoints/IE%2BOP40,IE+OP40,Drohgeda McBride,53.711979,-6.335539,http://data.europa.eu/949/concepts/op-types/rinf/30,30,http://publications.europa.eu/resource/authority/country/IRL,30,passenger terminal
http://data.europa.eu/949/functionalInfrastructure/operationalPoints/31010a7466373e5f6e5665c41dac44a7dc8c4a02,http://data.europa.eu/949/functionalInfrastructure/operationalPoints/IE%2BOP208,IE+OP208,Glounthaune Station,51.911096,-8.3255037,http://data.europa.eu/949/concepts/op-types/rinf/30,30,http://publications.europa.eu/resource/authority/country/IRL,30,passenger terminal
http://data.europa.eu/949/functionalInfrastructure/operationalPoints/325cdc36f25caac6856f54cabe484869ff9003c4,http://data.europa.eu/949/functionalInfrastructure/operationalPoints/IE%2BOP190,IE+OP190,TD 14,52.5399709,-8.1091543,http://data.europa.eu/949/concepts/op-types/rinf/30,30,http://publications.europa.eu/resource/authority/country/IRL,30,passenger terminal
http://data.europa.eu/949/functionalInfrastructure/operationalPoints/33c5f94ce53f58504366302a7ad94a4b2c9714f3,http://data.europa.eu/949/functionalInfrastructure/operationalPoints/IE%2BOP111,IE+OP111,Collooney Station,54.186556,-8.494963,http://data.europa.eu/949/concepts/op-types/rinf/30,30,http://publications.europa.eu/resource/authority/country/IRL,30,passenger terminal
http://data.europa.eu/949/functionalInfrastructure/operationalPoints/346ee917e142ed313b099e9f60d7ad6ebfe77287,http://data.europa.eu/949/functionalInfrastructure/operationalPoints/IE%2BOP5,IE+OP5,Howth Station,53.388965,-6.0739813,http://data.europa.eu/949/concepts/op-types/rinf/30,30,http://publications.europa.eu/resource/authority/country/IRL,30,passenger terminal
http://data.europa.eu/949/functionalInfrastructure/operationalPoints/347c1f7151f99973245c2021ce22447838b92ce2,http://data.europa.eu/949/functionalInfrastructure/operationalPoints/IE%2BOP50,IE+OP50,Sandymount Station,53.327954,-6.2206866,http://data.europa.eu/949/concepts/op-types/rinf/30,30,http://publications.europa.eu/resource/authority/country/IRL,30,passenger terminal
http://data.europa.eu/949/functionalInfrastructure/operationalPoints/3482a2fc8565a993241626c626d39e8d7b1ffa99,http://data.europa.eu/949/functionalInfrastructure/operationalPoints/IE%2BOP77,IE+OP77,TD 21,53.3854566,-6.4353978,http://data.europa.eu/949/concepts/op-types/rinf/30,30,http://publications.europa.eu/resource/authority/country/IRL,30,passenger terminal
http://data.europa.eu/949/functionalInfrastructure/operationalPoints/34c835756d7cd64fb2d742fcbca403dc775e0045,http://data.europa.eu/949/functionalInfrastructure/operationalPoints/IE%2BOP145,IE+OP145,Monasterevin Station,53.14542,-7.0632857,http://data.europa.eu/949/concepts/op-types/rinf/30,30,http://publications.europa.eu/resource/authority/country/IRL,30,passenger terminal
http://data.europa.eu/949/functionalInfrastructure/operationalPoints/35fe43130f438b2fdf9166fc09f2faaee7bb2305,http://data.europa.eu/949/functionalInfrastructure/operationalPoints/IE%2BOP224,IE+OP224,Banteer Station,52.128734,-8.8989173,http://data.europa.eu/949/concepts/op-types/rinf/30,30,http://publications.europa.eu/resource/authority/country/IRL,30,passenger terminal
http://data.europa.eu/949/functionalInfrastructure/operationalPoints/39618a24926f6b29c995cac59dd8070b1fd9f555,http://data.europa.eu/949/functionalInfrastructure/operationalPoints/IE%2BOP16,IE+OP16,Drumcondra Station,53.363031,-6.2584245,http://data.europa.eu/949/concepts/op-types/rinf/30,30,http://publications.europa.eu/resource/authority/country/IRL,30,passenger terminal
http://data.europa.eu/949/functionalInfrastructure/operationalPoints/39e540cc5ddad39a61bbcca3a02e15e2f8313cbe,http://data.europa.eu/949/functionalInfrastructure/operationalPoints/IE%2BOP96,IE+OP96,TD 40,53.7264212,-7.7803372,http://data.europa.eu/949/concepts/op-types/rinf/30,30,http://publications.europa.eu/resource/authority/country/IRL,30,passenger terminal
http://data.europa.eu/949/functionalInfrastructure/operationalPoints/3a5010934890627f32c2c8026648b8117050b662,http://data.europa.eu/949/functionalInfrastructure/operationalPoints/IE%2BOP177,IE+OP177,TD 58,53.2716833,-9.0196681,http://data.europa.eu/949/concepts/op-types/rinf/30,30,http://publications.europa.eu/resource/authority/country/IRL,30,passenger terminal
http://data.europa.eu/949/functionalInfrastructure/operationalPoints/3bc263f9d94569e9944aedd9a90920a9a84342dc,http://data.europa.eu/949/functionalInfrastructure/operationalPoints/IE%2BOP112,IE+OP112,TD 50,54.2600818,-8.4921582,http://data.europa.eu/949/concepts/op-types/rinf/30,30,http://publications.europa.eu/resource/authority/country/IRL,30,passenger terminal
http://data.europa.eu/949/functionalInfrastructure/operationalPoints/3bc58b5ff5122efaeb8afb0f8314da94e888ab48,http://data.europa.eu/949/functionalInfrastructure/operationalPoints/IE%2BOP170,IE+OP170,TD 55,53.3419775,-8.4840274,http://data.europa.eu/949/concepts/op-types/rinf/30,30,http://publications.europa.eu/resource/authority/country/IRL,30,passenger terminal
http://data.europa.eu/949/functionalInfrastructure/operationalPoints/3c2d0ffa1355d755b9ebd04404f11d0e15af473e,http://data.europa.eu/949/functionalInfrastructure/operationalPoints/IE%2BOP229,IE+OP229,Rathmore Station,52.085131,-9.2183007,http://data.europa.eu/949/concepts/op-types/rinf/30,30,http://publications.europa.eu/resource/authority/country/IRL,30,passenger terminal
http://data.europa.eu/949/functionalInfrastructure/operationalPoints/3d9ce403f26541330eb78e0c3aa7f1b1eb8d4099,http://data.europa.eu/949/functionalInfrastructure/operationalPoints/IE%2BOP97,IE+OP97,Longford Station,53.724406,-7.7937627,http://data.europa.eu/949/concepts/op-types/rinf/30,30,http://publications.europa.eu/resource/authority/country/IRL,30,passenger terminal
http://data.europa.eu/949/functionalInfrastructure/operationalPoints/3e9a8d7e3669614d2898fef33103969404e19e9f,http://data.europa.eu/949/functionalInfrastructure/operationalPoints/IE%2BOP108,IE+OP108,TD 48,54.077622,-8.5156171,http://data.europa.eu/949/concepts/op-types/rinf/30,30,http://publications.europa.eu/resource/authority/country/IRL,30,passenger terminal
http://data.europa.eu/949/functionalInfrastructure/operationalPoints/3f7335576692fc7e00d23b4064374e085375bb04,http://data.europa.eu/949/functionalInfrastructure/operationalPoints/IE%2BOP243,IE+OP243,Nenagh Station,52.860464,-8.1951835,http://data.europa.eu/949/concepts/op-types/rinf/30,30,http://publications.europa.eu/resource/authority/country/IRL,30,passenger terminal
http://data.europa.eu/949/functionalInfrastructure/operationalPoints/3fbe3326d7ec5e7a9c6f52e156b6b04ae63f9aff,http://data.europa.eu/949/functionalInfrastructure/operationalPoints/IE%2BOP45,IE+OP45,Pearse Station,53.342892,-6.2475167,http://data.europa.eu/949/concepts/op-types/rinf/30,30,http://publications.europa.eu/resource/authority/country/IRL,30,passenger terminal
http://data.europa.eu/949/functionalInfrastructure/operationalPoints/4036374c7ba34680e47e475243407cd8d42d5a59,http://data.europa.eu/949/functionalInfrastructure/operationalPoints/IE%2BOP219,IE+OP219,TD 81,52.2831479,-7.1415765,http://data.europa.eu/949/concepts/op-types/rinf/30,30,http://publications.europa.eu/resource/authority/country/IRL,30,passenger terminal
http://data.europa.eu/949/functionalInfrastructure/operationalPoints/410b8bf1ee90aeedb389bc4b36aa68ae129be2c5,http://data.europa.eu/949/functionalInfrastructure/operationalPoints/IE%2BOP24,IE+OP24,Navan Branch Junction,53.711552,-6.3325868,http://data.europa.eu/949/concepts/op-types/rinf/30,30,http://publications.europa.eu/resource/authority/country/IRL,30,passenger terminal
http://data.europa.eu/949/functionalInfrastructure/operationalPoints/41bcceda7b9221be30c67cfb488f8e5192982c52,http://data.europa.eu/949/functionalInfrastructure/operationalPoints/IE%2BOP266,IE+OP266,Navan Road Parkway,53.37756,-6.34543,http://data.europa.eu/949/concepts/op-types/rinf/30,30,http://publications.europa.eu/resource/authority/country/IRL,30,passenger terminal
http://data.europa.eu/949/functionalInfrastructure/operationalPoints/41e4cd53ffb9fc52dab827a6601f7815569d7700,http://data.europa.eu/949/functionalInfrastructure/operationalPoints/IE%2BOP153,IE+OP153,Athlone Station,53.426877,-7.9357723,http://data.europa.eu/949/concepts/op-types/rinf/30,30,http://publications.europa.eu/resource/authority/country/IRL,30,passenger terminal
http://data.europa.eu/949/functionalInfrastructure/operationalPoints/42b65569a53d7781489a61f38d7e751d55e0abc5,http://data.europa.eu/949/functionalInfrastructure/operationalPoints/IE%2BOP107,IE+OP107,TD 47,53.9671451,-8.3191953,http://data.europa.eu/949/concepts/op-types/rinf/30,30,http://publications.europa.eu/resource/authority/country/IRL,30,passenger terminal
http://data.europa.eu/949/functionalInfrastructure/operationalPoints/442492f361e420c1b3f31858b3163a05cfb0297e,http://data.europa.eu/949/functionalInfrastructure/operationalPoints/IE%2BOP93,IE+OP93,TD 38,53.6864953,-7.5907159,http://data.europa.eu/949/concepts/op-types/rinf/30,30,http://publications.europa.eu/resource/authority/country/IRL,30,passenger terminal
http://data.europa.eu/949/functionalInfrastructure/operationalPoints/442c085358f27cb42fd3ced97e9783a860f67751,http://data.europa.eu/949/functionalInfrastructure/operationalPoints/IE%2BOP72,IE+OP72,Rosslare Strand Station,52.271694,-6.3913133,http://data.europa.eu/949/concepts/op-types/rinf/30,30,http://publications.europa.eu/resource/authority/country/IRL,30,passenger terminal
http://data.europa.eu/949/functionalInfrastructure/operationalPoints/470775d878d5e0558f0479a6b25635e7a48a0f81,http://data.europa.eu/949/functionalInfrastructure/operationalPoints/IE%2BOP65,IE+OP65,Kilcoole Station,53.106957,-6.0408455,http://data.europa.eu/949/concepts/op-types/rinf/30,30,http://publications.europa.eu/resource/authority/country/IRL,30,passenger terminal
http://data.europa.eu/949/functionalInfrastructure/operationalPoints/489af37da1bf0b566e227d672c2c85235be8b368,http://data.europa.eu/949/functionalInfrastructure/operationalPoints/IE%2BOP55,IE+OP55,Salthill & Monkstown Station,53.295264,-6.1519612,http://data.europa.eu/949/concepts/op-types/rinf/30,30,http://publications.europa.eu/resource/authority/country/IRL,30,passenger terminal
http://data.europa.eu/949/functionalInfrastructure/operationalPoints/4ab83d233468d9328ae19a6b1175bca5b28df396,http://data.europa.eu/949/functionalInfrastructure/operationalPoints/IE%2BOP12,IE+OP12,East Wall Yard Junction,53.351396,-6.2324176,http://data.europa.eu/949/concepts/op-types/rinf/30,30,http://publications.europa.eu/resource/authority/country/IRL,30,passenger terminal
http://data.europa.eu/949/functionalInfrastructure/operationalPoints/4aeee88f4e2d60ae1e03ad71ec76f954a0e9246d,http://data.europa.eu/949/functionalInfrastructure/operationalPoints/IE%2BOP124,IE+OP124,Cherryville Junction,53.154407,-6.9645225,http://data.europa.eu/949/concepts/op-types/rinf/30,30,http://publications.europa.eu/resource/authority/country/IRL,30,passenger terminal
http://data.europa.eu/949/functionalInfrastructure/operationalPoints/4c07a60dc8e24bf6a07145341e8c6ce3c4b7735f,http://data.europa.eu/949/functionalInfrastructure/operationalPoints/IE%2BOP89,IE+OP89,TD 35,53.4948715,-7.1666219,http://data.europa.eu/949/concepts/op-types/rinf/30,30,http://publications.europa.eu/resource/authority/country/IRL,30,passenger terminal
http://data.europa.eu/949/functionalInfrastructure/operationalPoints/4c2fc5d975e8a6a6e8ec9575e547b439432e679f,http://data.europa.eu/949/functionalInfrastructure/operationalPoints/IE%2BOP174,IE+OP174,Athenry West Junction,53.301498,-8.7486474,http://data.europa.eu/949/concepts/op-types/rinf/30,30,http://publications.europa.eu/resource/authority/country/IRL,30,passenger terminal
http://data.europa.eu/949/functionalInfrastructure/operationalPoints/4d2fffe6053d30f7b54d91f6d996312b35df9b7f,http://data.europa.eu/949/functionalInfrastructure/operationalPoints/IE%2BOP126,IE+OP126,Lavistown South Junction,52.634445,-7.189594,http://data.europa.eu/949/concepts/op-types/rinf/30,30,http://publications.europa.eu/resource/authority/country/IRL,30,passenger terminal
http://data.europa.eu/949/functionalInfrastructure/operationalPoints/4e78c6cc864190806e43f86bf7ea0bca4d33b9c9,http://data.europa.eu/949/functionalInfrastructure/operationalPoints/IE%2BOP245,IE+OP245,Castleconnell Station,52.71292,-8.4980845,http://data.europa.eu/949/concepts/op-types/rinf/30,30,http://publications.europa.eu/resource/authority/country/IRL,30,passenger terminal
http://data.europa.eu/949/functionalInfrastructure/operationalPoints/4f4fa161cf1f9b0a64409860f6f98fd5f009a1a8,http://data.europa.eu/949/functionalInfrastructure/operationalPoints/IE%2BOP263,IE+OP263,Broombridge,53.37269,-6.2993,http://data.europa.eu/949/concepts/op-types/rinf/30,30,http://publications.europa.eu/resource/authority/country/IRL,30,passenger terminal
http://data.europa.eu/949/functionalInfrastructure/operationalPoints/51b0a54ff9347182a614e2f2b15ab3346f933252,http://data.europa.eu/949/functionalInfrastructure/operationalPoints/IE%2BOP188,IE+OP188,Templemore Station,52.788911,-7.8224959,http://data.europa.eu/949/concepts/op-types/rinf/30,30,http://publications.europa.eu/resource/authority/country/IRL,30,passenger terminal
http://data.europa.eu/949/functionalInfrastructure/operationalPoints/51ce77a635c2a4ae6c729bb237512ba8579df489,http://data.europa.eu/949/functionalInfrastructure/operationalPoints/IE%2BOP232,IE+OP232,TD 86,52.0843868,-9.2034163,http://data.europa.eu/949/concepts/op-types/rinf/30,30,http://publications.europa.eu/resource/authority/country/IRL,30,passenger terminal
http://data.europa.eu/949/functionalInfrastructure/operationalPoints/5342ddbbf681c5c93113e9052c010148084975d5,http://data.europa.eu/949/functionalInfrastructure/operationalPoints/IE%2BOP28,IE+OP28,Clongriffin Station,53.402589,-6.1488763,http://data.europa.eu/949/concepts/op-types/rinf/30,30,http://publications.europa.eu/resource/authority/country/IRL,30,passenger terminal
http://data.europa.eu/949/functionalInfrastructure/operationalPoints/539d67f4eea720b7f0a800cbe7b488bb8a41e953,http://data.europa.eu/949/functionalInfrastructure/operationalPoints/IE%2BOP117,IE+OP117,Cherry Orchard Station,53.334004,-6.3784605,http://data.europa.eu/949/concepts/op-types/rinf/30,30,http://publications.europa.eu/resource/authority/country/IRL,30,passenger terminal
http://data.europa.eu/949/functionalInfrastructure/operationalPoints/539fc2fe5324ce1ccbf614aa330eb239d65f0819,http://data.europa.eu/949/functionalInfrastructure/operationalPoints/IE%2BOP220,IE+OP220,Waterford Station,52.266161,-7.1176872,http://data.europa.eu/949/concepts/op-types/rinf/30,30,http://publications.europa.eu/resource/authority/country/IRL,30,passenger terminal
http://data.europa.eu/949/functionalInfrastructure/operationalPoints/54e989a7ff1992728c1f8a2774059a1fae70c80b,http://data.europa.eu/949/functionalInfrastructure/operationalPoints/IE%2BOP183,IE+OP183,Portlaoise Station,53.03685,-7.3011202,http://data.europa.eu/949/concepts/op-types/rinf/30,30,http://publications.europa.eu/resource/authority/country/IRL,30,passenger terminal
http://data.europa.eu/949/functionalInfrastructure/operationalPoints/5508c928b57b99bb8947452f372fdd10fa43395b,http://data.europa.eu/949/functionalInfrastructure/operationalPoints/IE%2BOP242,IE+OP242,Cloughjordan Station,52.936371,-8.0245577,http://data.europa.eu/949/concepts/op-types/rinf/30,30,http://publications.europa.eu/resource/authority/country/IRL,30,passenger terminal
http://data.europa.eu/949/functionalInfrastructure/operationalPoints/5539aa34353057379e74dff9fd0063c367bf2759,http://data.europa.eu/949/functionalInfrastructure/operationalPoints/IE%2BOP7,IE+OP7,Church Road Junction,53.35274,-6.2382052,http://data.europa.eu/949/concepts/op-types/rinf/30,30,http://publications.europa.eu/resource/authority/country/IRL,30,passenger terminal
http://data.europa.eu/949/functionalInfrastructure/operationalPoints/55d0b5f8d87a02aa990bf5f7d7993c5a66e33600,http://data.europa.eu/949/functionalInfrastructure/operationalPoints/IE%2BOP91,IE+OP91,Mullingar Station,53.522762,-7.3454882,http://data.europa.eu/949/concepts/op-types/rinf/30,30,http://publications.europa.eu/resource/authority/country/IRL,30,passenger terminal
http://data.europa.eu/949/functionalInfrastructure/operationalPoints/560916ddb739fd822c0559489c6861599d1f0e42,http://data.europa.eu/949/functionalInfrastructure/operationalPoints/IE%2BOP144,IE+OP144,TD 01,53.1543406,-6.9985624,http://data.europa.eu/949/concepts/op-types/rinf/30,30,http://publications.europa.eu/resource/authority/country/IRL,30,passenger terminal
http://data.europa.eu/949/functionalInfrastructure/operationalPoints/568adfa21f35a08c7c2ce8b54f49fcffd88938e6,http://data.europa.eu/949/functionalInfrastructure/operationalPoints/IE%2BOP148,IE+OP148,TD 84,53.1513023,-7.1923326,http://data.europa.eu/949/concepts/op-types/rinf/30,30,http://publications.europa.eu/resource/authority/country/IRL,30,passenger terminal
http://data.europa.eu/949/functionalInfrastructure/operationalPoints/56a2a42460f8eaea2a5081a7f8b0a7829ec8781e,http://data.europa.eu/949/functionalInfrastructure/operationalPoints/IE%2BOP110,IE+OP110,TD 49,54.0895741,-8.5215113,http://data.europa.eu/949/concepts/op-types/rinf/30,30,http://publications.europa.eu/resource/authority/country/IRL,30,passenger terminal
http://data.europa.eu/949/functionalInfrastructure/operationalPoints/56a943de833028cef053b858f90a6d53eebd8974,http://data.europa.eu/949/functionalInfrastructure/operationalPoints/IE%2BOP49,IE+OP49,TD 33,53.3292715,-6.2227734,http://data.europa.eu/949/concepts/op-types/rinf/30,30,http://publications.europa.eu/resource/authority/country/IRL,30,passenger terminal
http://data.europa.eu/949/functionalInfrastructure/operationalPoints/5771a15e0f135fb05996ce2546cca5718df291e5,http://data.europa.eu/949/functionalInfrastructure/operationalPoints/IE%2BOP221,IE+OP221,Bellview Port Station,52.262819,-7.0372598,http://data.europa.eu/949/concepts/op-types/rinf/30,30,http://publications.europa.eu/resource/authority/country/IRL,30,passenger terminal
http://data.europa.eu/949/functionalInfrastructure/operationalPoints/59dcf48555d8eec28a10f7afd94dd8ed1891a63a,http://data.europa.eu/949/functionalInfrastructure/operationalPoints/IE%2BOP179,IE+OP179,TD 16,53.1455004,-7.185476,http://data.europa.eu/949/concepts/op-types/rinf/30,30,http://publications.europa.eu/resource/authority/country/IRL,30,passenger terminal
http://data.europa.eu/949/functionalInfrastructure/operationalPoints/5a65543d75360e52478e19a6fb8157bc6e7b8ca4,http://data.europa.eu/949/functionalInfrastructure/operationalPoints/IE%2BOP31,IE+OP31,TD 18,53.440035,-6.156107,http://data.europa.eu/949/concepts/op-types/rinf/30,30,http://publications.europa.eu/resource/authority/country/IRL,30,passenger terminal
http://data.europa.eu/949/functionalInfrastructure/operationalPoints/5a8d94ac213cbc99158eb7a53b5fc4c6cb0c2acc,http://data.europa.eu/949/functionalInfrastructure/operationalPoints/IE%2BOP194,IE+OP194,Limerick Junction North West Junction,52.51047,-8.1998308,http://data.europa.eu/949/concepts/op-types/rinf/30,30,http://publications.europa.eu/resource/authority/country/IRL,30,passenger terminal
http://data.europa.eu/949/functionalInfrastructure/operationalPoints/5abc841e1fe01f8a71657fcf3eb406b4d778a23b,http://data.europa.eu/949/functionalInfrastructure/operationalPoints/IE%2BOP114,IE+OP114,Park West Station,53.333897,-6.3791402,http://data.europa.eu/949/concepts/op-types/rinf/30,30,http://publications.europa.eu/resource/authority/country/IRL,30,passenger terminal
http://data.europa.eu/949/functionalInfrastructure/operationalPoints/5c631aa80d58c3f49424a7dfcbe1b909c1242781,http://data.europa.eu/949/functionalInfrastructure/operationalPoints/IE%2BOP9,IE+OP9,Connolly Junction,53.351754,-6.2481295,http://data.europa.eu/949/concepts/op-types/rinf/30,30,http://publications.europa.eu/resource/authority/country/IRL,30,passenger terminal
http://data.europa.eu/949/functionalInfrastructure/operationalPoints/5e2de39b0d1ccf031872d7ee03922cc661364f71,http://data.europa.eu/949/functionalInfrastructure/operationalPoints/IE%2BOP262,IE+OP262,Athenry Junction,53.298393,-8.753704,http://data.europa.eu/949/concepts/op-types/rinf/30,30,http://publications.europa.eu/resource/authority/country/IRL,30,passenger terminal
http://data.europa.eu/949/functionalInfrastructure/operationalPoints/5e5d4234a3a03abf14e8d9dec02a5e1755e41d78,http://data.europa.eu/949/functionalInfrastructure/operationalPoints/IE%2BOP212,IE+OP212,Rushbrooke Station,51.849389,-8.3227363,http://data.europa.eu/949/concepts/op-types/rinf/30,30,http://publications.europa.eu/resource/authority/country/IRL,30,passenger terminal
http://data.europa.eu/949/functionalInfrastructure/operationalPoints/5ef110425815f6d5105279db99673c20c856958a,http://data.europa.eu/949/functionalInfrastructure/operationalPoints/IE%2BOP233,IE+OP233,Tralee Junction,52.058713,-9.4961747,http://data.europa.eu/949/concepts/op-types/rinf/30,30,http://publications.europa.eu/resource/authority/country/IRL,30,passenger terminal
http://data.europa.eu/949/functionalInfrastructure/operationalPoints/5f26ccf027d986741e4cfc567664e0cc98a8010e,http://data.europa.eu/949/functionalInfrastructure/operationalPoints/IE%2BOP155,IE+OP155,TD 52,53.443706,-7.9749126,http://data.europa.eu/949/concepts/op-types/rinf/30,30,http://publications.europa.eu/resource/authority/country/IRL,30,passenger terminal
http://data.europa.eu/949/functionalInfrastructure/operationalPoints/61280ae417817b28a23124710466a1c5356da091,http://data.europa.eu/949/functionalInfrastructure/operationalPoints/IE%2BOP139,IE+OP139,TD 79,52.4788179,-7.1866111,http://data.europa.eu/949/concepts/op-types/rinf/30,30,http://publications.europa.eu/resource/authority/country/IRL,30,passenger terminal
http://data.europa.eu/949/functionalInfrastructure/operationalPoints/62a4f00c1e01649773031d990495a0ada5ed0a84,http://data.europa.eu/949/functionalInfrastructure/operationalPoints/IE%2BOP42,IE+OP42,Border,54.069054,-6.3788099,http://data.europa.eu/949/concepts/op-types/rinf/30,30,http://publications.europa.eu/resource/authority/country/IRL,30,passenger terminal
http://data.europa.eu/949/functionalInfrastructure/operationalPoints/62b68ae4be64eae14f5a8b1cdc0605ec9dac0dba,http://data.europa.eu/949/functionalInfrastructure/operationalPoints/IE%2BOP186,IE+OP186,Ballybrophy Station,52.899961,-7.6029908,http://data.europa.eu/949/concepts/op-types/rinf/30,30,http://publications.europa.eu/resource/authority/country/IRL,30,passenger terminal
http://data.europa.eu/949/functionalInfrastructure/operationalPoints/6a3c254ae9b6dfb99a2003a970d10ac106a318cb,http://data.europa.eu/949/functionalInfrastructure/operationalPoints/IE%2BOP178,IE+OP178,Galway Ceannt Station,53.273189,-9.0462465,http://data.europa.eu/949/concepts/op-types/rinf/30,30,http://publications.europa.eu/resource/authority/country/IRL,30,passenger terminal
http://data.europa.eu/949/functionalInfrastructure/operationalPoints/6bdd4563f47c1422b66401401ec0af28b31f580a,http://data.europa.eu/949/functionalInfrastructure/operationalPoints/IE%2BOP51,IE+OP51,Sydney Parade Station,53.320651,-6.2113241,http://data.europa.eu/949/concepts/op-types/rinf/30,30,http://publications.europa.eu/resource/authority/country/IRL,30,passenger terminal
http://data.europa.eu/949/functionalInfrastructure/operationalPoints/6d2fe41b57207592f5d4bb5fac5a605950994422,http://data.europa.eu/949/functionalInfrastructure/operationalPoints/IE%2BOP160,IE+OP160,Manulla Junction Station,53.82774,-9.1925576,http://data.europa.eu/949/concepts/op-types/rinf/30,30,http://publications.europa.eu/resource/authority/country/IRL,30,passenger terminal
http://data.europa.eu/949/functionalInfrastructure/operationalPoints/6d3ae9e3b466e7a5450e53fe4e5462475ad2ff90,http://data.europa.eu/949/functionalInfrastructure/operationalPoints/IE%2BOP193,IE+OP193,Limerick Junction South Junction,52.503383,-8.1976042,http://data.europa.eu/949/concepts/op-types/rinf/30,30,http://publications.europa.eu/resource/authority/country/IRL,30,passenger terminal
http://data.europa.eu/949/functionalInfrastructure/operationalPoints/6e63cdc48f5e6cdda7dd4b4c33874530786d0d95,http://data.europa.eu/949/functionalInfrastructure/operationalPoints/IE%2BOP81,IE+OP81,Leixlip (Louisa Bridge) Station,53.369891,-6.5066573,http://data.europa.eu/949/concepts/op-types/rinf/30,30,http://publications.europa.eu/resource/authority/country/IRL,30,passenger terminal
http://data.europa.eu/949/functionalInfrastructure/operationalPoints/6edf5dd0abcde698ab159ec1c407b9aa703e417a,http://data.europa.eu/949/functionalInfrastructure/operationalPoints/IE%2BOP268,IE+OP268,Coolmine,53.37758,-6.39151,http://data.europa.eu/949/concepts/op-types/rinf/30,30,http://publications.europa.eu/resource/authority/country/IRL,30,passenger terminal
http://data.europa.eu/949/functionalInfrastructure/operationalPoints/6fef453ef1b9a9d3cc91069efd957924492565ed,http://data.europa.eu/949/functionalInfrastructure/operationalPoints/IE%2BOP240,IE+OP240,Killarney Station,52.058992,-9.5024837,http://data.europa.eu/949/concepts/op-types/rinf/30,30,http://publications.europa.eu/resource/authority/country/IRL,30,passenger terminal
http://data.europa.eu/949/functionalInfrastructure/operationalPoints/706335620075b360f4ee9f8b64412c73efcfd679,http://data.europa.eu/949/functionalInfrastructure/operationalPoints/IE%2BOP251,IE+OP251,Limerick Colbert Station,52.656254,-8.618513,http://data.europa.eu/949/concepts/op-types/rinf/30,30,http://publications.europa.eu/resource/authority/country/IRL,30,passenger terminal
http://data.europa.eu/949/functionalInfrastructure/operationalPoints/706efb054e88a6c37a637fab3462f1ff19fa5647,http://data.europa.eu/949/functionalInfrastructure/operationalPoints/IE%2BOP199,IE+OP199,TD 12,52.4887431,-8.2325773,http://data.europa.eu/949/concepts/op-types/rinf/30,30,http://publications.europa.eu/resource/authority/country/IRL,30,passenger terminal
http://data.europa.eu/949/functionalInfrastructure/operationalPoints/70abba96cabe491e87bdde67afeb6adcfa42364e,http://data.europa.eu/949/functionalInfrastructure/operationalPoints/IE%2BOP216,IE+OP216,Cahir Station,52.377725,-7.9225898,http://data.europa.eu/949/concepts/op-types/rinf/30,30,http://publications.europa.eu/resource/authority/country/IRL,30,passenger terminal
http://data.europa.eu/949/functionalInfrastructure/operationalPoints/7186a2f6f257ded07b7ee19a4d1d5b3006a8783c,http://data.europa.eu/949/functionalInfrastructure/operationalPoints/IE%2BOP169,IE+OP169,Woodlawn Station,53.343101,-8.4717474,http://data.europa.eu/949/concepts/op-types/rinf/30,30,http://publications.europa.eu/resource/authority/country/IRL,30,passenger terminal
http://data.europa.eu/949/functionalInfrastructure/operationalPoints/72c964adb979fb989de4025696ad242db03f810e,http://data.europa.eu/949/functionalInfrastructure/operationalPoints/IE%2BOP70,IE+OP70,Enniscorthy Station,52.504341,-6.5659936,http://data.europa.eu/949/concepts/op-types/rinf/30,30,http://publications.europa.eu/resource/authority/country/IRL,30,passenger terminal
http://data.europa.eu/949/functionalInfrastructure/operationalPoints/7525fbd8842d944fa7ec9bfc4ad81484021a614e,http://data.europa.eu/949/functionalInfrastructure/operationalPoints/IE%2BOP15,IE+OP15,Docklands Station,53.350688,-6.2391911,http://data.europa.eu/949/concepts/op-types/rinf/30,30,http://publications.europa.eu/resource/authority/country/IRL,30,passenger terminal
http://data.europa.eu/949/functionalInfrastructure/operationalPoints/76235c3ab22124813a7905e275185bf7e26b302d,http://data.europa.eu/949/functionalInfrastructure/operationalPoints/IE%2BOP48,IE+OP48,TD 32,53.3292492,-6.2228154,http://data.europa.eu/949/concepts/op-types/rinf/30,30,http://publications.europa.eu/resource/authority/country/IRL,30,passenger terminal
http://data.europa.eu/949/functionalInfrastructure/operationalPoints/763055f21950a1154f1ae80e4043a0d210baf5fc,http://data.europa.eu/949/functionalInfrastructure/operationalPoints/IE%2BOP11,IE+OP11,North Strand Junction,53.358655,-6.2407104,http://data.europa.eu/949/concepts/op-types/rinf/30,30,http://publications.europa.eu/resource/authority/country/IRL,30,passenger terminal
http://data.europa.eu/949/functionalInfrastructure/operationalPoints/76d6c734c21a554a50e59600f97245c576bce907,http://data.europa.eu/949/functionalInfrastructure/operationalPoints/IE%2BOP140,IE+OP140,TD 80,52.4583096,-7.192615,http://data.europa.eu/949/concepts/op-types/rinf/30,30,http://publications.europa.eu/resource/authority/country/IRL,30,passenger terminal
http://data.europa.eu/949/functionalInfrastructure/operationalPoints/7b28da7b7f419b5814ef3a0adae7ea5ecfd6ec37,http://data.europa.eu/949/functionalInfrastructure/operationalPoints/IE%2BOP20,IE+OP20,TD 28,53.3572429,-6.2452082,http://data.europa.eu/949/concepts/op-types/rinf/30,30,http://publications.europa.eu/resource/authority/country/IRL,30,passenger terminal
http://data.europa.eu/949/functionalInfrastructure/operationalPoints/7bc66cb7cebb22158d37543b453a85f8fc9feb1d,http://data.europa.eu/949/functionalInfrastructure/operationalPoints/IE%2BOP99,IE+OP99,TD 42,53.8522286,-7.910402,http://data.europa.eu/949/concepts/op-types/rinf/30,30,http://publications.europa.eu/resource/authority/country/IRL,30,passenger terminal
http://data.europa.eu/949/functionalInfrastructure/operationalPoints/7cb58de40f0e88be5241a855b65a9722d3deb82e,http://data.europa.eu/949/functionalInfrastructure/operationalPoints/IE%2BOP101,IE+OP101,TD 43,53.8660547,-7.922826,http://data.europa.eu/949/concepts/op-types/rinf/30,30,http://publications.europa.eu/resource/authority/country/IRL,30,passenger terminal
http://data.europa.eu/949/functionalInfrastructure/operationalPoints/7d51655357e4c01969b9f73b3f16a5cda36a1ee3,http://data.europa.eu/949/functionalInfrastructure/operationalPoints/IE%2BOP92,IE+OP92,TD 37,53.5310579,-7.3471658,http://data.europa.eu/949/concepts/op-types/rinf/30,30,http://publications.europa.eu/resource/authority/country/IRL,30,passenger terminal
http://data.europa.eu/949/functionalInfrastructure/operationalPoints/815db5b9445a999fcd9c71c7067184f50ae2b931,http://data.europa.eu/949/functionalInfrastructure/operationalPoints/IE%2BOP30,IE+OP30,TD 19,53.437945,-6.155608,http://data.europa.eu/949/concepts/op-types/rinf/30,30,http://publications.europa.eu/resource/authority/country/IRL,30,passenger terminal
http://data.europa.eu/949/functionalInfrastructure/operationalPoints/81d78cf7b1bde5202dc203bf94ad2de2c630b8d3,http://data.europa.eu/949/functionalInfrastructure/operationalPoints/IE%2BOP29,IE+OP29,Portmarnock Station,53.418206,-6.1510112,http://data.europa.eu/949/concepts/op-types/rinf/30,30,http://publications.europa.eu/resource/authority/country/IRL,30,passenger terminal
http://data.europa.eu/949/functionalInfrastructure/operationalPoints/83ae0bf2e4c5732e4fc793031e8470d2afab5393,http://data.europa.eu/949/functionalInfrastructure/operationalPoints/IE%2BOP95,IE+OP95,TD 39,53.6932228,-7.6277516,http://data.europa.eu/949/concepts/op-types/rinf/30,30,http://publications.europa.eu/resource/authority/country/IRL,30,passenger terminal
http://data.europa.eu/949/functionalInfrastructure/operationalPoints/840548221081c25579a069ad591263a7b0331401,http://data.europa.eu/949/functionalInfrastructure/operationalPoints/IE%2BOP253,IE+OP253,Ennis Station,52.838976,-8.9754184,http://data.europa.eu/949/concepts/op-types/rinf/30,30,http://publications.europa.eu/resource/authority/country/IRL,30,passenger terminal
http://data.europa.eu/949/functionalInfrastructure/operationalPoints/84f6e8370443eff910f74fbf9163fa65a73308c8,http://data.europa.eu/949/functionalInfrastructure/operationalPoints/IE%2BOP185,IE+OP185,TD 05,53.0064528,-7.3688256,http://data.europa.eu/949/concepts/op-types/rinf/30,30,http://publications.europa.eu/resource/authority/country/IRL,30,passenger terminal
http://data.europa.eu/949/functionalInfrastructure/operationalPoints/8506d1b9dac2afcd93529c150c60148f36908f56,http://data.europa.eu/949/functionalInfrastructure/operationalPoints/IE%2BOP25,IE+OP25,TD 30,53.6768488,-6.3996488,http://data.europa.eu/949/concepts/op-types/rinf/30,30,http://publications.europa.eu/resource/authority/country/IRL,30,passenger terminal
http://data.europa.eu/949/functionalInfrastructure/operationalPoints/8621380b86bb8ea384b4272027cd813d0dd45d57,http://data.europa.eu/949/functionalInfrastructure/operationalPoints/IE%2BOP73,IE+OP73,Rosslare Europort Station,52.251161,-6.3379258,http://data.europa.eu/949/concepts/op-types/rinf/30,30,http://publications.europa.eu/resource/authority/country/IRL,30,passenger terminal
http://data.europa.eu/949/functionalInfrastructure/operationalPoints/86631c2e24c23290b7fe45ef327bd475e3fe9af1,http://data.europa.eu/949/functionalInfrastructure/operationalPoints/IE%2BOP109,IE+OP109,Ballymote Station,54.088312,-8.5207838,http://data.europa.eu/949/concepts/op-types/rinf/30,30,http://publications.europa.eu/resource/authority/country/IRL,30,passenger terminal
http://data.europa.eu/949/functionalInfrastructure/operationalPoints/8832fcf003d6fb9a96ce22ee2e31b19ad47a2210,http://data.europa.eu/949/functionalInfrastructure/operationalPoints/IE%2BOP226,IE+OP226,TD 64,52.0798123,-9.0491866,http://data.europa.eu/949/concepts/op-types/rinf/30,30,http://publications.europa.eu/resource/authority/country/IRL,30,passenger terminal
http://data.europa.eu/949/functionalInfrastructure/operationalPoints/8b3935dc718e6df48d74e6700277bd7c74364bff,http://data.europa.eu/949/functionalInfrastructure/operationalPoints/IE%2BOP88,IE+OP88,TD 34,53.4910322,-7.1411391,http://data.europa.eu/949/concepts/op-types/rinf/30,30,http://publications.europa.eu/resource/authority/country/IRL,30,passenger terminal
http://data.europa.eu/949/functionalInfrastructure/operationalPoints/8b982fecf8b8072d5b3c06aaa0711b31c0aff2be,http://data.europa.eu/949/functionalInfrastructure/operationalPoints/IE%2BOP215,IE+OP215,Midleton Station,51.92096,-8.1757322,http://data.europa.eu/949/concepts/op-types/rinf/30,30,http://publications.europa.eu/resource/authority/country/IRL,30,passenger terminal
http://data.europa.eu/949/functionalInfrastructure/operationalPoints/8c61f682c19038abcae3b76439f1105ff75ce8d8,http://data.europa.eu/949/functionalInfrastructure/operationalPoints/IE%2BOP256,IE+OP256,Craughwell Station,53.22628,-8.7360136,http://data.europa.eu/949/concepts/op-types/rinf/30,30,http://publications.europa.eu/resource/authority/country/IRL,30,passenger terminal
http://data.europa.eu/949/functionalInfrastructure/operationalPoints/8e664eb8e30c75a03adb90652b52be096d53ba47,http://data.europa.eu/949/functionalInfrastructure/operationalPoints/IE%2BOP176,IE+OP176,Oranmore Station,53.275058,-8.949696,http://data.europa.eu/949/concepts/op-types/rinf/30,30,http://publications.europa.eu/resource/authority/country/IRL,30,passenger terminal
http://data.europa.eu/949/functionalInfrastructure/operationalPoints/8f5901bd7e857860e3e646ec292401d143dc19d2,http://data.europa.eu/949/functionalInfrastructure/operationalPoints/IE%2BOP235,IE+OP235,TD 69,52.1670642,-9.5756892,http://data.europa.eu/949/concepts/op-types/rinf/30,30,http://publications.europa.eu/resource/authority/country/IRL,30,passenger terminal
http://data.europa.eu/949/functionalInfrastructure/operationalPoints/90485c4bcba26d500e09b8e8fc692ef742939190,http://data.europa.eu/949/functionalInfrastructure/operationalPoints/IE%2BOP90,IE+OP90,TD 36,53.5181589,-7.331991,http://data.europa.eu/949/concepts/op-types/rinf/30,30,http://publications.europa.eu/resource/authority/country/IRL,30,passenger terminal
http://data.europa.eu/949/functionalInfrastructure/operationalPoints/911c69d2a6aee59c0993f11ce6e035767d743497,http://data.europa.eu/949/functionalInfrastructure/operationalPoints/IE%2BOP98,IE+OP98,TD 41,53.7230496,-7.8090173,http://data.europa.eu/949/concepts/op-types/rinf/30,30,http://publications.europa.eu/resource/authority/country/IRL,30,passenger terminal
http://data.europa.eu/949/functionalInfrastructure/operationalPoints/917f44dccc816092c12cbbdac85668ec05aefc44,http://data.europa.eu/949/functionalInfrastructure/operationalPoints/IE%2BOP46,IE+OP46,Grand Canal Dock Station,53.339602,-6.2371101,http://data.europa.eu/949/concepts/op-types/rinf/30,30,http://publications.europa.eu/resource/authority/country/IRL,30,passenger terminal
http://data.europa.eu/949/functionalInfrastructure/operationalPoints/925fe71218552540e8c4be0cd531a7140544a9c5,http://data.europa.eu/949/functionalInfrastructure/operationalPoints/IE%2BOP13,IE+OP13,East Wall Yard Station,53.350434,-6.2299641,http://data.europa.eu/949/concepts/op-types/rinf/30,30,http://publications.europa.eu/resource/authority/country/IRL,30,passenger terminal
http://data.europa.eu/949/functionalInfrastructure/operationalPoints/9363a878cc6ab4f91b6d65b095389297a1940776,http://data.europa.eu/949/functionalInfrastructure/operationalPoints/IE%2BOP205,IE+OP205,TD 09,51.9283453,-8.4884197,http://data.europa.eu/949/concepts/op-types/rinf/30,30,http://publications.europa.eu/resource/authority/country/IRL,30,passenger terminal
http://data.europa.eu/949/functionalInfrastructure/operationalPoints/937914bb5c5d3ea8c4d4d20508169d8b15d493ff,http://data.europa.eu/949/functionalInfrastructure/operationalPoints/IE%2BOP197,IE+OP197,Tipperary Station,52.47013,-8.1616787,http://data.europa.eu/949/concepts/op-types/rinf/30,30,http://publications.europa.eu/resource/authority/country/IRL,30,passenger terminal
http://data.europa.eu/949/functionalInfrastructure/operationalPoints/94223caba39fc14ac8540884a749dd28b9111e01,http://data.europa.eu/949/functionalInfrastructure/operationalPoints/IE%2BOP248,IE+OP248,TD 60,52.644387,-8.5703488,http://data.europa.eu/949/concepts/op-types/rinf/30,30,http://publications.europa.eu/resource/authority/country/IRL,30,passenger terminal
http://data.europa.eu/949/functionalInfrastructure/operationalPoints/9467dba44efc8fdbb72ad32e2cffb3948bc25d8a,http://data.europa.eu/949/functionalInfrastructure/operationalPoints/IE%2BOP168,IE+OP168,TD 54,53.3442879,-8.4578735,http://data.europa.eu/949/concepts/op-types/rinf/30,30,http://publications.europa.eu/resource/authority/country/IRL,30,passenger terminal
http://data.europa.eu/949/functionalInfrastructure/operationalPoints/94ab9f90778c549917b770cafd49f0cb35a10d20,http://data.europa.eu/949/functionalInfrastructure/operationalPoints/IE%2BOP37,IE+OP37,Balbriggan Station,53.611766,-6.1822045,http://data.europa.eu/949/concepts/op-types/rinf/30,30,http://publications.europa.eu/resource/authority/country/IRL,30,passenger terminal
http://data.europa.eu/949/functionalInfrastructure/operationalPoints/957b3adf2a22a3f308172dcda7c187f901b86e1f,http://data.europa.eu/949/functionalInfrastructure/operationalPoints/IE%2BOP151,IE+OP151,Tullamore Station,53.270386,-7.4998523,http://data.europa.eu/949/concepts/op-types/rinf/30,30,http://publications.europa.eu/resource/authority/country/IRL,30,passenger terminal
http://data.europa.eu/949/functionalInfrastructure/operationalPoints/9719846a0759902f730b347f684739ef2088f262,http://data.europa.eu/949/functionalInfrastructure/operationalPoints/IE%2BOP162,IE+OP162,Foxford Station,53.98292,-9.1365674,http://data.europa.eu/949/concepts/op-types/rinf/30,30,http://publications.europa.eu/resource/authority/country/IRL,30,passenger terminal
http://data.europa.eu/949/functionalInfrastructure/operationalPoints/988c5435a0ad891270f89a99b34b13c419dc725c,http://data.europa.eu/949/functionalInfrastructure/operationalPoints/IE%2BOP61,IE+OP61,Shankill Station,53.236466,-6.1168643,http://data.europa.eu/949/concepts/op-types/rinf/30,30,http://publications.europa.eu/resource/authority/country/IRL,30,passenger terminal
http://data.europa.eu/949/functionalInfrastructure/operationalPoints/9913baf4578d0098d246d16212ed6e9164c6fa92,http://data.europa.eu/949/functionalInfrastructure/operationalPoints/IE%2BOP167,IE+OP167,TD 53,53.334101,-8.2552187,http://data.europa.eu/949/concepts/op-types/rinf/30,30,http://publications.europa.eu/resource/authority/country/IRL,30,passenger terminal
http://data.europa.eu/949/functionalInfrastructure/operationalPoints/9afa59b429237f8b62cfad1f2eaf357b155eff0c,http://data.europa.eu/949/functionalInfrastructure/operationalPoints/IE%2BOP142,IE+OP142,Waterford Junction,52.268621,-7.130204,http://data.europa.eu/949/concepts/op-types/rinf/30,30,http://publications.europa.eu/resource/authority/country/IRL,30,passenger terminal
http://data.europa.eu/949/functionalInfrastructure/operationalPoints/9b18dccd25aa582aeff211a4b2dccd1957980d7d,http://data.europa.eu/949/functionalInfrastructure/operationalPoints/IE%2BOP34,IE+OP34,Donabate Station,53.485779,-6.1508456,http://data.europa.eu/949/concepts/op-types/rinf/30,30,http://publications.europa.eu/resource/authority/country/IRL,30,passenger terminal
http://data.europa.eu/949/functionalInfrastructure/operationalPoints/9b20d786e571975d68ac769868b515bafe5490f5,http://data.europa.eu/949/functionalInfrastructure/operationalPoints/IE%2BOP181,IE+OP181,TD 04,53.056181,-7.2778223,http://data.europa.eu/949/concepts/op-types/rinf/30,30,http://publications.europa.eu/resource/authority/country/IRL,30,passenger terminal
http://data.europa.eu/949/functionalInfrastructure/operationalPoints/9b5edfcd2bf9d472290f805d5b20551061b6c5a5,http://data.europa.eu/949/functionalInfrastructure/operationalPoints/IE%2BOP27,IE+OP27,Tara Mines Station,53.654786,-6.7138213,http://data.europa.eu/949/concepts/op-types/rinf/30,30,http://publications.europa.eu/resource/authority/country/IRL,30,passenger terminal
http://data.europa.eu/949/functionalInfrastructure/operationalPoints/9bbeb1510a2b516f33159434ecb2e065811aa120,http://data.europa.eu/949/functionalInfrastructure/operationalPoints/IE%2BOP116,IE+OP116,TD 82,53.3355601,-6.3589235,http://data.europa.eu/949/concepts/op-types/rinf/30,30,http://publications.europa.eu/resource/authority/country/IRL,30,passenger terminal
http://data.europa.eu/949/functionalInfrastructure/operationalPoints/9c5fb3d6424079eee65bf7e471496034d2095b8b,http://data.europa.eu/949/functionalInfrastructure/operationalPoints/IE%2BOP158,IE+OP158,Ballyhaunis Station,53.761645,-8.759052,http://data.europa.eu/949/concepts/op-types/rinf/30,30,http://publications.europa.eu/resource/authority/country/IRL,30,passenger terminal
http://data.europa.eu/949/functionalInfrastructure/operationalPoints/9caad8999bde7fa5679eeaf8dcf8cc9b6ce150cf,http://data.europa.eu/949/functionalInfrastructure/operationalPoints/IE%2BOP119,IE+OP119,Adamstown Station,53.336065,-6.4691766,http://data.europa.eu/949/concepts/op-types/rinf/30,30,http://publications.europa.eu/resource/authority/country/IRL,30,passenger terminal
http://data.europa.eu/949/functionalInfrastructure/operationalPoints/9cc86828b1def5ad537a7b13fa11b383c2878809,http://data.europa.eu/949/functionalInfrastructure/operationalPoints/IE%2BOP234,IE+OP234,TD 68,52.0627844,-9.5037683,http://data.europa.eu/949/concepts/op-types/rinf/30,30,http://publications.europa.eu/resource/authority/country/IRL,30,passenger terminal
http://data.europa.eu/949/functionalInfrastructure/operationalPoints/9d84836566af5333f6b784f20758f776638bdd73,http://data.europa.eu/949/functionalInfrastructure/operationalPoints/IE%2BOP196,IE+OP196,TD 06,52.4707179,-8.1681242,http://data.europa.eu/949/concepts/op-types/rinf/30,30,http://publications.europa.eu/resource/authority/country/IRL,30,passenger terminal
http://data.europa.eu/949/functionalInfrastructure/operationalPoints/9e0608ad9d8000503a27d3e763c992245d2a781e,http://data.europa.eu/949/functionalInfrastructure/operationalPoints/IE%2BOP69,IE+OP69,Gorey Station,52.67113,-6.2920298,http://data.europa.eu/949/concepts/op-types/rinf/30,30,http://publications.europa.eu/resource/authority/country/IRL,30,passenger terminal
http://data.europa.eu/949/functionalInfrastructure/operationalPoints/9f329adb1c22908aaf47455dbd0777e655f1d929,http://data.europa.eu/949/functionalInfrastructure/operationalPoints/IE%2BOP56,IE+OP56,Dun Laoghaire Mallin Station,53.294863,-6.1343223,http://data.europa.eu/949/concepts/op-types/rinf/30,30,http://publications.europa.eu/resource/authority/country/IRL,30,passenger terminal
http://data.europa.eu/949/functionalInfrastructure/operationalPoints/a1ccdb1f0ec6d3c77f19b5fc1ae148dd1e9ac687,http://data.europa.eu/949/functionalInfrastructure/operationalPoints/IE%2BOP189,IE+OP189,Thurles Station,52.676772,-7.821936,http://data.europa.eu/949/concepts/op-types/rinf/30,30,http://publications.europa.eu/resource/authority/country/IRL,30,passenger terminal
http://data.europa.eu/949/functionalInfrastructure/operationalPoints/a21e83a0cfd00e779b3723056627a6dba1164939,http://data.europa.eu/949/functionalInfrastructure/operationalPoints/IE%2BOP191,IE+OP191,TD 13,52.5290715,-8.1419396,http://data.europa.eu/949/concepts/op-types/rinf/30,30,http://publications.europa.eu/resource/authority/country/IRL,30,passenger terminal
http://data.europa.eu/949/functionalInfrastructure/operationalPoints/a23277dbc1c1d5d03055b91574a5eb0e046063f8,http://data.europa.eu/949/functionalInfrastructure/operationalPoints/IE%2BOP166,IE+OP166,Ballinasloe Station,53.336406,-8.2399874,http://data.europa.eu/949/concepts/op-types/rinf/30,30,http://publications.europa.eu/resource/authority/country/IRL,30,passenger terminal
http://data.europa.eu/949/functionalInfrastructure/operationalPoints/a2835bc71fc8c2839181917c583e0db8d444675f,http://data.europa.eu/949/functionalInfrastructure/operationalPoints/IE%2BOP136,IE+OP136,TD 77,52.6325264,-7.1455543,http://data.europa.eu/949/concepts/op-types/rinf/30,30,http://publications.europa.eu/resource/authority/country/IRL,30,passenger terminal
http://data.europa.eu/949/functionalInfrastructure/operationalPoints/a3fdff48c7cc2b835da6329da27d05756fbd74a1,http://data.europa.eu/949/functionalInfrastructure/operationalPoints/IE%2BOP257,IE+OP257,TD 59,53.2865967,-8.7535336,http://data.europa.eu/949/concepts/op-types/rinf/30,30,http://publications.europa.eu/resource/authority/country/IRL,30,passenger terminal
http://data.europa.eu/949/functionalInfrastructure/operationalPoints/a40adf038208361ba84baf0bed4e9bb7b08cafc4,http://data.europa.eu/949/functionalInfrastructure/operationalPoints/IE%2BOP175,IE+OP175,TD 57,53.2943834,-8.7629274,http://data.europa.eu/949/concepts/op-types/rinf/30,30,http://publications.europa.eu/resource/authority/country/IRL,30,passenger terminal
http://data.europa.eu/949/functionalInfrastructure/operationalPoints/a57899e60dd4aa74f0217e6e1e14d4efb1e37bc3,http://data.europa.eu/949/functionalInfrastructure/operationalPoints/IE%2BOP231,IE+OP231,TD 67,52.057773,-9.4789498,http://data.europa.eu/949/concepts/op-types/rinf/30,30,http://publications.europa.eu/resource/authority/country/IRL,30,passenger terminal
http://data.europa.eu/949/functionalInfrastructure/operationalPoints/a613c0e9c4fd7b8fa3c4db3fca0137570f00e32f,http://data.europa.eu/949/functionalInfrastructure/operationalPoints/IE%2BOP113,IE+OP113,Sligo MacDiarmada Station,54.272121,-8.4833842,http://data.europa.eu/949/concepts/op-types/rinf/30,30,http://publications.europa.eu/resource/authority/country/IRL,30,passenger terminal
http://data.europa.eu/949/functionalInfrastructure/operationalPoints/a843b9a49f1d6806c2980148eaf0fc3657d509d1,http://data.europa.eu/949/functionalInfrastructure/operationalPoints/IE%2BOP22,IE+OP22,Glasnevin Junction South Junction,53.366492,-6.2782977,http://data.europa.eu/949/concepts/op-types/rinf/30,30,http://publications.europa.eu/resource/authority/country/IRL,30,passenger terminal
http://data.europa.eu/949/functionalInfrastructure/operationalPoints/a8e6693d8a377411d1ab4cb3fcb7ec7e09c8818f,http://data.europa.eu/949/functionalInfrastructure/operationalPoints/IE%2BOP94,IE+OP94,Edgeworthstown Station,53.688854,-7.6028441,http://data.europa.eu/949/concepts/op-types/rinf/30,30,http://publications.europa.eu/resource/authority/country/IRL,30,passenger terminal
http://data.europa.eu/949/functionalInfrastructure/operationalPoints/a8ee95da9c4dd4aaed02ee4f62330504bf5a8c9e,http://data.europa.eu/949/functionalInfrastructure/operationalPoints/IE%2BOP21,IE+OP21,TD 29,53.358515,-6.2476032,http://data.europa.eu/949/concepts/op-types/rinf/30,30,http://publications.europa.eu/resource/authority/country/IRL,30,passenger terminal
http://data.europa.eu/949/functionalInfrastructure/operationalPoints/aa3281b98d499cbd4ad3f2ac200558ef4c41d920,http://data.europa.eu/949/functionalInfrastructure/operationalPoints/IE%2BOP255,IE+OP255,Ardrahan Station,53.157118,-8.8149377,http://data.europa.eu/949/concepts/op-types/rinf/30,30,http://publications.europa.eu/resource/authority/country/IRL,30,passenger terminal
http://data.europa.eu/949/functionalInfrastructure/operationalPoints/aa8f4bb8a7b97ccb16dd160549c8262110e12458,http://data.europa.eu/949/functionalInfrastructure/operationalPoints/IE%2BOP250,IE+OP250,Foyens Junction,52.654429,-8.6117629,http://data.europa.eu/949/concepts/op-types/rinf/30,30,http://publications.europa.eu/resource/authority/country/IRL,30,passenger terminal
http://data.europa.eu/949/functionalInfrastructure/operationalPoints/ab6170ac776a5ad990b44897f70bc605729064a9,http://data.europa.eu/949/functionalInfrastructure/operationalPoints/IE%2BOP104,IE+OP104,TD 45,53.9401773,-8.1218368,http://data.europa.eu/949/concepts/op-types/rinf/30,30,http://publications.europa.eu/resource/authority/country/IRL,30,passenger terminal
http://data.europa.eu/949/functionalInfrastructure/operationalPoints/ac2c0f585d417f4d1cb156ad07c559a560cf723c,http://data.europa.eu/949/functionalInfrastructure/operationalPoints/IE%2BOP32,IE+OP32,Malahide Station,53.450713,-6.1562238,http://data.europa.eu/949/concepts/op-types/rinf/30,30,http://publications.europa.eu/resource/authority/country/IRL,30,passenger terminal
http://data.europa.eu/949/functionalInfrastructure/operationalPoints/ac41fa5c27bed68257dd6838a35e5f1f951a1722,http://data.europa.eu/949/functionalInfrastructure/operationalPoints/IE%2BOP84,IE+OP84,Kilcock Station,53.404454,-6.6789465,http://data.europa.eu/949/concepts/op-types/rinf/30,30,http://publications.europa.eu/resource/authority/country/IRL,30,passenger terminal
http://data.europa.eu/949/functionalInfrastructure/operationalPoints/ad0ecbbc10d7bf0216f4aebb5111e218e25d3eb9,http://data.europa.eu/949/functionalInfrastructure/operationalPoints/IE%2BOP35,IE+OP35,Rush and Lusk Station,53.520912,-6.1428761,http://data.europa.eu/949/concepts/op-types/rinf/30,30,http://publications.europa.eu/resource/authority/country/IRL,30,passenger terminal
http://data.europa.eu/949/functionalInfrastructure/operationalPoints/ae7bfb8d26b359d37d2f5b303f21f152c1bbd2d4,http://data.europa.eu/949/functionalInfrastructure/operationalPoints/IE%2BOP135,IE+OP135,TD 76,52.6937652,-6.9659099,http://data.europa.eu/949/concepts/op-types/rinf/30,30,http://publications.europa.eu/resource/authority/country/IRL,30,passenger terminal
http://data.europa.eu/949/functionalInfrastructure/operationalPoints/aecea42dc00d1a29ef361893bc5e8c23a6dd5a20,http://data.europa.eu/949/functionalInfrastructure/operationalPoints/IE%2BOP227,IE+OP227,Millstreet Station,52.077211,-9.0702655,http://data.europa.eu/949/concepts/op-types/rinf/30,30,http://publications.europa.eu/resource/authority/country/IRL,30,passenger terminal
http://data.europa.eu/949/functionalInfrastructure/operationalPoints/af0f10d89f1d4001287cb3d8b5eebd2afdf4a8e6,http://data.europa.eu/949/functionalInfrastructure/operationalPoints/IE%2BOP267,IE+OP267,Castleknock,53.38154,-6.3714,http://data.europa.eu/949/concepts/op-types/rinf/30,30,http://publications.europa.eu/resource/authority/country/IRL,30,passenger terminal
http://data.europa.eu/949/functionalInfrastructure/operationalPoints/af5cc2854c4296fa4859eead4a7b589021a6aec5,http://data.europa.eu/949/functionalInfrastructure/operationalPoints/IE%2BOP79,IE+OP79,M3 Parkway Station,53.434376,-6.4686702,http://data.europa.eu/949/concepts/op-types/rinf/30,30,http://publications.europa.eu/resource/authority/country/IRL,30,passenger terminal
http://data.europa.eu/949/functionalInfrastructure/operationalPoints/b11d0f8e75987858516c2a94360dbc11b8e9dd43,http://data.europa.eu/949/functionalInfrastructure/operationalPoints/IE%2BOP38,IE+OP38,Gormanston Station,53.638129,-6.2171833,http://data.europa.eu/949/concepts/op-types/rinf/30,30,http://publications.europa.eu/resource/authority/country/IRL,30,passenger terminal
http://data.europa.eu/949/functionalInfrastructure/operationalPoints/b29e1be24a2a88cd0c3913e57407625b613b03f4,http://data.europa.eu/949/functionalInfrastructure/operationalPoints/IE%2BOP204,IE+OP204,TD 10,51.9315269,-8.4893551,http://data.europa.eu/949/concepts/op-types/rinf/30,30,http://publications.europa.eu/resource/authority/country/IRL,30,passenger terminal
http://data.europa.eu/949/functionalInfrastructure/operationalPoints/b4c8bd3e413e09edd274910e079eba227aa5d5b1,http://data.europa.eu/949/functionalInfrastructure/operationalPoints/IE%2BOP171,IE+OP171,Attymon Station,53.321178,-8.6063386,http://data.europa.eu/949/concepts/op-types/rinf/30,30,http://publications.europa.eu/resource/authority/country/IRL,30,passenger terminal
http://data.europa.eu/949/functionalInfrastructure/operationalPoints/b53db90199ea3570db4270cebce57f9893c93a76,http://data.europa.eu/949/functionalInfrastructure/operationalPoints/IE%2BOP64,IE+OP64,Greystones Station,53.144016,-6.0607445,http://data.europa.eu/949/concepts/op-types/rinf/30,30,http://publications.europa.eu/resource/authority/country/IRL,30,passenger terminal
http://data.europa.eu/949/functionalInfrastructure/operationalPoints/b6a3dbd6d332ba8405f67f70e366e66d20374382,http://data.europa.eu/949/functionalInfrastructure/operationalPoints/IE%2BOP259,IE+OP259,Port of Foynes,52.611349,-9.105733,http://data.europa.eu/949/concepts/op-types/rinf/30,30,http://publications.europa.eu/resource/authority/country/IRL,30,passenger terminal
http://data.europa.eu/949/functionalInfrastructure/operationalPoints/b76a5f24beba3e85e52d77eb95499fa9338c6522,http://data.europa.eu/949/functionalInfrastructure/operationalPoints/IE%2BOP252,IE+OP252,Sixmilebridge Station,52.738018,-8.7858356,http://data.europa.eu/949/concepts/op-types/rinf/30,30,http://publications.europa.eu/resource/authority/country/IRL,30,passenger terminal
http://data.europa.eu/949/functionalInfrastructure/operationalPoints/b7be45a4717d60606813b1c3acb7e197e3195dca,http://data.europa.eu/949/functionalInfrastructure/operationalPoints/IE%2BOP39,IE+OP39,Laytown Station,53.679007,-6.2418559,http://data.europa.eu/949/concepts/op-types/rinf/30,30,http://publications.europa.eu/resource/authority/country/IRL,30,passenger terminal
http://data.europa.eu/949/functionalInfrastructure/operationalPoints/b881887272903cc7b3a5d765283c14727271f951,http://data.europa.eu/949/functionalInfrastructure/operationalPoints/IE%2BOP36,IE+OP36,Skerries Station,53.574018,-6.118735,http://data.europa.eu/949/concepts/op-types/rinf/30,30,http://publications.europa.eu/resource/authority/country/IRL,30,passenger terminal
http://data.europa.eu/949/functionalInfrastructure/operationalPoints/b8a557a0ac57d6f6ab8bd3fd6d6556583e13321e,http://data.europa.eu/949/functionalInfrastructure/operationalPoints/IE%2BOP100,IE+OP100,Dromod,53.859129,-7.9163557,http://data.europa.eu/949/concepts/op-types/rinf/30,30,http://publications.europa.eu/resource/authority/country/IRL,30,passenger terminal
http://data.europa.eu/949/functionalInfrastructure/operationalPoints/b9ae23fb5f692c0bf47ec82a187af879d1ba6ea3,http://data.europa.eu/949/functionalInfrastructure/operationalPoints/IE%2BOP83,IE+OP83,TD 22,53.3770392,-6.6039426,http://data.europa.eu/949/concepts/op-types/rinf/30,30,http://publications.europa.eu/resource/authority/country/IRL,30,passenger terminal
http://data.europa.eu/949/functionalInfrastructure/operationalPoints/ba024835c62999ec83b3855094a046b55f81c732,http://data.europa.eu/949/functionalInfrastructure/operationalPoints/IE%2BOP66,IE+OP66,Wicklow Station,52.987946,-6.0523285,http://data.europa.eu/949/concepts/op-types/rinf/30,30,http://publications.europa.eu/resource/authority/country/IRL,30,passenger terminal
http://data.europa.eu/949/functionalInfrastructure/operationalPoints/ba98c92bde877c8dfb374811811fd8a7c12586c3,http://data.europa.eu/949/functionalInfrastructure/operationalPoints/IE%2BOP130,IE+OP130,TD 73,52.8493269,-6.9227734,http://data.europa.eu/949/concepts/op-types/rinf/30,30,http://publications.europa.eu/resource/authority/country/IRL,30,passenger terminal
http://data.europa.eu/949/functionalInfrastructure/operationalPoints/bb54901d8e8141efedeab0694c441d8605bb27e9,http://data.europa.eu/949/functionalInfrastructure/operationalPoints/IE%2BOP17,IE+OP17,TD 27,53.3647721,-6.2664106,http://data.europa.eu/949/concepts/op-types/rinf/30,30,http://publications.europa.eu/resource/authority/country/IRL,30,passenger terminal
http://data.europa.eu/949/functionalInfrastructure/operationalPoints/bb82d4ce8ef0b1a31a8fbe7240f3f14f7a91db84,http://data.europa.eu/949/functionalInfrastructure/operationalPoints/IE%2BOP19,IE+OP19,Glasnevin Junction North Junction,53.365621,-6.2746666,http://data.europa.eu/949/concepts/op-types/rinf/30,30,http://publications.europa.eu/resource/authority/country/IRL,30,passenger terminal
http://data.europa.eu/949/functionalInfrastructure/operationalPoints/bbffaffcce6e03bbdfafd4ca461b4fb644017b7c,http://data.europa.eu/949/functionalInfrastructure/operationalPoints/IE%2BOP115,IE+OP115,TD 83,53.3359449,-6.3539726,http://data.europa.eu/949/concepts/op-types/rinf/30,30,http://publications.europa.eu/resource/authority/country/IRL,30,passenger terminal
http://data.europa.eu/949/functionalInfrastructure/operationalPoints/bcdd3e4807cc9ba29b9b73b660395fc2de201251,http://data.europa.eu/949/functionalInfrastructure/operationalPoints/IE%2BOP249,IE+OP249,Ennis Junction,52.65175,-8.7337471,http://data.europa.eu/949/concepts/op-types/rinf/30,30,http://publications.europa.eu/resource/authority/country/IRL,30,passenger terminal
http://data.europa.eu/949/functionalInfrastructure/operationalPoints/bfbeb41e1a7f30d06e28a136aae8cca9a8d95d19,http://data.europa.eu/949/functionalInfrastructure/operationalPoints/IE%2BOP164,IE+OP164,Castlebar Station,53.847451,-9.2884917,http://data.europa.eu/949/concepts/op-types/rinf/30,30,http://publications.europa.eu/resource/authority/country/IRL,30,passenger terminal
http://data.europa.eu/949/functionalInfrastructure/operationalPoints/bffda9740d1d06b1a1c46c86abedf8731dc1cf6d,http://data.europa.eu/949/functionalInfrastructure/operationalPoints/IE%2BOP187,IE+OP187,Ballybrophy Junction,52.900984,-7.5999198,http://data.europa.eu/949/concepts/op-types/rinf/30,30,http://publications.europa.eu/resource/authority/country/IRL,30,passenger terminal
http://data.europa.eu/949/functionalInfrastructure/operationalPoints/c1a9830b94bc6964bf219aca326935aecb935ef4,http://data.europa.eu/949/functionalInfrastructure/operationalPoints/IE%2BOP184,IE+OP184,TD 02,53.0133907,-7.3531042,http://data.europa.eu/949/concepts/op-types/rinf/30,30,http://publications.europa.eu/resource/authority/country/IRL,30,passenger terminal
http://data.europa.eu/949/functionalInfrastructure/operationalPoints/c3106cb8085c4d0f6c0488c649f1e75e35441a34,http://data.europa.eu/949/functionalInfrastructure/operationalPoints/IE%2BOP8,IE+OP8,Ossary Road Junction,53.355619,-6.2414814,http://data.europa.eu/949/concepts/op-types/rinf/30,30,http://publications.europa.eu/resource/authority/country/IRL,30,passenger terminal
http://data.europa.eu/949/functionalInfrastructure/operationalPoints/c325817f3727ac395892c1d0aed3e5c63d79cd7a,http://data.europa.eu/949/functionalInfrastructure/operationalPoints/IE%2BOP80,IE+OP80,Leixlip (Confey) Station,53.374141,-6.4852139,http://data.europa.eu/949/concepts/op-types/rinf/30,30,http://publications.europa.eu/resource/authority/country/IRL,30,passenger terminal
http://data.europa.eu/949/functionalInfrastructure/operationalPoints/c39ef71a8f217bd874bbc7b4d1bb585f3079e16f,http://data.europa.eu/949/functionalInfrastructure/operationalPoints/IE%2BOP180,IE+OP180,TD 15,53.1438942,-7.1920177,http://data.europa.eu/949/concepts/op-types/rinf/30,30,http://publications.europa.eu/resource/authority/country/IRL,30,passenger terminal
http://data.europa.eu/949/functionalInfrastructure/operationalPoints/c481b5c4f889686f06f8ab47dd98f3b1fc89e917,http://data.europa.eu/949/functionalInfrastructure/operationalPoints/IE%2BOP200,IE+OP200,TD 08,52.4838729,-8.2461079,http://data.europa.eu/949/concepts/op-types/rinf/30,30,http://publications.europa.eu/resource/authority/country/IRL,30,passenger terminal
http://data.europa.eu/949/functionalInfrastructure/operationalPoints/c524294eb6b6df4a3140f357e5f1d3f80b124116,http://data.europa.eu/949/functionalInfrastructure/operationalPoints/IE%2BOP173,IE+OP173,Athenry Station,53.301498,-8.7486474,http://data.europa.eu/949/concepts/op-types/rinf/30,30,http://publications.europa.eu/resource/authority/country/IRL,30,passenger terminal
http://data.europa.eu/949/functionalInfrastructure/operationalPoints/c583be3c6394551244a4416ada69f4a8603e13f4,http://data.europa.eu/949/functionalInfrastructure/operationalPoints/IE%2BOP41,IE+OP41,Dundalk Clarke,54.001732,-6.4126668,http://data.europa.eu/949/concepts/op-types/rinf/30,30,http://publications.europa.eu/resource/authority/country/IRL,30,passenger terminal
http://data.europa.eu/949/functionalInfrastructure/operationalPoints/c5c80144091f866666ca3f245c5504a0c7c6fb87,http://data.europa.eu/949/functionalInfrastructure/operationalPoints/IE%2BOP33,IE+OP33,Malahide Viaduct ( electrification),53.458614,-6.1551586,http://data.europa.eu/949/concepts/op-types/rinf/30,30,http://publications.europa.eu/resource/authority/country/IRL,30,passenger terminal
http://data.europa.eu/949/functionalInfrastructure/operationalPoints/c6f3ef3d3d753a31ccf418e0c0cd92820ec1a4a4,http://data.europa.eu/949/functionalInfrastructure/operationalPoints/IE%2BOP86,IE+OP86,Enfield Station,53.416758,-6.832511,http://data.europa.eu/949/concepts/op-types/rinf/30,30,http://publications.europa.eu/resource/authority/country/IRL,30,passenger terminal
http://data.europa.eu/949/functionalInfrastructure/operationalPoints/c815e2db897057bbf893c5328efc2eb40731fa92,http://data.europa.eu/949/functionalInfrastructure/operationalPoints/IE%2BOP195,IE+OP195,Limerick Junction North Junction,52.505612,-8.1973785,http://data.europa.eu/949/concepts/op-types/rinf/30,30,http://publications.europa.eu/resource/authority/country/IRL,30,passenger terminal
http://data.europa.eu/949/functionalInfrastructure/operationalPoints/c8bf67e6a93c22924b6cb525704248501d1bd35b,http://data.europa.eu/949/functionalInfrastructure/operationalPoints/IE%2BOP121,IE+OP121,Sallins Station,53.246738,-6.6646467,http://data.europa.eu/949/concepts/op-types/rinf/30,30,http://publications.europa.eu/resource/authority/country/IRL,30,passenger terminal
http://data.europa.eu/949/functionalInfrastructure/operationalPoints/c92314df6f2885b6145a99026ea826bc32290d4b,http://data.europa.eu/949/functionalInfrastructure/operationalPoints/IE%2BOP47,IE+OP47,Lansdowne Road Station,53.333829,-6.2283846,http://data.europa.eu/949/concepts/op-types/rinf/30,30,http://publications.europa.eu/resource/authority/country/IRL,30,passenger terminal
http://data.europa.eu/949/functionalInfrastructure/operationalPoints/ca9e5d22f4a6b075b585385fd700960df1d29486,http://data.europa.eu/949/functionalInfrastructure/operationalPoints/IE%2BOP1,IE+OP1,Howth Junction,53.390475,-6.157163,http://data.europa.eu/949/concepts/op-types/rinf/30,30,http://publications.europa.eu/resource/authority/country/IRL,30,passenger terminal
http://data.europa.eu/949/functionalInfrastructure/operationalPoints/caa915862aef8a0cb15653b40271bc8354805fef,http://data.europa.eu/949/functionalInfrastructure/operationalPoints/IE%2BOP159,IE+OP159,Claremorris Station,53.720759,-9.0024484,http://data.europa.eu/949/concepts/op-types/rinf/30,30,http://publications.europa.eu/resource/authority/country/IRL,30,passenger terminal
http://data.europa.eu/949/functionalInfrastructure/operationalPoints/cb8507a5a7c09dbf62bc6d5acd3dc0f5f1f1c370,http://data.europa.eu/949/functionalInfrastructure/operationalPoints/IE%2BOP128,IE+OP128,Athy,52.992397,-6.9766983,http://data.europa.eu/949/concepts/op-types/rinf/30,30,http://publications.europa.eu/resource/authority/country/IRL,30,passenger terminal
http://data.europa.eu/949/functionalInfrastructure/operationalPoints/cb974c99efb84a8dac1f1e1818ac358e9ff2d382,http://data.europa.eu/949/functionalInfrastructure/operationalPoints/IE%2BOP261,IE+OP261,TD 78,52.6183754,-7.1799052,http://data.europa.eu/949/concepts/op-types/rinf/30,30,http://publications.europa.eu/resource/authority/country/IRL,30,passenger terminal
http://data.europa.eu/949/functionalInfrastructure/operationalPoints/cc3923c7f07e22ad055c0a84ff317ff52960d20e,http://data.europa.eu/949/functionalInfrastructure/operationalPoints/IE%2BOP3,IE+OP3,Bayside Station,53.391349,-6.1352615,http://data.europa.eu/949/concepts/op-types/rinf/30,30,http://publications.europa.eu/resource/authority/country/IRL,30,passenger terminal
http://data.europa.eu/949/functionalInfrastructure/operationalPoints/cd25da653b65e3c243dfde575f9e516226ad9220,http://data.europa.eu/949/functionalInfrastructure/operationalPoints/IE%2BOP10,IE+OP10,Newcomen Junction,53.356782,-6.2441376,http://data.europa.eu/949/concepts/op-types/rinf/30,30,http://publications.europa.eu/resource/authority/country/IRL,30,passenger terminal
http://data.europa.eu/949/functionalInfrastructure/operationalPoints/cefea1d086dccf3be675094cc95c8420c6260793,http://data.europa.eu/949/functionalInfrastructure/operationalPoints/IE%2BOP54,IE+OP54,Seapoint Station,53.299089,-6.1651331,http://data.europa.eu/949/concepts/op-types/rinf/30,30,http://publications.europa.eu/resource/authority/country/IRL,30,passenger terminal
http://data.europa.eu/949/functionalInfrastructure/operationalPoints/d0d2805016e89bdecef3c9c27878a0d8a9677355,http://data.europa.eu/949/functionalInfrastructure/operationalPoints/IE%2BOP87,IE+OP87,TD 24,53.4124186,-6.845584,http://data.europa.eu/949/concepts/op-types/rinf/30,30,http://publications.europa.eu/resource/authority/country/IRL,30,passenger terminal
http://data.europa.eu/949/functionalInfrastructure/operationalPoints/d230cf9b42c34a997916b500c2ae2f62548c09ae,http://data.europa.eu/949/functionalInfrastructure/operationalPoints/IE%2BOP131,IE+OP131,Carlow,52.840662,-6.9223095,http://data.europa.eu/949/concepts/op-types/rinf/30,30,http://publications.europa.eu/resource/authority/country/IRL,30,passenger terminal
http://data.europa.eu/949/functionalInfrastructure/operationalPoints/d25736809bad48dadb1cb71000308e4c03e593bd,http://data.europa.eu/949/functionalInfrastructure/operationalPoints/IE%2BOP123,IE+OP123,Kildare Station,53.162771,-6.9078724,http://data.europa.eu/949/concepts/op-types/rinf/30,30,http://publications.europa.eu/resource/authority/country/IRL,30,passenger terminal
http://data.europa.eu/949/functionalInfrastructure/operationalPoints/d2818b697a6c34ee9d919a25e53d8cdc7fdccf16,http://data.europa.eu/949/functionalInfrastructure/operationalPoints/IE%2BOP172,IE+OP172,TD 56,53.3134011,-8.7235817,http://data.europa.eu/949/concepts/op-types/rinf/30,30,http://publications.europa.eu/resource/authority/country/IRL,30,passenger terminal
http://data.europa.eu/949/functionalInfrastructure/operationalPoints/d31e615675684db0f948de1a78ea984e97c06d58,http://data.europa.eu/949/functionalInfrastructure/operationalPoints/IE%2BOP244,IE+OP244,Birdhill Station,52.765536,-8.4422345,http://data.europa.eu/949/concepts/op-types/rinf/30,30,http://publications.europa.eu/resource/authority/country/IRL,30,passenger terminal
http://data.europa.eu/949/functionalInfrastructure/operationalPoints/d3be9a3668984486ce0aa48fe08a24964b28ae0e,http://data.europa.eu/949/functionalInfrastructure/operationalPoints/IE%2BOP213,IE+OP213,Cobh Station,51.848587,-8.3000898,http://data.europa.eu/949/concepts/op-types/rinf/30,30,http://publications.europa.eu/resource/authority/country/IRL,30,passenger terminal
http://data.europa.eu/949/functionalInfrastructure/operationalPoints/d505061eae55a899620f066ef865bff066221efd,http://data.europa.eu/949/functionalInfrastructure/operationalPoints/IE%2BOP63,IE+OP63,TD 25,53.1473896,-6.0651161,http://data.europa.eu/949/concepts/op-types/rinf/30,30,http://publications.europa.eu/resource/authority/country/IRL,30,passenger terminal
http://data.europa.eu/949/functionalInfrastructure/operationalPoints/d51bdf87370f9655b45b7461f1bcc5a24f9a4d9a,http://data.europa.eu/949/functionalInfrastructure/operationalPoints/IE%2BOP161,IE+OP161,Manulla Junction Junction,53.82774,-9.1925576,http://data.europa.eu/949/concepts/op-types/rinf/30,30,http://publications.europa.eu/resource/authority/country/IRL,30,passenger terminal
http://data.europa.eu/949/functionalInfrastructure/operationalPoints/d6054ec87ef99c6770294589ee53bedc9a15ac06,http://data.europa.eu/949/functionalInfrastructure/operationalPoints/IE%2BOP105,IE+OP105,TD 46,53.969222,-8.2939245,http://data.europa.eu/949/concepts/op-types/rinf/30,30,http://publications.europa.eu/resource/authority/country/IRL,30,passenger terminal
http://data.europa.eu/949/functionalInfrastructure/operationalPoints/d6483e8a16440df6a0b0246f89bef1b64ffa2be9,http://data.europa.eu/949/functionalInfrastructure/operationalPoints/IE%2BOP230,IE+OP230,TD 66,52.0860672,-9.2295291,http://data.europa.eu/949/concepts/op-types/rinf/30,30,http://publications.europa.eu/resource/authority/country/IRL,30,passenger terminal
http://data.europa.eu/949/functionalInfrastructure/operationalPoints/d6c29285fb5725a9ccad508b61181eac69b3fddc,http://data.europa.eu/949/functionalInfrastructure/operationalPoints/IE%2BOP206,IE+OP206,Cork Kent Station,51.901459,-8.4582267,http://data.europa.eu/949/concepts/op-types/rinf/30,30,http://publications.europa.eu/resource/authority/country/IRL,30,passenger terminal
http://data.europa.eu/949/functionalInfrastructure/operationalPoints/d77d5a56aa11c970faf5b0c6871b0b0973bb5896,http://data.europa.eu/949/functionalInfrastructure/operationalPoints/IE%2BOP118,IE+OP118,Clondalkin Fonthill Station,53.333389,-6.4061394,http://data.europa.eu/949/concepts/op-types/rinf/30,30,http://publications.europa.eu/resource/authority/country/IRL,30,passenger terminal
http://data.europa.eu/949/functionalInfrastructure/operationalPoints/d8d823ef314c455eb96708db8cb4cc49a1ff4a97,http://data.europa.eu/949/functionalInfrastructure/operationalPoints/IE%2BOP59,IE+OP59,Dalkey Station,53.275757,-6.1030818,http://data.europa.eu/949/concepts/op-types/rinf/30,30,http://publications.europa.eu/resource/authority/country/IRL,30,passenger terminal
http://data.europa.eu/949/functionalInfrastructure/operationalPoints/d939d1232777a6fdeb551ef4488eb4e1d0c6a1d7,http://data.europa.eu/949/functionalInfrastructure/operationalPoints/IE%2BOP209,IE+OP209,Cobh Junction,51.910815,-8.3230311,http://data.europa.eu/949/concepts/op-types/rinf/30,30,http://publications.europa.eu/resource/authority/country/IRL,30,passenger terminal
http://data.europa.eu/949/functionalInfrastructure/operationalPoints/d96d5fedc10c3654c7951c23621eccfbd0aa69c7,http://data.europa.eu/949/functionalInfrastructure/operationalPoints/IE%2BOP157,IE+OP157,Castlerea Station,53.761572,-8.4857814,http://data.europa.eu/949/concepts/op-types/rinf/30,30,http://publications.europa.eu/resource/authority/country/IRL,30,passenger terminal
http://data.europa.eu/949/functionalInfrastructure/operationalPoints/d9a5ca378e224b6cc1c069dc90280e0badbb125f,http://data.europa.eu/949/functionalInfrastructure/operationalPoints/IE%2BOP71,IE+OP71,Wexford Station,52.34308,-6.4641722,http://data.europa.eu/949/concepts/op-types/rinf/30,30,http://publications.europa.eu/resource/authority/country/IRL,30,passenger terminal
http://data.europa.eu/949/functionalInfrastructure/operationalPoints/da10a2ecc25844337264424a0f6314b90b957f14,http://data.europa.eu/949/functionalInfrastructure/operationalPoints/IE%2BOP260,IE+OP260,Lavistown West Junction,52.639779,-7.1955528,http://data.europa.eu/949/concepts/op-types/rinf/30,30,http://publications.europa.eu/resource/authority/country/IRL,30,passenger terminal
http://data.europa.eu/949/functionalInfrastructure/operationalPoints/db02db2f4ade005899c316cad4181b6bf64794ad,http://data.europa.eu/949/functionalInfrastructure/operationalPoints/IE%2BOP85,IE+OP85,TD 23,53.4194704,-6.8199902,http://data.europa.eu/949/concepts/op-types/rinf/30,30,http://publications.europa.eu/resource/authority/country/IRL,30,passenger terminal
http://data.europa.eu/949/functionalInfrastructure/operationalPoints/dbf2eecbebb21d19e746fbe774e66a492e4d7941,http://data.europa.eu/949/functionalInfrastructure/operationalPoints/IE%2BOP241,IE+OP241,Roscrea Station,52.960568,-7.7944243,http://data.europa.eu/949/concepts/op-types/rinf/30,30,http://publications.europa.eu/resource/authority/country/IRL,30,passenger terminal
http://data.europa.eu/949/functionalInfrastructure/operationalPoints/dc0d25c9dc7d9d63bf739502d07b7417379a806b,http://data.europa.eu/949/functionalInfrastructure/operationalPoints/IE%2BOP201,IE+OP201,Charleville Station,52.347064,-8.6538289,http://data.europa.eu/949/concepts/op-types/rinf/30,30,http://publications.europa.eu/resource/authority/country/IRL,30,passenger terminal
http://data.europa.eu/949/functionalInfrastructure/operationalPoints/ded74a4c79d86fd228c58ee6686a9d5b08bddb20,http://data.europa.eu/949/functionalInfrastructure/operationalPoints/IE%2BOP132,IE+OP132,TD 74,52.8327993,-6.91887,http://data.europa.eu/949/concepts/op-types/rinf/30,30,http://publications.europa.eu/resource/authority/country/IRL,30,passenger terminal
http://data.europa.eu/949/functionalInfrastructure/operationalPoints/e018c3bda18c26e139f555a6e30317f61d6ae0bf,http://data.europa.eu/949/functionalInfrastructure/operationalPoints/IE%2BOP26,IE+OP26,TD 31,53.6615702,-6.6517994,http://data.europa.eu/949/concepts/op-types/rinf/30,30,http://publications.europa.eu/resource/authority/country/IRL,30,passenger terminal
http://data.europa.eu/949/functionalInfrastructure/operationalPoints/e045796b5d2d6d6983df5848e2bd233ebe29d8ca,http://data.europa.eu/949/functionalInfrastructure/operationalPoints/IE%2BOP217,IE+OP217,Clonmel Station,52.360867,-7.6996815,http://data.europa.eu/949/concepts/op-types/rinf/30,30,http://publications.europa.eu/resource/authority/country/IRL,30,passenger terminal
http://data.europa.eu/949/functionalInfrastructure/operationalPoints/e0e46b9684e52acfd1e0aff2342e61189d9fb9ba,http://data.europa.eu/949/functionalInfrastructure/operationalPoints/IE%2BOP78,IE+OP78,Dunboyne Station,53.417472,-6.4644788,http://data.europa.eu/949/concepts/op-types/rinf/30,30,http://publications.europa.eu/resource/authority/country/IRL,30,passenger terminal
http://data.europa.eu/949/functionalInfrastructure/operationalPoints/e2b330f881705b05885495ba06f5322aa1bff2b5,http://data.europa.eu/949/functionalInfrastructure/operationalPoints/IE%2BOP68,IE+OP68,Arklow Station,52.793838,-6.1593519,http://data.europa.eu/949/concepts/op-types/rinf/30,30,http://publications.europa.eu/resource/authority/country/IRL,30,passenger terminal
http://data.europa.eu/949/functionalInfrastructure/operationalPoints/e2e04fbef7e545431c34ef14dabff723eef2e772,http://data.europa.eu/949/functionalInfrastructure/operationalPoints/IE%2BOP228,IE+OP228,TD 65,52.0741556,-9.0793427,http://data.europa.eu/949/concepts/op-types/rinf/30,30,http://publications.europa.eu/resource/authority/country/IRL,30,passenger terminal
http://data.europa.eu/949/functionalInfrastructure/operationalPoints/e35a66f72e913da2112e9ebb6464f3b7c8c7176a,http://data.europa.eu/949/functionalInfrastructure/operationalPoints/IE%2BOP237,IE+OP237,TD 70,52.1795129,-9.546956,http://data.europa.eu/949/concepts/op-types/rinf/30,30,http://publications.europa.eu/resource/authority/country/IRL,30,passenger terminal
http://data.europa.eu/949/functionalInfrastructure/operationalPoints/e4938b1e2e3fff853cdacd0e111372f6c36e17ff,http://data.europa.eu/949/functionalInfrastructure/operationalPoints/IE%2BOP182,IE+OP182,TD 03,53.0561929,-7.2778726,http://data.europa.eu/949/concepts/op-types/rinf/30,30,http://publications.europa.eu/resource/authority/country/IRL,30,passenger terminal
http://data.europa.eu/949/functionalInfrastructure/operationalPoints/e515cc288994a5aae9d037d77b3f099074d7ecda,http://data.europa.eu/949/functionalInfrastructure/operationalPoints/IE%2BOP57,IE+OP57,Sandycove & Glasthule Station,53.288211,-6.127034,http://data.europa.eu/949/concepts/op-types/rinf/30,30,http://publications.europa.eu/resource/authority/country/IRL,30,passenger terminal
http://data.europa.eu/949/functionalInfrastructure/operationalPoints/e5ca3a56795e137cc3a4801f931b20cad2da2aa5,http://data.europa.eu/949/functionalInfrastructure/operationalPoints/IE%2BOP223,IE+OP223,TD 62,52.1282407,-8.8866025,http://data.europa.eu/949/concepts/op-types/rinf/30,30,http://publications.europa.eu/resource/authority/country/IRL,30,passenger terminal
http://data.europa.eu/949/functionalInfrastructure/operationalPoints/e734f24c59aa32c7846c7e84e172581a9922b499,http://data.europa.eu/949/functionalInfrastructure/operationalPoints/IE%2BOP141,IE+OP141,Dunkitt Junction (No turnout here),52.283689,-7.141908,http://data.europa.eu/949/concepts/op-types/rinf/30,30,http://publications.europa.eu/resource/authority/country/IRL,30,passenger terminal
http://data.europa.eu/949/functionalInfrastructure/operationalPoints/e82a710799734a97afbcae2f851062c73a201247,http://data.europa.eu/949/functionalInfrastructure/operationalPoints/IE%2BOP236,IE+OP236,Farranfore Station,52.1736,-9.5523372,http://data.europa.eu/949/concepts/op-types/rinf/30,30,http://publications.europa.eu/resource/authority/country/IRL,30,passenger terminal
http://data.europa.eu/949/functionalInfrastructure/operationalPoints/e8a44e26b60dd2d5dc5c9190bdbbd8316894fd37,http://data.europa.eu/949/functionalInfrastructure/operationalPoints/IE%2BOP146,IE+OP146,Portarlington Station,53.146093,-7.1814295,http://data.europa.eu/949/concepts/op-types/rinf/30,30,http://publications.europa.eu/resource/authority/country/IRL,30,passenger terminal
http://data.europa.eu/949/functionalInfrastructure/operationalPoints/e903ac1352427643d2c2bbaa37f07e7a2dbbd9b8,http://data.europa.eu/949/functionalInfrastructure/operationalPoints/IE%2BOP133,IE+OP133,TD 75,52.7043893,-6.9459459,http://data.europa.eu/949/concepts/op-types/rinf/30,30,http://publications.europa.eu/resource/authority/country/IRL,30,passenger terminal
http://data.europa.eu/949/functionalInfrastructure/operationalPoints/ea29c9a56b2da4d23c871de0d54c12b813ae71dc,http://data.europa.eu/949/functionalInfrastructure/operationalPoints/IE%2BOP207,IE+OP207,Little Island Station,51.907379,-8.3552388,http://data.europa.eu/949/concepts/op-types/rinf/30,30,http://publications.europa.eu/resource/authority/country/IRL,30,passenger terminal
http://data.europa.eu/949/functionalInfrastructure/operationalPoints/ea9fe94fe6193ee31e22b3d2d957dd01ab8d4bd1,http://data.europa.eu/949/functionalInfrastructure/operationalPoints/IE%2BOP247,IE+OP247,TD 61,52.270846,-9.6993533,http://data.europa.eu/949/concepts/op-types/rinf/30,30,http://publications.europa.eu/resource/authority/country/IRL,30,passenger terminal
http://data.europa.eu/949/functionalInfrastructure/operationalPoints/ead901bd15b51ac0cdd935be087b39f81158d411,http://data.europa.eu/949/functionalInfrastructure/operationalPoints/IE%2BOP137,IE+OP137,Lavistown North Junction,52.637781,-7.1860458,http://data.europa.eu/949/concepts/op-types/rinf/30,30,http://publications.europa.eu/resource/authority/country/IRL,30,passenger terminal
http://data.europa.eu/949/functionalInfrastructure/operationalPoints/ebcb6814af4ef45205114c9e52f33527245ac9eb,http://data.europa.eu/949/functionalInfrastructure/operationalPoints/IE%2BOP58,IE+OP58,Glenageary Station,53.281074,-6.1227163,http://data.europa.eu/949/concepts/op-types/rinf/30,30,http://publications.europa.eu/resource/authority/country/IRL,30,passenger terminal
http://data.europa.eu/949/functionalInfrastructure/operationalPoints/ece9529edc27a706c4ae78f67a2eaf8a4add8f05,http://data.europa.eu/949/functionalInfrastructure/operationalPoints/IE%2BOP52,IE+OP52,Booterstown Station,53.30989,-6.1950123,http://data.europa.eu/949/concepts/op-types/rinf/30,30,http://publications.europa.eu/resource/authority/country/IRL,30,passenger terminal
http://data.europa.eu/949/functionalInfrastructure/operationalPoints/ee41bbf06df6db0b6548610aaa4f6f2cca2445fb,http://data.europa.eu/949/functionalInfrastructure/operationalPoints/IE%2BOP18,IE+OP18,TD 26,53.3655748,-6.2746721,http://data.europa.eu/949/concepts/op-types/rinf/30,30,http://publications.europa.eu/resource/authority/country/IRL,30,passenger terminal
http://data.europa.eu/949/functionalInfrastructure/operationalPoints/efb57f6ffd49fd0c5afa3f49acdcccd30dbe84c7,http://data.europa.eu/949/functionalInfrastructure/operationalPoints/IE%2BOP211,IE+OP211,Carrigaloe Station,51.868674,-8.3243843,http://data.europa.eu/949/concepts/op-types/rinf/30,30,http://publications.europa.eu/resource/authority/country/IRL,30,passenger terminal
http://data.europa.eu/949/functionalInfrastructure/operationalPoints/f2786fb157366d3d18a663d085c592d462e31478,http://data.europa.eu/949/functionalInfrastructure/operationalPoints/IE%2BOP67,IE+OP67,Rathdrum Station,52.930038,-6.2263279,http://data.europa.eu/949/concepts/op-types/rinf/30,30,http://publications.europa.eu/resource/authority/country/IRL,30,passenger terminal
http://data.europa.eu/949/functionalInfrastructure/operationalPoints/f32daf9b564a311f30da45bc3a3d65f0c7649146,http://data.europa.eu/949/functionalInfrastructure/operationalPoints/IE%2BOP202,IE+OP202,Mallow Station,52.138779,-8.6551716,http://data.europa.eu/949/concepts/op-types/rinf/30,30,http://publications.europa.eu/resource/authority/country/IRL,30,passenger terminal
http://data.europa.eu/949/functionalInfrastructure/operationalPoints/f45e16fc6ec1890959466a984a7dedfc89f7fe50,http://data.europa.eu/949/functionalInfrastructure/operationalPoints/IE%2BOP4,IE+OP4,Sutton Station,53.39195,-6.1157196,http://data.europa.eu/949/concepts/op-types/rinf/30,30,http://publications.europa.eu/resource/authority/country/IRL,30,passenger terminal
http://data.europa.eu/949/functionalInfrastructure/operationalPoints/f68e1c301767c2aedd1cafeabeff4c68f3c19cd9,http://data.europa.eu/949/functionalInfrastructure/operationalPoints/IE%2BOP43,IE+OP43,Connolly Station,53.353038,-6.2462443,http://data.europa.eu/949/concepts/op-types/rinf/30,30,http://publications.europa.eu/resource/authority/country/IRL,30,passenger terminal
http://data.europa.eu/949/functionalInfrastructure/operationalPoints/f7d9906812957d280f07f6c0dda9bb3d260b2e1e,http://data.europa.eu/949/functionalInfrastructure/operationalPoints/IE%2BOP23,IE+OP23,Islandbridge Junction,53.343163,-6.3092429,http://data.europa.eu/949/concepts/op-types/rinf/30,30,http://publications.europa.eu/resource/authority/country/IRL,30,passenger terminal
http://data.europa.eu/949/functionalInfrastructure/operationalPoints/f8a175b7281633a1e40668c8587fe75dd2f1cc70,http://data.europa.eu/949/functionalInfrastructure/operationalPoints/IE%2BOP82,IE+OP82,Maynooth Station,53.378055,-6.5904757,http://data.europa.eu/949/concepts/op-types/rinf/30,30,http://publications.europa.eu/resource/authority/country/IRL,30,passenger terminal
http://data.europa.eu/949/functionalInfrastructure/operationalPoints/f9a1f3659ac12d8c3e561b55d433428e85452f6f,http://data.europa.eu/949/functionalInfrastructure/operationalPoints/IE%2BOP147,IE+OP147,Portarlington Junction,53.145791,-7.183199,http://data.europa.eu/949/concepts/op-types/rinf/30,30,http://publications.europa.eu/resource/authority/country/IRL,30,passenger terminal
http://data.europa.eu/949/functionalInfrastructure/operationalPoints/fb3b9d9619add80ae59becc0f3c4d945829bdaf8,http://data.europa.eu/949/functionalInfrastructure/operationalPoints/IE%2BOP154,IE+OP154,Athlone West Junction,53.426049,-7.9521424,http://data.europa.eu/949/concepts/op-types/rinf/30,30,http://publications.europa.eu/resource/authority/country/IRL,30,passenger terminal
http://data.europa.eu/949/functionalInfrastructure/operationalPoints/fdab1be9aaee92229a307e5cc5f4a5673e648d30,http://data.europa.eu/949/functionalInfrastructure/operationalPoints/IE%2BOP152,IE+OP152,Clara Station,53.339795,-7.6163045,http://data.europa.eu/949/concepts/op-types/rinf/30,30,http://publications.europa.eu/resource/authority/country/IRL,30,passenger terminal
http://data.europa.eu/949/functionalInfrastructure/operationalPoints/fdb1b2152621ddbfb2243e437deaab0b367c6617,http://data.europa.eu/949/functionalInfrastructure/operationalPoints/IE%2BOP134,IE+OP134,Muine Bheag (Bagenalstown) Station,52.698839,-6.9522287,http://data.europa.eu/949/concepts/op-types/rinf/30,30,http://publications.europa.eu/resource/authority/country/IRL,30,passenger terminal
