uri,uri_canonical,id,name,lat,lon,op_type,op_type_label,country,op_type_code,op_type_name
http://data.europa.eu/949/functionalInfrastructure/operationalPoints/c4047bcc8c7d03fb84b10c734ccfc7a87bab2fba,http://data.europa.eu/949/functionalInfrastructure/operationalPoints/ATGkf,ATGkf,Graz Köflacherbf (in Gkf) [BSTS_ID=608],47.0678646,15.413694,http://data.europa.eu/949/concepts/op-types/rinf/10,10,http://publications.europa.eu/resource/authority/country/AUT,10,station
http://data.europa.eu/949/functionalInfrastructure/operationalPoints/0d14554cb9ea11a177fe27c9222299226c852aa1,http://data.europa.eu/949/functionalInfrastructure/operationalPoints/ATBgl%20A1,ATBgl A1,AB (Awanst) - Bgl_A1 [BSTS_ID=157],46.7383163,15.314341,http://data.europa.eu/949/concepts/op-types/rinf/130,130,http://publications.europa.eu/resource/authority/country/AUT,130,private siding
http://data.europa.eu/949/functionalInfrastructure/operationalPoints/126cdeb3229a1febfaabaeb7cd36e4318f4da250,http://data.europa.eu/949/functionalInfrastructure/operationalPoints/ATLnn%20H2,ATLnn H2,Alling-Tobisegg [BSTS_ID=1253],46.8824499,15.3727941,http://data.europa.eu/949/concepts/op-types/rinf/70,70,http://publications.europa.eu/resource/authority/country/AUT,70,passenger stop
http://data.europa.eu/949/functionalInfrastructure/operationalPoints/14ca51f2b4b0dbea4aaf7a39db86b656cc71ee98,http://data.europa.eu/949/functionalInfrastructure/operationalPoints/ATWtt%20W1,ATWtt W1,Abzww Wettmannstätten Ost (in Wtt) [BSTS_ID=5975858],46.8426176,15.395694,http://data.europa.eu/949/concepts/op-types/rinf/120,120,http://publications.europa.eu/resource/authority/country/AUT,120,switch
http://data.europa.eu/949/functionalInfrastructure/operationalPoints/35420e30f7ee9827224e0e321f251c6706bc3d39,http://data.europa.eu/949/functionalInfrastructure/operationalPoints/ATGkf%20H1,ATGkf H1,Graz Wetzelsdorf [BSTS_ID=610],47.0510554,15.4016083,http://data.europa.eu/949/concepts/op-types/rinf/70,70,http://publications.europa.eu/resource/authority/country/AUT,70,passenger stop
http://data.europa.eu/949/functionalInfrastructure/operationalPoints/4150d45a987a65f58e839e690eb5650e87c870cb,http://data.europa.eu/949/functionalInfrastructure/operationalPoints/ATBgl%20H2,ATBgl H2,Wies Markt [BSTS_ID=1696],46.7184934,15.2732917,http://data.europa.eu/949/concepts/op-types/rinf/70,70,http://publications.europa.eu/resource/authority/country/AUT,70,passenger stop
http://data.europa.eu/949/functionalInfrastructure/operationalPoints/496cef94306300691bad888b4dd1e9b6e3bf3ab4,http://data.europa.eu/949/functionalInfrastructure/operationalPoints/ATGkf%20H2,ATGkf H2,Graz Webling [BSTS_ID=611],47.0329602,15.4057953,http://data.europa.eu/949/concepts/op-types/rinf/70,70,http://publications.europa.eu/resource/authority/country/AUT,70,passenger stop
http://data.europa.eu/949/functionalInfrastructure/operationalPoints/7291ecd9e798ec358bd76cee17836becd470e090,http://data.europa.eu/949/functionalInfrastructure/operationalPoints/ATSmk%20H1,ATSmk H1,Köppling [BSTS_ID=2033],47.0029156,15.2438959,http://data.europa.eu/949/concepts/op-types/rinf/70,70,http://publications.europa.eu/resource/authority/country/AUT,70,passenger stop
http://data.europa.eu/949/functionalInfrastructure/operationalPoints/89064c05a9694fbd1f07889273adddaa46b4d37a,http://data.europa.eu/949/functionalInfrastructure/operationalPoints/ATWtt%20H1,ATWtt H1,Gussendorf [BSTS_ID=1790],46.8296484,15.3487389,http://data.europa.eu/949/concepts/op-types/rinf/70,70,http://publications.europa.eu/resource/authority/country/AUT,70,passenger stop
http://data.europa.eu/949/functionalInfrastructure/operationalPoints/985d4b7ac4a02c7a21b4614e96cd07f890ccc3ae,http://data.europa.eu/949/functionalInfrastructure/operationalPoints/ATGkv,ATGkv,Graz Köflacherbahnhof Vorbf. (in Gkf) [BSTS_ID=609],47.061966,15.4051214,http://data.europa.eu/949/concepts/op-types/rinf/20,20,http://publications.europa.eu/resource/authority/country/AUT,20,small station
http://data.europa.eu/949/functionalInfrastructure/operationalPoints/9c721509bc45080bcbf3195f7be68930a40d786f,http://data.europa.eu/949/functionalInfrastructure/operationalPoints/ATLnn%20H1,ATLnn H1,Oisnitz-St.Josef [BSTS_ID=1254],46.9159213,15.3541432,http://data.europa.eu/949/concepts/op-types/rinf/70,70,http://publications.europa.eu/resource/authority/country/AUT,70,passenger stop
http://data.europa.eu/949/functionalInfrastructure/operationalPoints/bc48ea00cb9e491e000133ddd19441f994531dee,http://data.europa.eu/949/functionalInfrastructure/operationalPoints/ATLbo%20A1,ATLbo A1,AB (Awanst) - Lbo_A1 [BSTS_ID=1167],46.9585135,15.3313356,http://data.europa.eu/949/concepts/op-types/rinf/130,130,http://publications.europa.eu/resource/authority/country/AUT,130,private siding
http://data.europa.eu/949/functionalInfrastructure/operationalPoints/cf639921793faabf7c318ed24254403ae7f0e788,http://data.europa.eu/949/functionalInfrastructure/operationalPoints/ATWtt%20W2,ATWtt W2,Abzww Wettmannstätten Nord (in Wtt) [BSTS_ID=5975861],46.8445648,15.3891178,http://data.europa.eu/949/concepts/op-types/rinf/120,120,http://publications.europa.eu/resource/authority/country/AUT,120,switch
http://data.europa.eu/949/functionalInfrastructure/operationalPoints/d7390b3fe609bbfca6c7975c0caabc58fd4976a2,http://data.europa.eu/949/functionalInfrastructure/operationalPoints/ATDlb%20A2,ATDlb A2,AB (Awanst) - Dlb_A2 [BSTS_ID=4763449],46.7665511,15.2390602,http://data.europa.eu/949/concepts/op-types/rinf/130,130,http://publications.europa.eu/resource/authority/country/AUT,130,private siding
http://data.europa.eu/949/functionalInfrastructure/operationalPoints/fad5c4c4cf78b84ab9908e146dc22e221eee9d07,http://data.europa.eu/949/functionalInfrastructure/operationalPoints/ATBgl%20H1,ATBgl H1,Dietmannsdorf [BSTS_ID=158],46.7443299,15.3127587,http://data.europa.eu/949/concepts/op-types/rinf/70,70,http://publications.europa.eu/resource/authority/country/AUT,70,passenger stop
http://data.europa.eu/949/functionalInfrastructure/operationalPoints/ffee588075af905659ac4c957655d05f8be0b6c8,http://data.europa.eu/949/functionalInfrastructure/operationalPoints/ATLbo%20A2,ATLbo A2,AB (Awanst) - Lbo_A2 [BSTS_ID=1168],46.9483715,15.3301764,http://data.europa.eu/949/concepts/op-types/rinf/130,130,http://publications.europa.eu/resource/authority/country/AUT,130,private siding
http://data.europa.eu/949/functionalInfrastructure/operationalPoints/cb381e6352d28757882dade4036b375a42341da3,http://data.europa.eu/949/functionalInfrastructure/operationalPoints/ATMwe,ATMwe,Marchtrenk West (in Mak) [BSTS_ID=5965414],48.1919348,14.0818034,http://data.europa.eu/949/concepts/op-types/rinf/20,20,http://publications.europa.eu/resource/authority/country/AUT,20,small station
http://data.europa.eu/949/functionalInfrastructure/operationalPoints/cdb3c989033e68a24975f17bb6e54beeeb36c607,http://data.europa.eu/949/functionalInfrastructure/operationalPoints/EU00106,EU00106,EU Staatsgrenze nächst Pamhagen,47.6882187,16.8839494,http://data.europa.eu/949/concepts/op-types/rinf/90,90,http://publications.europa.eu/resource/authority/country/AUT,90,border point
http://data.europa.eu/949/functionalInfrastructure/operationalPoints/afdb53867206bbfb98402b8ef0c37243aadf77d4,http://data.europa.eu/949/functionalInfrastructure/operationalPoints/ATNs%20G,ATNs G,"Grenze ÖBB–RoeEE Km 102,154",47.9549,16.8162,http://data.europa.eu/949/concepts/op-types/rinf/140,140,http://publications.europa.eu/resource/authority/country/AUT,140,domestic border point
http://data.europa.eu/949/functionalInfrastructure/operationalPoints/8f63d9a3a40d5ca7de895b770b4db919430b91dc,http://data.europa.eu/949/functionalInfrastructure/operationalPoints/ATBNS,ATBNS,Neusiedl am See Bad,47.9428494,16.8443316,http://data.europa.eu/949/concepts/op-types/rinf/10,10,http://publications.europa.eu/resource/authority/country/AUT,10,station
http://data.europa.eu/949/functionalInfrastructure/operationalPoints/63729f58fb57abfbea71ed0cfd6649dbe7fbcb9c,http://data.europa.eu/949/functionalInfrastructure/operationalPoints/ATBns%20H1,ATBns H1,Weiden am See,47.925725,16.863969,http://data.europa.eu/949/concepts/op-types/rinf/70,70,http://publications.europa.eu/resource/authority/country/AUT,70,passenger stop
http://data.europa.eu/949/functionalInfrastructure/operationalPoints/cc9d8a0dca37fd45ca416c71931e931dd9c79c4b,http://data.europa.eu/949/functionalInfrastructure/operationalPoints/ATPAM,ATPAM,Pamhagen,47.704006,16.903552,http://data.europa.eu/949/concepts/op-types/rinf/10,10,http://publications.europa.eu/resource/authority/country/AUT,10,station
http://data.europa.eu/949/functionalInfrastructure/operationalPoints/49f19509a539a07064b1609a0f3ce437d562259e,http://data.europa.eu/949/functionalInfrastructure/operationalPoints/ATGo,ATGo,Gols,47.891928,16.90503,http://data.europa.eu/949/concepts/op-types/rinf/10,10,http://publications.europa.eu/resource/authority/country/AUT,10,station
http://data.europa.eu/949/functionalInfrastructure/operationalPoints/0c16ff931f83e3603dcc3f7fde5e2cf511907498,http://data.europa.eu/949/functionalInfrastructure/operationalPoints/ATFRK,ATFRK,Frauenkirchen,47.840379,16.916345,http://data.europa.eu/949/concepts/op-types/rinf/10,10,http://publications.europa.eu/resource/authority/country/AUT,10,station
http://data.europa.eu/949/functionalInfrastructure/operationalPoints/e584a36414876515cef5e93ad38fd3c6ec1e9bb1,http://data.europa.eu/949/functionalInfrastructure/operationalPoints/ATSAZ,ATSAZ,St. Andrä am Zicksee,47.782761,16.928161,http://data.europa.eu/949/concepts/op-types/rinf/10,10,http://publications.europa.eu/resource/authority/country/AUT,10,station
http://data.europa.eu/949/functionalInfrastructure/operationalPoints/9ba59692cedb8a32fc93bf54b3c73e87159af9b3,http://data.europa.eu/949/functionalInfrastructure/operationalPoints/ATWAL,ATWAL,Wallern im Burgenland,47.733508,16.93076,http://data.europa.eu/949/concepts/op-types/rinf/10,10,http://publications.europa.eu/resource/authority/country/AUT,10,station
http://data.europa.eu/949/functionalInfrastructure/operationalPoints/3b7a4ce78ffa125dbb4a0739d788ebc0d2abf797,http://data.europa.eu/949/functionalInfrastructure/operationalPoints/ATMhf,ATMhf,Mönchhof-Halbturn,47.87403,16.94866,http://data.europa.eu/949/concepts/op-types/rinf/10,10,http://publications.europa.eu/resource/authority/country/AUT,10,station
http://data.europa.eu/949/functionalInfrastructure/operationalPoints/0134c3e02d5c77a747164802bf1ec156f36bb390,http://data.europa.eu/949/functionalInfrastructure/operationalPoints/ATWj%20L1,ATWj L1,Sarmingstein Lst [BSTS_ID=1935],48.2307261,14.9428852,http://data.europa.eu/949/concepts/op-types/rinf/20,20,http://publications.europa.eu/resource/authority/country/AUT,20,small station
http://data.europa.eu/949/functionalInfrastructure/operationalPoints/02f89640c6e6cf97d7d70a154dd8ea81ce1ee5c7,http://data.europa.eu/949/functionalInfrastructure/operationalPoints/ATK,ATK,Kufstein [BSTS_ID=984],47.5833803,12.165668,http://data.europa.eu/949/concepts/op-types/rinf/10,10,http://publications.europa.eu/resource/authority/country/AUT,10,station
http://data.europa.eu/949/functionalInfrastructure/operationalPoints/05e591af61d4de501ec923ce639885a98de0e49b,http://data.europa.eu/949/functionalInfrastructure/operationalPoints/ATUs,ATUs,Lustenau [BSTS_ID=2297],47.4501439,9.6671316,http://data.europa.eu/949/concepts/op-types/rinf/10,10,http://publications.europa.eu/resource/authority/country/AUT,10,station
http://data.europa.eu/949/functionalInfrastructure/operationalPoints/0769dff009e6fb74693b75bb67ed142e6f1b467f,http://data.europa.eu/949/functionalInfrastructure/operationalPoints/ATLak,ATLak,Laakirchen [BSTS_ID=1146],47.9739288,13.8226272,http://data.europa.eu/949/concepts/op-types/rinf/10,10,http://publications.europa.eu/resource/authority/country/AUT,10,station
http://data.europa.eu/949/functionalInfrastructure/operationalPoints/08b9c78c505e92e09c76755fc29ecaf097b96613,http://data.europa.eu/949/functionalInfrastructure/operationalPoints/ATLa,ATLa,Lambach (in La) [BSTS_ID=1127],48.0939155,13.8883112,http://data.europa.eu/949/concepts/op-types/rinf/10,10,http://publications.europa.eu/resource/authority/country/AUT,10,station
http://data.europa.eu/949/functionalInfrastructure/operationalPoints/0b474c0b67a265f52b90f997f694e9168736de6a,http://data.europa.eu/949/functionalInfrastructure/operationalPoints/ATHg,ATHg,Bad Hofgastein [BSTS_ID=826],47.1953375,13.1005566,http://data.europa.eu/949/concepts/op-types/rinf/10,10,http://publications.europa.eu/resource/authority/country/AUT,10,station
http://data.europa.eu/949/functionalInfrastructure/operationalPoints/0cdbef71635b5a02ec5183d77648661342dccd53,http://data.europa.eu/949/functionalInfrastructure/operationalPoints/ATSti,ATSti,Steinach in Tirol [BSTS_ID=2108],47.0892784,11.4698479,http://data.europa.eu/949/concepts/op-types/rinf/10,10,http://publications.europa.eu/resource/authority/country/AUT,10,station
http://data.europa.eu/949/functionalInfrastructure/operationalPoints/0dae18b2bc0a610417591e1bbf02e26179f24940,http://data.europa.eu/949/functionalInfrastructure/operationalPoints/ATKtt,ATKtt,Kittsee [BSTS_ID=1103],48.0815368,17.0716172,http://data.europa.eu/949/concepts/op-types/rinf/10,10,http://publications.europa.eu/resource/authority/country/AUT,10,station
http://data.europa.eu/949/functionalInfrastructure/operationalPoints/0ef78ceaa4901a3a423ad1a796d5b0b498afb904,http://data.europa.eu/949/functionalInfrastructure/operationalPoints/ATKrd,ATKrd,Krumpendorf [BSTS_ID=1082],46.6264265,14.221888,http://data.europa.eu/949/concepts/op-types/rinf/10,10,http://publications.europa.eu/resource/authority/country/AUT,10,station
http://data.europa.eu/949/functionalInfrastructure/operationalPoints/0f6c35b06a7266db9f7508403bb3bedf40d3f0ca,http://data.europa.eu/949/functionalInfrastructure/operationalPoints/ATBs,ATBs,Böckstein [BSTS_ID=235],47.0803895,13.1308324,http://data.europa.eu/949/concepts/op-types/rinf/10,10,http://publications.europa.eu/resource/authority/country/AUT,10,station
http://data.europa.eu/949/functionalInfrastructure/operationalPoints/11cea040ab0be0505ef1b628e162419e5ff7f0a8,http://data.europa.eu/949/functionalInfrastructure/operationalPoints/ATAp,ATAp,Aspang Markt [BSTS_ID=75],47.5624453,16.0996579,http://data.europa.eu/949/concepts/op-types/rinf/10,10,http://publications.europa.eu/resource/authority/country/AUT,10,station
http://data.europa.eu/949/functionalInfrastructure/operationalPoints/168fbfdaadbfac1eaf332f4b9d05a8a36fa83e30,http://data.europa.eu/949/functionalInfrastructure/operationalPoints/ATWen%20L1,ATWen L1,Eppenstein Lst (Awanst) [BSTS_ID=2424],47.1282608,14.7388475,http://data.europa.eu/949/concepts/op-types/rinf/20,20,http://publications.europa.eu/resource/authority/country/AUT,20,small station
http://data.europa.eu/949/functionalInfrastructure/operationalPoints/17ae292b221b916b9406fc8dca43887cf9882547,http://data.europa.eu/949/functionalInfrastructure/operationalPoints/ATMug,ATMug,Mureck [BSTS_ID=1470],46.7113519,15.7710266,http://data.europa.eu/949/concepts/op-types/rinf/10,10,http://publications.europa.eu/resource/authority/country/AUT,10,station
http://data.europa.eu/949/functionalInfrastructure/operationalPoints/188c4c3f883515ac6c1c2b824c0b7d9a91b366db,http://data.europa.eu/949/functionalInfrastructure/operationalPoints/ATHi,ATHi,Hieflau (in Hi) [BSTS_ID=832],47.607892,14.7376557,http://data.europa.eu/949/concepts/op-types/rinf/10,10,http://publications.europa.eu/resource/authority/country/AUT,10,station
http://data.europa.eu/949/functionalInfrastructure/operationalPoints/192f11e7463ff6529d403ff3cd9401dbeb9d8360,http://data.europa.eu/949/functionalInfrastructure/operationalPoints/ATLu,ATLu,Lungitz [BSTS_ID=1280],48.2885868,14.4784026,http://data.europa.eu/949/concepts/op-types/rinf/10,10,http://publications.europa.eu/resource/authority/country/AUT,10,station
http://data.europa.eu/949/functionalInfrastructure/operationalPoints/196f1809db43940d1e7d1a33ed7911610b88064b,http://data.europa.eu/949/functionalInfrastructure/operationalPoints/ATBgl,ATBgl,St. Martin i. S. - Bergla [BSTS_ID=156],46.7481896,15.2847447,http://data.europa.eu/949/concepts/op-types/rinf/10,10,http://publications.europa.eu/resource/authority/country/AUT,10,station
http://data.europa.eu/949/functionalInfrastructure/operationalPoints/1b257f58c941093a4197b2e1de70e59e85dfadf8,http://data.europa.eu/949/functionalInfrastructure/operationalPoints/ATNd,ATNd,Nendeln [BSTS_ID=1507],47.2001384,9.5415323,http://data.europa.eu/949/concepts/op-types/rinf/10,10,http://publications.europa.eu/resource/authority/country/AUT,10,station
http://data.europa.eu/949/functionalInfrastructure/operationalPoints/1ebd1227604a2b6b98bfc597a475353aea271f98,http://data.europa.eu/949/functionalInfrastructure/operationalPoints/ATFeg,ATFeg,Fehring [BSTS_ID=418],46.9494721,16.0134322,http://data.europa.eu/949/concepts/op-types/rinf/10,10,http://publications.europa.eu/resource/authority/country/AUT,10,station
http://data.europa.eu/949/functionalInfrastructure/operationalPoints/1efc3a2c187610197985edcbf8f24bb3554a8e77,http://data.europa.eu/949/functionalInfrastructure/operationalPoints/ATMes,ATMes,Messendorf (in Mes) [BSTS_ID=1389],47.0317076,15.4893811,http://data.europa.eu/949/concepts/op-types/rinf/10,10,http://publications.europa.eu/resource/authority/country/AUT,10,station
http://data.europa.eu/949/functionalInfrastructure/operationalPoints/20b2d36a2f34f83df2d3e89578104db7969bc062,http://data.europa.eu/949/functionalInfrastructure/operationalPoints/ATUm,ATUm,Unzmarkt [BSTS_ID=2288],47.2009837,14.4423186,http://data.europa.eu/949/concepts/op-types/rinf/10,10,http://publications.europa.eu/resource/authority/country/AUT,10,station
http://data.europa.eu/949/functionalInfrastructure/operationalPoints/228b8a97185ad1b235ee395b4e19ffc3967dcd38,http://data.europa.eu/949/functionalInfrastructure/operationalPoints/ATSnz,ATSnz,Scharnitz [BSTS_ID=2045],47.3918738,11.2668611,http://data.europa.eu/949/concepts/op-types/rinf/10,10,http://publications.europa.eu/resource/authority/country/AUT,10,station
http://data.europa.eu/949/functionalInfrastructure/operationalPoints/2384f0e2769f5e5d73fc613b1604364753283a34,http://data.europa.eu/949/functionalInfrastructure/operationalPoints/ATKt,ATKt,Klagenfurt Hbf (in Kt) [BSTS_ID=1098],46.6156199,14.3136266,http://data.europa.eu/949/concepts/op-types/rinf/10,10,http://publications.europa.eu/resource/authority/country/AUT,10,station
http://data.europa.eu/949/functionalInfrastructure/operationalPoints/25471623e36982f9e98ab509ed9b5827d06e6a54,http://data.europa.eu/949/functionalInfrastructure/operationalPoints/ATTx,ATTx,Traxenbichl [BSTS_ID=2275],47.8771997,13.9383836,http://data.europa.eu/949/concepts/op-types/rinf/10,10,http://publications.europa.eu/resource/authority/country/AUT,10,station
http://data.europa.eu/949/functionalInfrastructure/operationalPoints/2d1482a16d4384f6b353027aef2baad0c0c9a305,http://data.europa.eu/949/functionalInfrastructure/operationalPoints/ATWew,ATWew,Wies-Eibiswald [BSTS_ID=2440],46.7183754,15.2591961,http://data.europa.eu/949/concepts/op-types/rinf/10,10,http://publications.europa.eu/resource/authority/country/AUT,10,station
http://data.europa.eu/949/functionalInfrastructure/operationalPoints/2d3c89343ce7938f2ae61a12a7b1fdeb1fe9c6db,http://data.europa.eu/949/functionalInfrastructure/operationalPoints/ATVf,ATVf,Villach Westbf (in Vb) [BSTS_ID=2315],46.6091934,13.8406512,http://data.europa.eu/949/concepts/op-types/rinf/20,20,http://publications.europa.eu/resource/authority/country/AUT,20,small station
http://data.europa.eu/949/functionalInfrastructure/operationalPoints/30c6110abbf51a31af4334e72383c66905911790,http://data.europa.eu/949/functionalInfrastructure/operationalPoints/ATWen,ATWen,Weißkirchen [BSTS_ID=2421],47.156401,14.7335212,http://data.europa.eu/949/concepts/op-types/rinf/10,10,http://publications.europa.eu/resource/authority/country/AUT,10,station
http://data.europa.eu/949/functionalInfrastructure/operationalPoints/30dec63587cd4890d1b2547cbc6a0d05f9b4107a,http://data.europa.eu/949/functionalInfrastructure/operationalPoints/ATMun,ATMun,Munderfing [BSTS_ID=1475],48.0739412,13.1794787,http://data.europa.eu/949/concepts/op-types/rinf/10,10,http://publications.europa.eu/resource/authority/country/AUT,10,station
http://data.europa.eu/949/functionalInfrastructure/operationalPoints/3850d23bf06f0c3d49d7b64e25e276f2a2eca3e6,http://data.europa.eu/949/functionalInfrastructure/operationalPoints/ATGfl,ATGfl,Groß St Florian [BSTS_ID=584],46.8207618,15.3176983,http://data.europa.eu/949/concepts/op-types/rinf/10,10,http://publications.europa.eu/resource/authority/country/AUT,10,station
http://data.europa.eu/949/functionalInfrastructure/operationalPoints/3c83c228085772be7ed3c1b6ea1b733373f890b1,http://data.europa.eu/949/functionalInfrastructure/operationalPoints/ATNst,ATNst,Steindorf bei Straßwalchen (in Nst) [BSTS_ID=1575],47.9667096,13.2391639,http://data.europa.eu/949/concepts/op-types/rinf/10,10,http://publications.europa.eu/resource/authority/country/AUT,10,station
http://data.europa.eu/949/functionalInfrastructure/operationalPoints/3f51de93007e492326f07a7c78597ea62f4b6672,http://data.europa.eu/949/functionalInfrastructure/operationalPoints/ATAsd,ATAsd,Aschach a.d.Donau [BSTS_ID=83],48.3633725,14.0143618,http://data.europa.eu/949/concepts/op-types/rinf/10,10,http://publications.europa.eu/resource/authority/country/AUT,10,station
http://data.europa.eu/949/functionalInfrastructure/operationalPoints/3fc3bd6dccaf7f5def5837b3c43e4ab81b9dacad,http://data.europa.eu/949/functionalInfrastructure/operationalPoints/ATPf,ATPf,Paternion-Feistritz Fbf (in Pf) [BSTS_ID=1689],46.7115809,13.6685568,http://data.europa.eu/949/concepts/op-types/rinf/10,10,http://publications.europa.eu/resource/authority/country/AUT,10,station
http://data.europa.eu/949/functionalInfrastructure/operationalPoints/4201803a0d0ab359a34cacf570bf39006e46e926,http://data.europa.eu/949/functionalInfrastructure/operationalPoints/ATWog,ATWog,Wolfsberg [BSTS_ID=2494],46.8421165,14.8385053,http://data.europa.eu/949/concepts/op-types/rinf/10,10,http://publications.europa.eu/resource/authority/country/AUT,10,station
http://data.europa.eu/949/functionalInfrastructure/operationalPoints/42553d26e1c6b82790f1cef4c33f82c32d559a0f,http://data.europa.eu/949/functionalInfrastructure/operationalPoints/ATLha,ATLha,Linz Vbf-Stadthafen (in Lzv) [BSTS_ID=1208],48.2942063,14.3194895,http://data.europa.eu/949/concepts/op-types/rinf/20,20,http://publications.europa.eu/resource/authority/country/AUT,20,small station
http://data.europa.eu/949/functionalInfrastructure/operationalPoints/429276f15981166029ce25c8a0ec38dca96e3622,http://data.europa.eu/949/functionalInfrastructure/operationalPoints/ATLav,ATLav,St.Paul im Lavanttal (in Lav) [BSTS_ID=5705364],46.7220065,14.8561737,http://data.europa.eu/949/concepts/op-types/rinf/10,10,http://publications.europa.eu/resource/authority/country/AUT,10,station
http://data.europa.eu/949/functionalInfrastructure/operationalPoints/42af270f9c117e9e866bcde0a35e89d984882d45,http://data.europa.eu/949/functionalInfrastructure/operationalPoints/ATKf,ATKf,Kefermarkt [BSTS_ID=1024],48.4369373,14.5380552,http://data.europa.eu/949/concepts/op-types/rinf/10,10,http://publications.europa.eu/resource/authority/country/AUT,10,station
http://data.europa.eu/949/functionalInfrastructure/operationalPoints/47e9efc353757ae361c3e5399a0f8430a307f0bd,http://data.europa.eu/949/functionalInfrastructure/operationalPoints/ATEbs,ATEbs,Eberstein Lst [BSTS_ID=311],46.8024322,14.5548783,http://data.europa.eu/949/concepts/op-types/rinf/20,20,http://publications.europa.eu/resource/authority/country/AUT,20,small station
http://data.europa.eu/949/functionalInfrastructure/operationalPoints/4bab6f349c7ff9b79947dc6cb82572e34579142d,http://data.europa.eu/949/functionalInfrastructure/operationalPoints/ATGue,ATGue,Grünau im Almtal [BSTS_ID=736],47.8536744,13.9516053,http://data.europa.eu/949/concepts/op-types/rinf/10,10,http://publications.europa.eu/resource/authority/country/AUT,10,station
http://data.europa.eu/949/functionalInfrastructure/operationalPoints/4cc1ac851b1463aed5921c7c1c35c86a952f6473,http://data.europa.eu/949/functionalInfrastructure/operationalPoints/ATSb,ATSb,Salzburg Hbf (in Sb) [BSTS_ID=1943],47.8133017,13.0459134,http://data.europa.eu/949/concepts/op-types/rinf/10,10,http://publications.europa.eu/resource/authority/country/AUT,10,station
http://data.europa.eu/949/functionalInfrastructure/operationalPoints/4e3f32c6fa6098b3120ed243e35f92303cb4fd33,http://data.europa.eu/949/functionalInfrastructure/operationalPoints/ATFrt,ATFrt,Frauental-Bad Gams [BSTS_ID=505],46.8238734,15.2548913,http://data.europa.eu/949/concepts/op-types/rinf/10,10,http://publications.europa.eu/resource/authority/country/AUT,10,station
http://data.europa.eu/949/functionalInfrastructure/operationalPoints/51bb9830b8167e71ee827fb7ff761cc7e4860dae,http://data.europa.eu/949/functionalInfrastructure/operationalPoints/ATRob,ATRob,Rohrbach-Berg [BSTS_ID=1876],48.5818888,13.9872007,http://data.europa.eu/949/concepts/op-types/rinf/10,10,http://publications.europa.eu/resource/authority/country/AUT,10,station
http://data.europa.eu/949/functionalInfrastructure/operationalPoints/55cfbf4d27e4bbb7e292d1a8ed9407a22ad71bd8,http://data.europa.eu/949/functionalInfrastructure/operationalPoints/ATFr,ATFr,Freistadt [BSTS_ID=486],48.4952058,14.4813207,http://data.europa.eu/949/concepts/op-types/rinf/10,10,http://publications.europa.eu/resource/authority/country/AUT,10,station
http://data.europa.eu/949/functionalInfrastructure/operationalPoints/57367c49f1addbdc8d1d3fe2ded59b1970843dc6,http://data.europa.eu/949/functionalInfrastructure/operationalPoints/ATMei,ATMei,Matrei [BSTS_ID=1388],47.1271621,11.4528799,http://data.europa.eu/949/concepts/op-types/rinf/10,10,http://publications.europa.eu/resource/authority/country/AUT,10,station
http://data.europa.eu/949/functionalInfrastructure/operationalPoints/581fde2a2c9c55f41e31dfab0696bacc8ab693ee,http://data.europa.eu/949/functionalInfrastructure/operationalPoints/ATPf,ATPf,Paternion-Feistritz (in Pf) [BSTS_ID=1689],46.7115809,13.6685568,http://data.europa.eu/949/concepts/op-types/rinf/10,10,http://publications.europa.eu/resource/authority/country/AUT,10,station
http://data.europa.eu/949/functionalInfrastructure/operationalPoints/59786bb494fd1c4ce3abe30081439eac8a358df9,http://data.europa.eu/949/functionalInfrastructure/operationalPoints/ATRog,ATRog,Rottenegg [BSTS_ID=1877],48.3601298,14.1375822,http://data.europa.eu/949/concepts/op-types/rinf/10,10,http://publications.europa.eu/resource/authority/country/AUT,10,station
http://data.europa.eu/949/functionalInfrastructure/operationalPoints/5c7ed12defe464a248673ee2b761d83da33daa08,http://data.europa.eu/949/functionalInfrastructure/operationalPoints/ATPls,ATPls,Pöls [BSTS_ID=1717],47.2163777,14.606177,http://data.europa.eu/949/concepts/op-types/rinf/10,10,http://publications.europa.eu/resource/authority/country/AUT,10,station
http://data.europa.eu/949/functionalInfrastructure/operationalPoints/5f10a34a2c7b1011a38792853e7a5b87e9e0dd21,http://data.europa.eu/949/functionalInfrastructure/operationalPoints/ATPeb,ATPeb,Pettenbach [BSTS_ID=1680],47.962123,14.0113351,http://data.europa.eu/949/concepts/op-types/rinf/10,10,http://publications.europa.eu/resource/authority/country/AUT,10,station
http://data.europa.eu/949/functionalInfrastructure/operationalPoints/600ed8868f84d072d8aba618446b6087aac2d55a,http://data.europa.eu/949/functionalInfrastructure/operationalPoints/ATSge,ATSge,St.Georgen a.d.Gusen [BSTS_ID=1999],48.2652188,14.4406262,http://data.europa.eu/949/concepts/op-types/rinf/10,10,http://publications.europa.eu/resource/authority/country/AUT,10,station
http://data.europa.eu/949/functionalInfrastructure/operationalPoints/601daf2b494d2f346ab9dadbe4e9a492077a6061,http://data.europa.eu/949/functionalInfrastructure/operationalPoints/ATNef,ATNef,Neufelden [BSTS_ID=1514],48.4836698,14.0050268,http://data.europa.eu/949/concepts/op-types/rinf/10,10,http://publications.europa.eu/resource/authority/country/AUT,10,station
http://data.europa.eu/949/functionalInfrastructure/operationalPoints/641672bff4cc03c45bd2e9661411e02662b8391a,http://data.europa.eu/949/functionalInfrastructure/operationalPoints/ATFi,ATFi,Friesach [BSTS_ID=433],46.9533641,14.4108963,http://data.europa.eu/949/concepts/op-types/rinf/10,10,http://publications.europa.eu/resource/authority/country/AUT,10,station
http://data.europa.eu/949/functionalInfrastructure/operationalPoints/64d688157a5f7ae02aaf123fb4d354d94e4a06f8,http://data.europa.eu/949/functionalInfrastructure/operationalPoints/ATOtt,ATOtt,Ottensheim [BSTS_ID=1646],48.337863,14.1769833,http://data.europa.eu/949/concepts/op-types/rinf/10,10,http://publications.europa.eu/resource/authority/country/AUT,10,station
http://data.europa.eu/949/functionalInfrastructure/operationalPoints/67780864c5ad6599d5c5c9a6a01e16f6acfa5368,http://data.europa.eu/949/functionalInfrastructure/operationalPoints/ATMig%20W1,ATMig W1,Abzww Str 26101 (in Bru) [BSTS_ID=1420],48.2579688,13.0661396,http://data.europa.eu/949/concepts/op-types/rinf/120,120,http://publications.europa.eu/resource/authority/country/AUT,120,switch
http://data.europa.eu/949/functionalInfrastructure/operationalPoints/682cdb793fd6ee4f6579238354ca29a14ce717ed,http://data.europa.eu/949/functionalInfrastructure/operationalPoints/ATNes,ATNes,Neumarkt in Steiermark [BSTS_ID=1524],47.0735166,14.4149953,http://data.europa.eu/949/concepts/op-types/rinf/10,10,http://publications.europa.eu/resource/authority/country/AUT,10,station
http://data.europa.eu/949/functionalInfrastructure/operationalPoints/685ba051e569452a3e02532f711ffae95db748a3,http://data.europa.eu/949/functionalInfrastructure/operationalPoints/ATPk,ATPk,Penk [BSTS_ID=1709],46.9125502,13.2572166,http://data.europa.eu/949/concepts/op-types/rinf/10,10,http://publications.europa.eu/resource/authority/country/AUT,10,station
http://data.europa.eu/949/functionalInfrastructure/operationalPoints/69bf6bae6cb44626520cdcd20cf05433fd324d3a,http://data.europa.eu/949/functionalInfrastructure/operationalPoints/ATAut,ATAut,Autal [BSTS_ID=1390],47.0543939,15.5277902,http://data.europa.eu/949/concepts/op-types/rinf/10,10,http://publications.europa.eu/resource/authority/country/AUT,10,station
http://data.europa.eu/949/functionalInfrastructure/operationalPoints/6aadcc4d0f928a206c5f8dc99abe1c9911e0c6c2,http://data.europa.eu/949/functionalInfrastructure/operationalPoints/ATKto,ATKto,Klagenfurt Ostbf (in Kt) [BSTS_ID=1337],46.6216847,14.3220446,http://data.europa.eu/949/concepts/op-types/rinf/20,20,http://publications.europa.eu/resource/authority/country/AUT,20,small station
http://data.europa.eu/949/functionalInfrastructure/operationalPoints/6ceab5acbdf590d404c5d3add318d86f3cc2f600,http://data.europa.eu/949/functionalInfrastructure/operationalPoints/ATBgl%20H1A,ATBgl H1A,Pölfing-Brunn [BSTS_ID=1695],46.7301369,15.3004002,http://data.europa.eu/949/concepts/op-types/rinf/70,70,http://publications.europa.eu/resource/authority/country/AUT,70,passenger stop
http://data.europa.eu/949/functionalInfrastructure/operationalPoints/6f489f53aaeb62411135c4988e53db01f8377092,http://data.europa.eu/949/functionalInfrastructure/operationalPoints/ATGa,ATGa,Gaisbach-Wartberg [BSTS_ID=545],48.3302257,14.505917,http://data.europa.eu/949/concepts/op-types/rinf/10,10,http://publications.europa.eu/resource/authority/country/AUT,10,station
http://data.europa.eu/949/functionalInfrastructure/operationalPoints/706d0abdd46376070373437779f9be5cbab8b68f,http://data.europa.eu/949/functionalInfrastructure/operationalPoints/ATJg,ATJg,Judenburg [BSTS_ID=971],47.174945,14.6626511,http://data.europa.eu/949/concepts/op-types/rinf/10,10,http://publications.europa.eu/resource/authority/country/AUT,10,station
http://data.europa.eu/949/functionalInfrastructure/operationalPoints/743e078824b421fc577d0b151bbd6e5f84c51e23,http://data.europa.eu/949/functionalInfrastructure/operationalPoints/ATHad,ATHad,Haiding [BSTS_ID=768],48.2092591,13.9751935,http://data.europa.eu/949/concepts/op-types/rinf/10,10,http://publications.europa.eu/resource/authority/country/AUT,10,station
http://data.europa.eu/949/functionalInfrastructure/operationalPoints/747f036f0b4d76ede1fdabd52e6184cd30a1251c,http://data.europa.eu/949/functionalInfrastructure/operationalPoints/ATWtt,ATWtt,Wettmannstätten (in Wtt) [BSTS_ID=1791],46.8376785,15.3821462,http://data.europa.eu/949/concepts/op-types/rinf/10,10,http://publications.europa.eu/resource/authority/country/AUT,10,station
http://data.europa.eu/949/functionalInfrastructure/operationalPoints/74ce3f2e34b33fad6280938bc07e44820364df91,http://data.europa.eu/949/functionalInfrastructure/operationalPoints/ATVbo,ATVbo,Villach Hbf-Ostbf (in Vb) [BSTS_ID=2307],46.6202115,13.8575857,http://data.europa.eu/949/concepts/op-types/rinf/20,20,http://publications.europa.eu/resource/authority/country/AUT,20,small station
http://data.europa.eu/949/functionalInfrastructure/operationalPoints/74e7cdff4c1c4edb670976b547ad8fcdec8fc8db,http://data.europa.eu/949/functionalInfrastructure/operationalPoints/ATWt,ATWt,Innsbruck Westbf (in I) [BSTS_ID=2512],47.2554911,11.3918907,http://data.europa.eu/949/concepts/op-types/rinf/20,20,http://publications.europa.eu/resource/authority/country/AUT,20,small station
http://data.europa.eu/949/functionalInfrastructure/operationalPoints/78ba8bb447fdb4425d7f076e202118a0171d46a0,http://data.europa.eu/949/functionalInfrastructure/operationalPoints/ATSwa,ATSwa,Schwarzach-St.Veit [BSTS_ID=2169],47.3183985,13.1543061,http://data.europa.eu/949/concepts/op-types/rinf/10,10,http://publications.europa.eu/resource/authority/country/AUT,10,station
http://data.europa.eu/949/functionalInfrastructure/operationalPoints/792dbce2dfcd247b2c78c804d0557e02fc4eb745,http://data.europa.eu/949/functionalInfrastructure/operationalPoints/ATLng,ATLng,Lenzing [BSTS_ID=1248],47.9830465,13.6136668,http://data.europa.eu/949/concepts/op-types/rinf/10,10,http://publications.europa.eu/resource/authority/country/AUT,10,station
http://data.europa.eu/949/functionalInfrastructure/operationalPoints/7c19eee79242bc97288f3495d662f16e5c8a6f16,http://data.europa.eu/949/functionalInfrastructure/operationalPoints/ATAi,ATAi,Aigen-Schlägl [BSTS_ID=24],48.6423772,13.975319,http://data.europa.eu/949/concepts/op-types/rinf/10,10,http://publications.europa.eu/resource/authority/country/AUT,10,station
http://data.europa.eu/949/functionalInfrastructure/operationalPoints/7d369682222b8ea8dfa3f4d408c7a18e70311c92,http://data.europa.eu/949/functionalInfrastructure/operationalPoints/ATHah,ATHah,Haslach [BSTS_ID=774],48.5533382,14.0316021,http://data.europa.eu/949/concepts/op-types/rinf/10,10,http://publications.europa.eu/resource/authority/country/AUT,10,station
http://data.europa.eu/949/functionalInfrastructure/operationalPoints/7fa4bef3847fa8b6a2696f1c5abdb4dcf2d87948,http://data.europa.eu/949/functionalInfrastructure/operationalPoints/ATSy,ATSy,Steyregg [BSTS_ID=2182],48.284453,14.3621907,http://data.europa.eu/949/concepts/op-types/rinf/10,10,http://publications.europa.eu/resource/authority/country/AUT,10,station
http://data.europa.eu/949/functionalInfrastructure/operationalPoints/80dbc80bb52d729a0a0f5288ae9e6e28ec63f7b2,http://data.europa.eu/949/functionalInfrastructure/operationalPoints/ATWl,ATWl,Wels Lokalbahn (in Wl) [BSTS_ID=2480],48.1565231,14.0173884,http://data.europa.eu/949/concepts/op-types/rinf/10,10,http://publications.europa.eu/resource/authority/country/AUT,10,station
http://data.europa.eu/949/functionalInfrastructure/operationalPoints/8503bf150ba6ccc0f85ebdb27436340acb46f238,http://data.europa.eu/949/functionalInfrastructure/operationalPoints/ATLad,ATLad,Launsdorf-Hochosterwitz [BSTS_ID=1133],46.7689339,14.4557888,http://data.europa.eu/949/concepts/op-types/rinf/10,10,http://publications.europa.eu/resource/authority/country/AUT,10,station
http://data.europa.eu/949/functionalInfrastructure/operationalPoints/8a03daeb279899f14a60439e1f2fb514d814f0e5,http://data.europa.eu/949/functionalInfrastructure/operationalPoints/ATMa,ATMa,Mallnitz-Obervellach (in Ma) [BSTS_ID=1311],46.981699,13.1762605,http://data.europa.eu/949/concepts/op-types/rinf/10,10,http://publications.europa.eu/resource/authority/country/AUT,10,station
http://data.europa.eu/949/functionalInfrastructure/operationalPoints/8aa652f2b49b1fbc5147df1d99a5aea66aa38d34,http://data.europa.eu/949/functionalInfrastructure/operationalPoints/ATMal,ATMal,Maria Saal [BSTS_ID=1332],46.6826269,14.3392189,http://data.europa.eu/949/concepts/op-types/rinf/10,10,http://publications.europa.eu/resource/authority/country/AUT,10,station
http://data.europa.eu/949/functionalInfrastructure/operationalPoints/8b0f8e57fb92e5984a8fd534a6a74666bad3013d,http://data.europa.eu/949/functionalInfrastructure/operationalPoints/ATObd,ATObd,Obdach [BSTS_ID=1600],47.0712985,14.6971422,http://data.europa.eu/949/concepts/op-types/rinf/10,10,http://publications.europa.eu/resource/authority/country/AUT,10,station
http://data.europa.eu/949/functionalInfrastructure/operationalPoints/8c8904185d12785c97f38671bebb1e65d6df1ae8,http://data.europa.eu/949/functionalInfrastructure/operationalPoints/ATWk,ATWk,Großweikersdorf [BSTS_ID=2472],48.4689302,15.9762032,http://data.europa.eu/949/concepts/op-types/rinf/10,10,http://publications.europa.eu/resource/authority/country/AUT,10,station
http://data.europa.eu/949/functionalInfrastructure/operationalPoints/8d0f81208ffb22ad1b40f205157047dc7e900f50,http://data.europa.eu/949/functionalInfrastructure/operationalPoints/ATGfl,ATGfl,Groß St.Florian [BSTS_ID=584],46.8207618,15.3176983,http://data.europa.eu/949/concepts/op-types/rinf/10,10,http://publications.europa.eu/resource/authority/country/AUT,10,station
http://data.europa.eu/949/functionalInfrastructure/operationalPoints/8d83c3eacdf42d92d4cce7252ec9ced01c66cc63,http://data.europa.eu/949/functionalInfrastructure/operationalPoints/ATPar,ATPar,Parndorf/Pandrof [BSTS_ID=1660],47.9869321,16.8716514,http://data.europa.eu/949/concepts/op-types/rinf/10,10,http://publications.europa.eu/resource/authority/country/AUT,10,station
http://data.europa.eu/949/functionalInfrastructure/operationalPoints/8e6cdf7201adc6a46db538735022affff862e78a,http://data.europa.eu/949/functionalInfrastructure/operationalPoints/ATEfd,ATEfd,Eferding [BSTS_ID=328],48.303286,14.0161561,http://data.europa.eu/949/concepts/op-types/rinf/10,10,http://publications.europa.eu/resource/authority/country/AUT,10,station
http://data.europa.eu/949/functionalInfrastructure/operationalPoints/8e939c7d17efa14cc4aa825fb1d333c4db0bdc2d,http://data.europa.eu/949/functionalInfrastructure/operationalPoints/ATSd,ATSd,Spielfeld-Straß [BSTS_ID=1966],46.7095432,15.6290044,http://data.europa.eu/949/concepts/op-types/rinf/10,10,http://publications.europa.eu/resource/authority/country/AUT,10,station
http://data.europa.eu/949/functionalInfrastructure/operationalPoints/8e9e9698348e65c05e9c459f4708ccf877325ee1,http://data.europa.eu/949/functionalInfrastructure/operationalPoints/ATSsm,ATSsm,Scharnstein-Mühldorf [BSTS_ID=2085],47.9004021,13.9585607,http://data.europa.eu/949/concepts/op-types/rinf/10,10,http://publications.europa.eu/resource/authority/country/AUT,10,station
http://data.europa.eu/949/functionalInfrastructure/operationalPoints/8ff2bd42bfa10bacbe6d984f82129eb7e297df44,http://data.europa.eu/949/functionalInfrastructure/operationalPoints/ATGbk,ATGbk,Grein-Bad Kreuzen (in Gbk) [BSTS_ID=560],48.2207428,14.8510661,http://data.europa.eu/949/concepts/op-types/rinf/10,10,http://publications.europa.eu/resource/authority/country/AUT,10,station
http://data.europa.eu/949/functionalInfrastructure/operationalPoints/921ccd6ac5a8db71c6269ec95e4cd34a055e15cb,http://data.europa.eu/949/functionalInfrastructure/operationalPoints/ATBal%20K1,ATBal K1,Twimberg (Awanst) [BSTS_ID=2274],46.9154822,14.841848,http://data.europa.eu/949/concepts/op-types/rinf/70,70,http://publications.europa.eu/resource/authority/country/AUT,70,passenger stop
http://data.europa.eu/949/functionalInfrastructure/operationalPoints/936270d8bfe65a69488be7d2b71affc03252458c,http://data.europa.eu/949/functionalInfrastructure/operationalPoints/ATBgl,ATBgl,St.Martin i.S.-Bergla [BSTS_ID=156],46.7481896,15.2847447,http://data.europa.eu/949/concepts/op-types/rinf/10,10,http://publications.europa.eu/resource/authority/country/AUT,10,station
http://data.europa.eu/949/functionalInfrastructure/operationalPoints/93762fd7388779c65838df969f43eeacf00ff4cd,http://data.europa.eu/949/functionalInfrastructure/operationalPoints/ATAn,ATAn,St.Andrä im Lavanttal [BSTS_ID=64],46.7628194,14.8416529,http://data.europa.eu/949/concepts/op-types/rinf/10,10,http://publications.europa.eu/resource/authority/country/AUT,10,station
http://data.europa.eu/949/functionalInfrastructure/operationalPoints/93c69dcdb37a49efd033e7509751ce7100d84e05,http://data.europa.eu/949/functionalInfrastructure/operationalPoints/ATKir,ATKir,Kirchbichl [BSTS_ID=1044],47.5198124,12.0941757,http://data.europa.eu/949/concepts/op-types/rinf/10,10,http://publications.europa.eu/resource/authority/country/AUT,10,station
http://data.europa.eu/949/functionalInfrastructure/operationalPoints/968aca83f40f8c71a5a6ad201b5574a37a946009,http://data.europa.eu/949/functionalInfrastructure/operationalPoints/ATMho,ATMho,Mattighofen [BSTS_ID=1407],48.1082224,13.1526735,http://data.europa.eu/949/concepts/op-types/rinf/10,10,http://publications.europa.eu/resource/authority/country/AUT,10,station
http://data.europa.eu/949/functionalInfrastructure/operationalPoints/9f9d7cb5e8ef67d94bebaca788dd24cc235b3c73,http://data.europa.eu/949/functionalInfrastructure/operationalPoints/ATRh,ATRh,Ramingdorf-Haidershofen (in Stb) [BSTS_ID=1846],48.0676335,14.459398,http://data.europa.eu/949/concepts/op-types/rinf/20,20,http://publications.europa.eu/resource/authority/country/AUT,20,small station
http://data.europa.eu/949/functionalInfrastructure/operationalPoints/a0d19ab11b2e2a7df2b4644092b593f8eedba5ca,http://data.europa.eu/949/functionalInfrastructure/operationalPoints/ATSti%20K1,ATSti K1,Gries (Awanst) [BSTS_ID=2112],47.0419919,11.4856552,http://data.europa.eu/949/concepts/op-types/rinf/70,70,http://publications.europa.eu/resource/authority/country/AUT,70,passenger stop
http://data.europa.eu/949/functionalInfrastructure/operationalPoints/a28a593db9eea1018043f29856754edd541425b5,http://data.europa.eu/949/functionalInfrastructure/operationalPoints/ATPwd,ATPwd,Preding-Wieselsdorf [BSTS_ID=1789],46.8578363,15.3819414,http://data.europa.eu/949/concepts/op-types/rinf/10,10,http://publications.europa.eu/resource/authority/country/AUT,10,station
http://data.europa.eu/949/functionalInfrastructure/operationalPoints/a2fdf3f3cc8d6475309506075b70feee8195d934,http://data.europa.eu/949/functionalInfrastructure/operationalPoints/ATSsl,ATSsl,St.Stefan im Lavanttal [BSTS_ID=2082],46.8070613,14.8461743,http://data.europa.eu/949/concepts/op-types/rinf/10,10,http://publications.europa.eu/resource/authority/country/AUT,10,station
http://data.europa.eu/949/functionalInfrastructure/operationalPoints/a344a82b8c4d9be7f990859d553c505ab04d8b01,http://data.europa.eu/949/functionalInfrastructure/operationalPoints/ATDlb,ATDlb,Deutschlandsberg Stadt [BSTS_ID=281],46.818931,15.2181601,http://data.europa.eu/949/concepts/op-types/rinf/10,10,http://publications.europa.eu/resource/authority/country/AUT,10,station
http://data.europa.eu/949/functionalInfrastructure/operationalPoints/a506e5f5aee841cdc1bf4a0a6d256a33a28b5239,http://data.europa.eu/949/functionalInfrastructure/operationalPoints/ATTr,ATTr,Treibach-Althofen [BSTS_ID=2245],46.8685825,14.4655945,http://data.europa.eu/949/concepts/op-types/rinf/10,10,http://publications.europa.eu/resource/authority/country/AUT,10,station
http://data.europa.eu/949/functionalInfrastructure/operationalPoints/a62d83b3c00702ed244ad44dacf9b3215027f87c,http://data.europa.eu/949/functionalInfrastructure/operationalPoints/ATWe,ATWe,Wels Hbf [BSTS_ID=2401],48.1628383,14.0168687,http://data.europa.eu/949/concepts/op-types/rinf/10,10,http://publications.europa.eu/resource/authority/country/AUT,10,station
http://data.europa.eu/949/functionalInfrastructure/operationalPoints/a66ee1d6c3e2724a2cdbb9f21121dda31181638a,http://data.europa.eu/949/functionalInfrastructure/operationalPoints/ATVel,ATVel,Velden am Wörthersee [BSTS_ID=2310],46.6201538,14.0449145,http://data.europa.eu/949/concepts/op-types/rinf/10,10,http://publications.europa.eu/resource/authority/country/AUT,10,station
http://data.europa.eu/949/functionalInfrastructure/operationalPoints/a8870983b5f82b9cbe9220c04a77cc60f17cdeef,http://data.europa.eu/949/functionalInfrastructure/operationalPoints/ATBle,ATBle,Bleiburg/Pliberk (in Ble) [BSTS_ID=173],46.5741761,14.7862444,http://data.europa.eu/949/concepts/op-types/rinf/10,10,http://publications.europa.eu/resource/authority/country/AUT,10,station
http://data.europa.eu/949/functionalInfrastructure/operationalPoints/abdaa6f63726c75cd283d9f0f3f011f68e44e7c8,http://data.europa.eu/949/functionalInfrastructure/operationalPoints/ATPre,ATPre,Pregarten [BSTS_ID=1749],48.3559699,14.5226391,http://data.europa.eu/949/concepts/op-types/rinf/10,10,http://publications.europa.eu/resource/authority/country/AUT,10,station
http://data.europa.eu/949/functionalInfrastructure/operationalPoints/acbab055f4867e50948db7dd6ff59b46b1f85687,http://data.europa.eu/949/functionalInfrastructure/operationalPoints/ATGob,ATGob,Graz Ostbf-Messe (in Gob) [BSTS_ID=652],47.0532442,15.4485568,http://data.europa.eu/949/concepts/op-types/rinf/10,10,http://publications.europa.eu/resource/authority/country/AUT,10,station
http://data.europa.eu/949/functionalInfrastructure/operationalPoints/ade3749e9642802b07d605d99ba29e2c826d8464,http://data.europa.eu/949/functionalInfrastructure/operationalPoints/ATFi%20L2,ATFi L2,Hirt Lst (Awanst) [BSTS_ID=437],46.9109318,14.4324889,http://data.europa.eu/949/concepts/op-types/rinf/20,20,http://publications.europa.eu/resource/authority/country/AUT,20,small station
http://data.europa.eu/949/functionalInfrastructure/operationalPoints/ae2dd3ec12613b220583f8f44e683995473ac8f0,http://data.europa.eu/949/functionalInfrastructure/operationalPoints/ATObd%20L1,ATObd L1,Taxwirt Lst (Awanst) [BSTS_ID=1601],47.0230738,14.7321044,http://data.europa.eu/949/concepts/op-types/rinf/20,20,http://publications.europa.eu/resource/authority/country/AUT,20,small station
http://data.europa.eu/949/functionalInfrastructure/operationalPoints/afacbe9221d55949999acbd843e64eb974302834,http://data.europa.eu/949/functionalInfrastructure/operationalPoints/ATRa,ATRa,Bad Radkersburg [BSTS_ID=1805],46.6996086,15.9932892,http://data.europa.eu/949/concepts/op-types/rinf/10,10,http://publications.europa.eu/resource/authority/country/AUT,10,station
http://data.europa.eu/949/functionalInfrastructure/operationalPoints/afe0f08c655b19ea8479f08f0b39e69755b64eb8,http://data.europa.eu/949/functionalInfrastructure/operationalPoints/ATBst,ATBst,Brennersee Terminal [BSTS_ID=4728677],47.0092768,11.5074345,http://data.europa.eu/949/concepts/op-types/rinf/10,10,http://publications.europa.eu/resource/authority/country/AUT,10,station
http://data.europa.eu/949/functionalInfrastructure/operationalPoints/aff24ecce110d81dba81458fba98786d645f4ee6,http://data.europa.eu/949/functionalInfrastructure/operationalPoints/ATZg,ATZg,Zeltweg [BSTS_ID=2556],47.1896383,14.7479536,http://data.europa.eu/949/concepts/op-types/rinf/10,10,http://publications.europa.eu/resource/authority/country/AUT,10,station
http://data.europa.eu/949/functionalInfrastructure/operationalPoints/b210785e1838dd7142118a7c91bbad5b9a44926a,http://data.europa.eu/949/functionalInfrastructure/operationalPoints/ATHer,ATHer,Hermagor [BSTS_ID=799],46.6265967,13.3758972,http://data.europa.eu/949/concepts/op-types/rinf/10,10,http://publications.europa.eu/resource/authority/country/AUT,10,station
http://data.europa.eu/949/functionalInfrastructure/operationalPoints/b577cc341a86e63e934b5d54176bde6697184124,http://data.europa.eu/949/functionalInfrastructure/operationalPoints/ATTel,ATTel,Thalheim-Pöls [BSTS_ID=2211],47.1962103,14.5895831,http://data.europa.eu/949/concepts/op-types/rinf/10,10,http://publications.europa.eu/resource/authority/country/AUT,10,station
http://data.europa.eu/949/functionalInfrastructure/operationalPoints/b70ce93373bac0fb542790e1a35720a8c7e6404b,http://data.europa.eu/949/functionalInfrastructure/operationalPoints/ATSh,ATSh,Sigmundsherberg [BSTS_ID=2009],48.6865346,15.742845,http://data.europa.eu/949/concepts/op-types/rinf/10,10,http://publications.europa.eu/resource/authority/country/AUT,10,station
http://data.europa.eu/949/functionalInfrastructure/operationalPoints/ba58258e38f1a1db8bf6d6d5d911134c5e6eef4c,http://data.europa.eu/949/functionalInfrastructure/operationalPoints/ATFk,ATFk,Feldkirch [BSTS_ID=448],47.2413683,9.6047085,http://data.europa.eu/949/concepts/op-types/rinf/10,10,http://publications.europa.eu/resource/authority/country/AUT,10,station
http://data.europa.eu/949/functionalInfrastructure/operationalPoints/bac1e290217d29198b69b2c92107a79429809fe0,http://data.europa.eu/949/functionalInfrastructure/operationalPoints/ATDg,ATDg,Dorfgastein [BSTS_ID=275],47.238712,13.1030947,http://data.europa.eu/949/concepts/op-types/rinf/10,10,http://publications.europa.eu/resource/authority/country/AUT,10,station
http://data.europa.eu/949/functionalInfrastructure/operationalPoints/bbd768b5e28926dec31512d0a81d492ee1ec2f94,http://data.europa.eu/949/functionalInfrastructure/operationalPoints/ATLr,ATLr,Linz Vbf-West (in Lzv) [BSTS_ID=1267],48.270582,14.3168279,http://data.europa.eu/949/concepts/op-types/rinf/20,20,http://publications.europa.eu/resource/authority/country/AUT,20,small station
http://data.europa.eu/949/functionalInfrastructure/operationalPoints/bd7be26e42ea28f836bc7ba4cd9296d112379531,http://data.europa.eu/949/functionalInfrastructure/operationalPoints/ATNoe,ATNoe,Nötsch [BSTS_ID=1564],46.5886698,13.6257488,http://data.europa.eu/949/concepts/op-types/rinf/10,10,http://publications.europa.eu/resource/authority/country/AUT,10,station
http://data.europa.eu/949/functionalInfrastructure/operationalPoints/bf329746cf2a20529a74530708b41098d76bccb3,http://data.europa.eu/949/functionalInfrastructure/operationalPoints/ATMah,ATMah,Mariahof-St.Lambrecht [BSTS_ID=1322],47.1063011,14.3728261,http://data.europa.eu/949/concepts/op-types/rinf/10,10,http://publications.europa.eu/resource/authority/country/AUT,10,station
http://data.europa.eu/949/functionalInfrastructure/operationalPoints/c1c41249aa3a38dfa92e968423d452527102bd50,http://data.europa.eu/949/functionalInfrastructure/operationalPoints/ATStt,ATStt,Spittal-Millstättersee [BSTS_ID=2131],46.7957069,13.4876133,http://data.europa.eu/949/concepts/op-types/rinf/10,10,http://publications.europa.eu/resource/authority/country/AUT,10,station
http://data.europa.eu/949/functionalInfrastructure/operationalPoints/c4c42657b1fe7e548d2d669a7b3e049720da0d03,http://data.europa.eu/949/functionalInfrastructure/operationalPoints/ATVsv,ATVsv,Villach Süd Gvbf (in Vsv) [BSTS_ID=2382261],46.5703517,13.8403656,http://data.europa.eu/949/concepts/op-types/rinf/10,10,http://publications.europa.eu/resource/authority/country/AUT,10,station
http://data.europa.eu/949/functionalInfrastructure/operationalPoints/c563d2cb180bd772f3a2aca2d504fec167e6df68,http://data.europa.eu/949/functionalInfrastructure/operationalPoints/ATMes,ATMes,Messendorf [BSTS_ID=1389],47.0317076,15.4893811,http://data.europa.eu/949/concepts/op-types/rinf/10,10,http://publications.europa.eu/resource/authority/country/AUT,10,station
http://data.europa.eu/949/functionalInfrastructure/operationalPoints/c5927207cd1dce3a74b870b313ea109d3cfbed3a,http://data.europa.eu/949/functionalInfrastructure/operationalPoints/ATI,ATI,Innsbruck Hbf (in I) [BSTS_ID=927],47.2645659,11.401403,http://data.europa.eu/949/concepts/op-types/rinf/10,10,http://publications.europa.eu/resource/authority/country/AUT,10,station
http://data.europa.eu/949/functionalInfrastructure/operationalPoints/cbe1c6ef0d19d13954f974f3bcc054f1da7c6bda,http://data.europa.eu/949/functionalInfrastructure/operationalPoints/ATMau,ATMau,Mauerkirchen [BSTS_ID=1364],48.1922187,13.1289307,http://data.europa.eu/949/concepts/op-types/rinf/10,10,http://publications.europa.eu/resource/authority/country/AUT,10,station
http://data.europa.eu/949/functionalInfrastructure/operationalPoints/ceaf5172e9a3ad5c8b5b346a043ca3caf27aa227,http://data.europa.eu/949/functionalInfrastructure/operationalPoints/ATStu,ATStu,Studenzen-Fladnitz [BSTS_ID=2134],46.9987655,15.7749255,http://data.europa.eu/949/concepts/op-types/rinf/10,10,http://publications.europa.eu/resource/authority/country/AUT,10,station
http://data.europa.eu/949/functionalInfrastructure/operationalPoints/d1421d84d1dee27b4a7100fcb07c2a6b2dd57516,http://data.europa.eu/949/functionalInfrastructure/operationalPoints/ATUf,ATUf,Linz Urfahr [BSTS_ID=2280],48.3119892,14.2796286,http://data.europa.eu/949/concepts/op-types/rinf/10,10,http://publications.europa.eu/resource/authority/country/AUT,10,station
http://data.europa.eu/949/functionalInfrastructure/operationalPoints/d17997dd57e0864f1068f31e6ea88064d2c6f83a,http://data.europa.eu/949/functionalInfrastructure/operationalPoints/ATM,ATM,St.Michael (in M) [BSTS_ID=1304],47.3466018,15.0091367,http://data.europa.eu/949/concepts/op-types/rinf/10,10,http://publications.europa.eu/resource/authority/country/AUT,10,station
http://data.europa.eu/949/functionalInfrastructure/operationalPoints/d709721326d87d1898c59fa3ae306c44cf405339,http://data.europa.eu/949/functionalInfrastructure/operationalPoints/ATSbb,ATSbb,Steinbachbrücke [BSTS_ID=1946],47.9323463,13.9930802,http://data.europa.eu/949/concepts/op-types/rinf/10,10,http://publications.europa.eu/resource/authority/country/AUT,10,station
http://data.europa.eu/949/functionalInfrastructure/operationalPoints/d884394326a29f7f6dea3283e3802a31d75fe1cd,http://data.europa.eu/949/functionalInfrastructure/operationalPoints/ATStp,ATStp,Stadl-Paura [BSTS_ID=2123],48.0844102,13.8833499,http://data.europa.eu/949/concepts/op-types/rinf/10,10,http://publications.europa.eu/resource/authority/country/AUT,10,station
http://data.europa.eu/949/functionalInfrastructure/operationalPoints/d8a128ad7dd954319b6249e1c4942ad16a9d49dc,http://data.europa.eu/949/functionalInfrastructure/operationalPoints/ATVps,ATVps,St.Veit a.d.Glan (in Vps) [BSTS_ID=2345],46.7704947,14.3672097,http://data.europa.eu/949/concepts/op-types/rinf/10,10,http://publications.europa.eu/resource/authority/country/AUT,10,station
http://data.europa.eu/949/functionalInfrastructure/operationalPoints/dcb6dae8dd60ed3a640084b3636e23b09e17ddfe,http://data.europa.eu/949/functionalInfrastructure/operationalPoints/ATStm,ATStm,Steyrermühl [BSTS_ID=2119],47.9961364,13.8037823,http://data.europa.eu/949/concepts/op-types/rinf/10,10,http://publications.europa.eu/resource/authority/country/AUT,10,station
http://data.europa.eu/949/functionalInfrastructure/operationalPoints/de65a5fff930f9cce3291561c7082c3525ffdbfb,http://data.europa.eu/949/functionalInfrastructure/operationalPoints/ATFn,ATFn,Fürnitz (in Vsv) [BSTS_ID=481],46.5631659,13.8130031,http://data.europa.eu/949/concepts/op-types/rinf/20,20,http://publications.europa.eu/resource/authority/country/AUT,20,small station
http://data.europa.eu/949/functionalInfrastructure/operationalPoints/de76ffdb076652796571a334cdc66b9fab36353d,http://data.europa.eu/949/functionalInfrastructure/operationalPoints/ATSf,ATSf,Scheifling [BSTS_ID=1994],47.1478639,14.4192637,http://data.europa.eu/949/concepts/op-types/rinf/10,10,http://publications.europa.eu/resource/authority/country/AUT,10,station
http://data.europa.eu/949/functionalInfrastructure/operationalPoints/dea8909150c21055e1a3eff76727629fe8136d08,http://data.europa.eu/949/functionalInfrastructure/operationalPoints/ATVb,ATVb,Villach Hbf (in Vb) [BSTS_ID=2306],46.6186429,13.8483976,http://data.europa.eu/949/concepts/op-types/rinf/10,10,http://publications.europa.eu/resource/authority/country/AUT,10,station
http://data.europa.eu/949/functionalInfrastructure/operationalPoints/e0a0eda2216612a647101908a4a687b16b185df3,http://data.europa.eu/949/functionalInfrastructure/operationalPoints/ATSad,ATSad,Sattledt [BSTS_ID=1927],48.0741467,14.0579285,http://data.europa.eu/949/concepts/op-types/rinf/10,10,http://publications.europa.eu/resource/authority/country/AUT,10,station
http://data.europa.eu/949/functionalInfrastructure/operationalPoints/e59500c7882e4477002ada23cb6c53707894e8d9,http://data.europa.eu/949/functionalInfrastructure/operationalPoints/ATVob%20K3,ATVob K3,Bärnbach [BSTS_ID=131],47.0557501,15.1298564,http://data.europa.eu/949/concepts/op-types/rinf/70,70,http://publications.europa.eu/resource/authority/country/AUT,70,passenger stop
http://data.europa.eu/949/functionalInfrastructure/operationalPoints/e5f7099db1ab33b3a3d53a75a41236deb15fbe78,http://data.europa.eu/949/functionalInfrastructure/operationalPoints/ATUz,ATUz,Pusarnitz (in Uz) [BSTS_ID=2301],46.83508,13.4047696,http://data.europa.eu/949/concepts/op-types/rinf/10,10,http://publications.europa.eu/resource/authority/country/AUT,10,station
http://data.europa.eu/949/functionalInfrastructure/operationalPoints/e724ca2fa59c205e73e7f1ba448d15b1e8666b70,http://data.europa.eu/949/functionalInfrastructure/operationalPoints/ATLz,ATLz,Linz Hbf (in Lz) [BSTS_ID=1293],48.2901576,14.2919407,http://data.europa.eu/949/concepts/op-types/rinf/10,10,http://publications.europa.eu/resource/authority/country/AUT,10,station
http://data.europa.eu/949/functionalInfrastructure/operationalPoints/e749dbaa4d4d94946f735feeacd89f5d93fbd695,http://data.europa.eu/949/functionalInfrastructure/operationalPoints/ATIh,ATIh,Innsbruck Hötting (in I) [BSTS_ID=937],47.2615119,11.3737456,http://data.europa.eu/949/concepts/op-types/rinf/20,20,http://publications.europa.eu/resource/authority/country/AUT,20,small station
http://data.europa.eu/949/functionalInfrastructure/operationalPoints/e7c942656e73b6c0c0cbc766be82e5e0a976222c,http://data.europa.eu/949/functionalInfrastructure/operationalPoints/ATMho%20H2,ATMho H2,Uttendorf-Helpfau [BSTS_ID=1409],48.1607914,13.1334955,http://data.europa.eu/949/concepts/op-types/rinf/70,70,http://publications.europa.eu/resource/authority/country/AUT,70,passenger stop
http://data.europa.eu/949/functionalInfrastructure/operationalPoints/ed51c6f3661c577d27b267f6cd6cbca15a0d58a6,http://data.europa.eu/949/functionalInfrastructure/operationalPoints/ATW,ATW,Wörgl Hbf (in W) [BSTS_ID=2358],47.4914533,12.0605485,http://data.europa.eu/949/concepts/op-types/rinf/10,10,http://publications.europa.eu/resource/authority/country/AUT,10,station
http://data.europa.eu/949/functionalInfrastructure/operationalPoints/ee9e53f8a15cf28636c2f48026577592c92c3da9,http://data.europa.eu/949/functionalInfrastructure/operationalPoints/ATDlb%20H2,ATDlb H2,Bad Schwanberg [BSTS_ID=2175],46.7657469,15.2399201,http://data.europa.eu/949/concepts/op-types/rinf/70,70,http://publications.europa.eu/resource/authority/country/AUT,70,passenger stop
http://data.europa.eu/949/functionalInfrastructure/operationalPoints/ef21872665b8f4cdb72683e5a5f2a0f099142d5a,http://data.europa.eu/949/functionalInfrastructure/operationalPoints/ATEis,ATEis,Eisenerz [BSTS_ID=345],47.5451912,14.8795053,http://data.europa.eu/949/concepts/op-types/rinf/10,10,http://publications.europa.eu/resource/authority/country/AUT,10,station
http://data.europa.eu/949/functionalInfrastructure/operationalPoints/ef725a45aa6a923a433bec16fe8ecc97ab920961,http://data.europa.eu/949/functionalInfrastructure/operationalPoints/ATDr,ATDr,Arnoldstein [BSTS_ID=296],46.5514486,13.708878,http://data.europa.eu/949/concepts/op-types/rinf/10,10,http://publications.europa.eu/resource/authority/country/AUT,10,station
http://data.europa.eu/949/functionalInfrastructure/operationalPoints/f0c7cd7b5734181c031427e02c389e0f6d29963e,http://data.europa.eu/949/functionalInfrastructure/operationalPoints/ATBrl,ATBrl,Brückl [BSTS_ID=223],46.7474913,14.5209571,http://data.europa.eu/949/concepts/op-types/rinf/10,10,http://publications.europa.eu/resource/authority/country/AUT,10,station
http://data.europa.eu/949/functionalInfrastructure/operationalPoints/f95adfce33782fb909cf186be73e9ae28aec0e33,http://data.europa.eu/949/functionalInfrastructure/operationalPoints/ATLnn,ATLnn,Lannach [BSTS_ID=1252],46.9402661,15.335127,http://data.europa.eu/949/concepts/op-types/rinf/10,10,http://publications.europa.eu/resource/authority/country/AUT,10,station
http://data.europa.eu/949/functionalInfrastructure/operationalPoints/f96524dc60e04ec930e2a074de87dccc4eb36283,http://data.europa.eu/949/functionalInfrastructure/operationalPoints/ATSet,ATSet,Seefeld in Tirol [BSTS_ID=1991],47.3287783,11.1894328,http://data.europa.eu/949/concepts/op-types/rinf/10,10,http://publications.europa.eu/resource/authority/country/AUT,10,station
http://data.europa.eu/949/functionalInfrastructure/operationalPoints/faa981e67910a81f2b4ef4cb18e7456cba710011,http://data.europa.eu/949/functionalInfrastructure/operationalPoints/ATSth,ATSth,Steinhaus bei Wels [BSTS_ID=2105],48.1193364,14.0179396,http://data.europa.eu/949/concepts/op-types/rinf/10,10,http://publications.europa.eu/resource/authority/country/AUT,10,station
http://data.europa.eu/949/functionalInfrastructure/operationalPoints/fbbf13f31d100178ace31649090cfd711819247b,http://data.europa.eu/949/functionalInfrastructure/operationalPoints/ATBal,ATBal,Bad St.Leonhard [BSTS_ID=122],46.965838,14.7868288,http://data.europa.eu/949/concepts/op-types/rinf/10,10,http://publications.europa.eu/resource/authority/country/AUT,10,station
http://data.europa.eu/949/functionalInfrastructure/operationalPoints/feb07c97e45c5d1cee4b245b2c2beb62e141967e,http://data.europa.eu/949/functionalInfrastructure/operationalPoints/ATGm,ATGm,Gmünd N.Ö. [BSTS_ID=630],48.7641745,14.9848186,http://data.europa.eu/949/concepts/op-types/rinf/10,10,http://publications.europa.eu/resource/authority/country/AUT,10,station
http://data.europa.eu/949/functionalInfrastructure/operationalPoints/003225d9c48bcf91997dfa936e729b01d2def68e,http://data.europa.eu/949/functionalInfrastructure/operationalPoints/ATSmr,ATSmr,Summerau [BSTS_ID=2034],48.5572139,14.4488603,http://data.europa.eu/949/concepts/op-types/rinf/10,10,http://publications.europa.eu/resource/authority/country/AUT,10,station
http://data.europa.eu/949/functionalInfrastructure/operationalPoints/005d8614d202b0f1d89cea0351f4fcabf3d41818,http://data.europa.eu/949/functionalInfrastructure/operationalPoints/ATWef,ATWef,Weizelsdorf [BSTS_ID=2412],46.5394975,14.243268,http://data.europa.eu/949/concepts/op-types/rinf/10,10,http://publications.europa.eu/resource/authority/country/AUT,10,station
http://data.europa.eu/949/functionalInfrastructure/operationalPoints/0082c5a0f83d57dc30521e84eff7bc8a2e24f6ed,http://data.europa.eu/949/functionalInfrastructure/operationalPoints/ATSl,ATSl,Selzthal (in Sl) [BSTS_ID=2023],47.5507386,14.3139624,http://data.europa.eu/949/concepts/op-types/rinf/10,10,http://publications.europa.eu/resource/authority/country/AUT,10,station
http://data.europa.eu/949/functionalInfrastructure/operationalPoints/009225d11b44f3dca3789b623646b7bd78d50452,http://data.europa.eu/949/functionalInfrastructure/operationalPoints/ATGf,ATGf,Göpfritz [BSTS_ID=580],48.7297876,15.3943526,http://data.europa.eu/949/concepts/op-types/rinf/10,10,http://publications.europa.eu/resource/authority/country/AUT,10,station
http://data.europa.eu/949/functionalInfrastructure/operationalPoints/01d1b5131e87d2acb36c21801cda229c1ec0846c,http://data.europa.eu/949/functionalInfrastructure/operationalPoints/ATKch,ATKch,Kirchberg am Wagram [BSTS_ID=1007],48.4275399,15.8941463,http://data.europa.eu/949/concepts/op-types/rinf/10,10,http://publications.europa.eu/resource/authority/country/AUT,10,station
http://data.europa.eu/949/functionalInfrastructure/operationalPoints/01f9a3096e29eb0e0bd7c27880a02e99010e169d,http://data.europa.eu/949/functionalInfrastructure/operationalPoints/ATEdo,ATEdo,Etsdorf-Straß [BSTS_ID=324],48.4530918,15.7302138,http://data.europa.eu/949/concepts/op-types/rinf/10,10,http://publications.europa.eu/resource/authority/country/AUT,10,station
http://data.europa.eu/949/functionalInfrastructure/operationalPoints/027191edd39d68e90ca8f273ac8e066452594fa2,http://data.europa.eu/949/functionalInfrastructure/operationalPoints/ATPb,ATPb,St.Pölten Hbf (in Pb) [BSTS_ID=1669],48.2082521,15.6246764,http://data.europa.eu/949/concepts/op-types/rinf/10,10,http://publications.europa.eu/resource/authority/country/AUT,10,station
http://data.europa.eu/949/functionalInfrastructure/operationalPoints/041a3054de27642ab430003ddfbd61ba4d3fdbb9,http://data.europa.eu/949/functionalInfrastructure/operationalPoints/ATUp,ATUp,Unter Purkersdorf (in Up) [BSTS_ID=2289],48.2077037,16.1906224,http://data.europa.eu/949/concepts/op-types/rinf/10,10,http://publications.europa.eu/resource/authority/country/AUT,10,station
http://data.europa.eu/949/functionalInfrastructure/operationalPoints/063bf290f87b7b12de35c3d6e289eda3eb1b6415,http://data.europa.eu/949/functionalInfrastructure/operationalPoints/ATOd,ATOd,Oberdrauburg [BSTS_ID=1603],46.7462841,12.9740507,http://data.europa.eu/949/concepts/op-types/rinf/10,10,http://publications.europa.eu/resource/authority/country/AUT,10,station
http://data.europa.eu/949/functionalInfrastructure/operationalPoints/07daa2339e737bd30dbcbe59ef444a329e11083d,http://data.europa.eu/949/functionalInfrastructure/operationalPoints/ATSet%20K1,ATSet K1,Gießenbach (Awanst) [BSTS_ID=1993],47.3752095,11.2370923,http://data.europa.eu/949/concepts/op-types/rinf/70,70,http://publications.europa.eu/resource/authority/country/AUT,70,passenger stop
http://data.europa.eu/949/functionalInfrastructure/operationalPoints/08323c76faa55d5315d4ea3877775b2668c5d765,http://data.europa.eu/949/functionalInfrastructure/operationalPoints/ATSgg,ATSgg,Graz Straßgang [BSTS_ID=2001],47.0198235,15.4054173,http://data.europa.eu/949/concepts/op-types/rinf/10,10,http://publications.europa.eu/resource/authority/country/AUT,10,station
http://data.europa.eu/949/functionalInfrastructure/operationalPoints/08bd7a4b90a8dd08c74066a5c84e5b459da0de96,http://data.europa.eu/949/functionalInfrastructure/operationalPoints/ATLie,ATLie,Lienz [BSTS_ID=1217],46.8282549,12.7716571,http://data.europa.eu/949/concepts/op-types/rinf/10,10,http://publications.europa.eu/resource/authority/country/AUT,10,station
http://data.europa.eu/949/functionalInfrastructure/operationalPoints/0abcdbc63794a040a4eddf8bab2b60e5e85eaac7,http://data.europa.eu/949/functionalInfrastructure/operationalPoints/ATAbf%20K1,ATAbf K1,Mittewald a.d.Drau (Awanst) [BSTS_ID=8],46.7696143,12.5951716,http://data.europa.eu/949/concepts/op-types/rinf/70,70,http://publications.europa.eu/resource/authority/country/AUT,70,passenger stop
http://data.europa.eu/949/functionalInfrastructure/operationalPoints/0bff488408167ad378e41f64ad50c9aa12f0d0b0,http://data.europa.eu/949/functionalInfrastructure/operationalPoints/ATDoe,ATDoe,Dölsach [BSTS_ID=291],46.8147491,12.8335712,http://data.europa.eu/949/concepts/op-types/rinf/10,10,http://publications.europa.eu/resource/authority/country/AUT,10,station
http://data.europa.eu/949/functionalInfrastructure/operationalPoints/0ce3393c5d4d46aae2a795cd918bd03fe9564ee3,http://data.europa.eu/949/functionalInfrastructure/operationalPoints/ATKue,ATKue,Linz Kleinmünchen [BSTS_ID=1107],48.2595798,14.322887,http://data.europa.eu/949/concepts/op-types/rinf/10,10,http://publications.europa.eu/resource/authority/country/AUT,10,station
http://data.europa.eu/949/functionalInfrastructure/operationalPoints/0dbcb411f09814156bc48259d69b012322545c04,http://data.europa.eu/949/functionalInfrastructure/operationalPoints/ATKro%20K1,ATKro K1,Krems in Steiermark [BSTS_ID=1089],47.0329588,15.1756155,http://data.europa.eu/949/concepts/op-types/rinf/70,70,http://publications.europa.eu/resource/authority/country/AUT,70,passenger stop
http://data.europa.eu/949/functionalInfrastructure/operationalPoints/0e527f506bcfe37be537da7170c5bb4fc2f0d1b7,http://data.europa.eu/949/functionalInfrastructure/operationalPoints/ATLfg,ATLfg,Salzburg Liefering (in Sb) [BSTS_ID=1501642],47.8241886,13.0007599,http://data.europa.eu/949/concepts/op-types/rinf/20,20,http://publications.europa.eu/resource/authority/country/AUT,20,small station
http://data.europa.eu/949/functionalInfrastructure/operationalPoints/0e64cb2d5e714e8051c798839393093e797b92ee,http://data.europa.eu/949/functionalInfrastructure/operationalPoints/ATLeb,ATLeb,Leoben Hbf (in Leb) [BSTS_ID=1183],47.3870606,15.0900973,http://data.europa.eu/949/concepts/op-types/rinf/10,10,http://publications.europa.eu/resource/authority/country/AUT,10,station
http://data.europa.eu/949/functionalInfrastructure/operationalPoints/0f48bcc9a8bc69edc5f7287fa45c9c052025ccdc,http://data.europa.eu/949/functionalInfrastructure/operationalPoints/ATKag,ATKag,Kalwang [BSTS_ID=992],47.4233992,14.7443473,http://data.europa.eu/949/concepts/op-types/rinf/10,10,http://publications.europa.eu/resource/authority/country/AUT,10,station
http://data.europa.eu/949/functionalInfrastructure/operationalPoints/136fba87032dc9f70dfeb2da6baf108543bb4c7c,http://data.europa.eu/949/functionalInfrastructure/operationalPoints/ATAh,ATAh,Absdorf-Hippersdorf (in Ah) [BSTS_ID=17],48.4019763,15.9857389,http://data.europa.eu/949/concepts/op-types/rinf/10,10,http://publications.europa.eu/resource/authority/country/AUT,10,station
http://data.europa.eu/949/functionalInfrastructure/operationalPoints/1372f07a0db63fe7745f79f23710721b7497fc59,http://data.europa.eu/949/functionalInfrastructure/operationalPoints/ATKd,ATKd,Knittelfeld [BSTS_ID=1008],47.2152167,14.8376653,http://data.europa.eu/949/concepts/op-types/rinf/10,10,http://publications.europa.eu/resource/authority/country/AUT,10,station
http://data.europa.eu/949/functionalInfrastructure/operationalPoints/15fa213c23b6c8bf54308f6bedfac8d68f0cd6cd,http://data.europa.eu/949/functionalInfrastructure/operationalPoints/ATZf,ATZf,Ziersdorf [BSTS_ID=2554],48.5283217,15.9213074,http://data.europa.eu/949/concepts/op-types/rinf/10,10,http://publications.europa.eu/resource/authority/country/AUT,10,station
http://data.europa.eu/949/functionalInfrastructure/operationalPoints/18fc493481cd5ada20f9aa56eb1e35c592563c8a,http://data.europa.eu/949/functionalInfrastructure/operationalPoints/ATGn,ATGn,Gramatneusiedl [BSTS_ID=642],48.0358906,16.4893868,http://data.europa.eu/949/concepts/op-types/rinf/10,10,http://publications.europa.eu/resource/authority/country/AUT,10,station
http://data.europa.eu/949/functionalInfrastructure/operationalPoints/196b608ff06ae9a0a530d6430cd52e7d544b265b,http://data.europa.eu/949/functionalInfrastructure/operationalPoints/ATHm,ATHm,Hetzmannsdorf-Wullersdorf [BSTS_ID=851],48.6166385,16.0917367,http://data.europa.eu/949/concepts/op-types/rinf/10,10,http://publications.europa.eu/resource/authority/country/AUT,10,station
http://data.europa.eu/949/functionalInfrastructure/operationalPoints/1a97c530d3c6db21c7f15aaee31b5e6e8735920d,http://data.europa.eu/949/functionalInfrastructure/operationalPoints/ATVba,ATVba,Villach Hbf-Autoverladestelle (in Vb) [BSTS_ID=1474],46.6209742,13.8666071,http://data.europa.eu/949/concepts/op-types/rinf/20,20,http://publications.europa.eu/resource/authority/country/AUT,20,small station
http://data.europa.eu/949/functionalInfrastructure/operationalPoints/1e1660b9836f1b7bd7460b45644ade344e071453,http://data.europa.eu/949/functionalInfrastructure/operationalPoints/ATTh,ATTh,Thörl-Maglern [BSTS_ID=2216],46.5402247,13.6482786,http://data.europa.eu/949/concepts/op-types/rinf/10,10,http://publications.europa.eu/resource/authority/country/AUT,10,station
http://data.europa.eu/949/functionalInfrastructure/operationalPoints/1efcf161f729f391458ad5315c3e780baadfe1bb,http://data.europa.eu/949/functionalInfrastructure/operationalPoints/ATVit,ATVit,Vitis [BSTS_ID=2323],48.7528575,15.172342,http://data.europa.eu/949/concepts/op-types/rinf/10,10,http://publications.europa.eu/resource/authority/country/AUT,10,station
http://data.europa.eu/949/functionalInfrastructure/operationalPoints/1fb338eec2731e827e83e239e2f275da91e4fa91,http://data.europa.eu/949/functionalInfrastructure/operationalPoints/ATNw,ATNw,Wien Praterstern (in Nw) [BSTS_ID=1584],48.2190605,16.3918896,http://data.europa.eu/949/concepts/op-types/rinf/10,10,http://publications.europa.eu/resource/authority/country/AUT,10,station
http://data.europa.eu/949/functionalInfrastructure/operationalPoints/22ec48b9752c26d69ed29e6f4b886728f651d390,http://data.europa.eu/949/functionalInfrastructure/operationalPoints/ATT,ATT,Traun (in T) [BSTS_ID=2190],48.2254559,14.2537835,http://data.europa.eu/949/concepts/op-types/rinf/10,10,http://publications.europa.eu/resource/authority/country/AUT,10,station
http://data.europa.eu/949/functionalInfrastructure/operationalPoints/247715586baf935f598ea73e6bea84dd3a48abfc,http://data.europa.eu/949/functionalInfrastructure/operationalPoints/ATNi,ATNi,Niklasdorf [BSTS_ID=1545],47.3941083,15.1562339,http://data.europa.eu/949/concepts/op-types/rinf/10,10,http://publications.europa.eu/resource/authority/country/AUT,10,station
http://data.europa.eu/949/functionalInfrastructure/operationalPoints/34c5f63e01f5b8900496a986832bdf5e74e9331c,http://data.europa.eu/949/functionalInfrastructure/operationalPoints/ATMos,ATMos,Moosbierbaum-Heiligeneich [BSTS_ID=1444],48.3058801,15.9011248,http://data.europa.eu/949/concepts/op-types/rinf/10,10,http://publications.europa.eu/resource/authority/country/AUT,10,station
http://data.europa.eu/949/functionalInfrastructure/operationalPoints/354b38f3fb44317f76d415b956c7725251ab2217,http://data.europa.eu/949/functionalInfrastructure/operationalPoints/ATLif,ATLif,Liebenfels [BSTS_ID=1221],46.734724,14.2837296,http://data.europa.eu/949/concepts/op-types/rinf/10,10,http://publications.europa.eu/resource/authority/country/AUT,10,station
http://data.europa.eu/949/functionalInfrastructure/operationalPoints/366e2aa878903ecdc1bfb044e2a286792f1fdca0,http://data.europa.eu/949/functionalInfrastructure/operationalPoints/ATAbz,ATAbz,Maxing [BSTS_ID=10],48.1714483,16.2950587,http://data.europa.eu/949/concepts/op-types/rinf/10,10,http://publications.europa.eu/resource/authority/country/AUT,10,station
http://data.europa.eu/949/functionalInfrastructure/operationalPoints/36f45751ebc4d7977a7bf91bc04dc10747cbc00a,http://data.europa.eu/949/functionalInfrastructure/operationalPoints/ATIrn,ATIrn,Irnfritz [BSTS_ID=947],48.7485038,15.5396198,http://data.europa.eu/949/concepts/op-types/rinf/10,10,http://publications.europa.eu/resource/authority/country/AUT,10,station
http://data.europa.eu/949/functionalInfrastructure/operationalPoints/380be5971b92cdcfa4103e6ff1a432ca076cff64,http://data.europa.eu/949/functionalInfrastructure/operationalPoints/ATWp,ATWp,Wampersdorf [BSTS_ID=2499],47.9310952,16.4171313,http://data.europa.eu/949/concepts/op-types/rinf/10,10,http://publications.europa.eu/resource/authority/country/AUT,10,station
http://data.europa.eu/949/functionalInfrastructure/operationalPoints/38a96082e89a57ef48df1f433b91ee8efa7880ab,http://data.europa.eu/949/functionalInfrastructure/operationalPoints/ATKra,ATKra,Kraubath [BSTS_ID=1078],47.3061455,14.9455994,http://data.europa.eu/949/concepts/op-types/rinf/10,10,http://publications.europa.eu/resource/authority/country/AUT,10,station
http://data.europa.eu/949/functionalInfrastructure/operationalPoints/3a709b0783e0d7a1981db0ce0df2e11f9afc1fec,http://data.europa.eu/949/functionalInfrastructure/operationalPoints/ATHet,ATHet,Wien Hetzendorf (in Wbf) [BSTS_ID=1348],48.1669267,16.315755,http://data.europa.eu/949/concepts/op-types/rinf/20,20,http://publications.europa.eu/resource/authority/country/AUT,20,small station
http://data.europa.eu/949/functionalInfrastructure/operationalPoints/3ccaf970e2a3499953aa281398ede91d8b938367,http://data.europa.eu/949/functionalInfrastructure/operationalPoints/ATZu,ATZu,Zurndorf [BSTS_ID=2580],47.9681458,17.0238324,http://data.europa.eu/949/concepts/op-types/rinf/10,10,http://publications.europa.eu/resource/authority/country/AUT,10,station
http://data.europa.eu/949/functionalInfrastructure/operationalPoints/409e8c5b7c0dc81731cec857fbde5420fe202531,http://data.europa.eu/949/functionalInfrastructure/operationalPoints/ATWbf,ATWbf,Wien Hauptbahnhof (in Wbf) [BSTS_ID=2393],48.184485,16.3791269,http://data.europa.eu/949/concepts/op-types/rinf/10,10,http://publications.europa.eu/resource/authority/country/AUT,10,station
http://data.europa.eu/949/functionalInfrastructure/operationalPoints/45454c9d87e617cde761e2053052158a452e078b,http://data.europa.eu/949/functionalInfrastructure/operationalPoints/ATFb,ATFb,Feldbach [BSTS_ID=404],46.9585558,15.8885537,http://data.europa.eu/949/concepts/op-types/rinf/10,10,http://publications.europa.eu/resource/authority/country/AUT,10,station
http://data.europa.eu/949/functionalInfrastructure/operationalPoints/466c058e00fb48b9624865924e95c57e9d94571c,http://data.europa.eu/949/functionalInfrastructure/operationalPoints/ATGre,ATGre,Greifenburg-Weißensee [BSTS_ID=689],46.7411318,13.1910084,http://data.europa.eu/949/concepts/op-types/rinf/10,10,http://publications.europa.eu/resource/authority/country/AUT,10,station
http://data.europa.eu/949/functionalInfrastructure/operationalPoints/4a183cd5d7c725a4b931cdb4c1f9d46a540f3d76,http://data.europa.eu/949/functionalInfrastructure/operationalPoints/ATLeg,ATLeg,Leoben Göss (in Leb) [BSTS_ID=1187],47.3712821,15.0878267,http://data.europa.eu/949/concepts/op-types/rinf/20,20,http://publications.europa.eu/resource/authority/country/AUT,20,small station
http://data.europa.eu/949/functionalInfrastructure/operationalPoints/4db18d299673371fdb749b0dca316aa246f5d068,http://data.europa.eu/949/functionalInfrastructure/operationalPoints/ATVob%20K3,ATVob K3,Bärnbach H-Lst [BSTS_ID=131],47.0557501,15.1298564,http://data.europa.eu/949/concepts/op-types/rinf/70,70,http://publications.europa.eu/resource/authority/country/AUT,70,passenger stop
http://data.europa.eu/949/functionalInfrastructure/operationalPoints/4eb9e73b8bd44c1f963cd1554b3c4cfc3d70bbc1,http://data.europa.eu/949/functionalInfrastructure/operationalPoints/ATStr,ATStr,Strasshof (in Str) [BSTS_ID=2125],48.3206252,16.6435411,http://data.europa.eu/949/concepts/op-types/rinf/10,10,http://publications.europa.eu/resource/authority/country/AUT,10,station
http://data.europa.eu/949/functionalInfrastructure/operationalPoints/4ffe1562bd6da606c98ef6f414a8d3497ed41543,http://data.europa.eu/949/functionalInfrastructure/operationalPoints/ATGud,ATGud,Guntersdorf [BSTS_ID=734],48.6422065,16.0540936,http://data.europa.eu/949/concepts/op-types/rinf/10,10,http://publications.europa.eu/resource/authority/country/AUT,10,station
http://data.europa.eu/949/functionalInfrastructure/operationalPoints/5037872a39d7112caa1972d0d5c7b8c630c72b25,http://data.europa.eu/949/functionalInfrastructure/operationalPoints/ATOi,ATOi,Ossiach-Bodensdorf [BSTS_ID=1618],46.6824257,13.9740333,http://data.europa.eu/949/concepts/op-types/rinf/10,10,http://publications.europa.eu/resource/authority/country/AUT,10,station
http://data.europa.eu/949/functionalInfrastructure/operationalPoints/529bca10404f4d56a0b868fe7a39d9bf66b22ce4,http://data.europa.eu/949/functionalInfrastructure/operationalPoints/ATGai,ATGai,Gaishorn [BSTS_ID=553],47.4890294,14.5465494,http://data.europa.eu/949/concepts/op-types/rinf/10,10,http://publications.europa.eu/resource/authority/country/AUT,10,station
http://data.europa.eu/949/functionalInfrastructure/operationalPoints/53cc3eaa12c56aef6637db7333806f1ad090c7cf,http://data.europa.eu/949/functionalInfrastructure/operationalPoints/ATSmk,ATSmk,Söding-Mooskirchen [BSTS_ID=2032],46.9967858,15.282462,http://data.europa.eu/949/concepts/op-types/rinf/10,10,http://publications.europa.eu/resource/authority/country/AUT,10,station
http://data.europa.eu/949/functionalInfrastructure/operationalPoints/546952f1ac6dde95755f27213dca6073b32acea4,http://data.europa.eu/949/functionalInfrastructure/operationalPoints/ATDl,ATDl,Wien Donaukaibf (in Dl) [BSTS_ID=280],48.2032545,16.4362563,http://data.europa.eu/949/concepts/op-types/rinf/10,10,http://publications.europa.eu/resource/authority/country/AUT,10,station
http://data.europa.eu/949/functionalInfrastructure/operationalPoints/548cd0d9c9847d964a952bbdf6f2cb1deec61d2e,http://data.europa.eu/949/functionalInfrastructure/operationalPoints/ATKfl,ATKfl,Köflach [BSTS_ID=1029],47.0613992,15.0828061,http://data.europa.eu/949/concepts/op-types/rinf/10,10,http://publications.europa.eu/resource/authority/country/AUT,10,station
http://data.europa.eu/949/functionalInfrastructure/operationalPoints/55632c0f5e4b9279602f708de3c88c8471d7298e,http://data.europa.eu/949/functionalInfrastructure/operationalPoints/ATUr,ATUr,Bruck a.d.Leitha Fbf (in Bl) [BSTS_ID=2684],48.0171504,16.7988875,http://data.europa.eu/949/concepts/op-types/rinf/20,20,http://publications.europa.eu/resource/authority/country/AUT,20,small station
http://data.europa.eu/949/functionalInfrastructure/operationalPoints/563a86fcc1195009b8b9cf76006946df6356c5db,http://data.europa.eu/949/functionalInfrastructure/operationalPoints/ATLp,ATLp,Leopoldau [BSTS_ID=1266],48.2776147,16.4493408,http://data.europa.eu/949/concepts/op-types/rinf/10,10,http://publications.europa.eu/resource/authority/country/AUT,10,station
http://data.europa.eu/949/functionalInfrastructure/operationalPoints/56bc76d51d6e8640886502aefc963672347f3abb,http://data.europa.eu/949/functionalInfrastructure/operationalPoints/ATTro,ATTro,Trofaiach [BSTS_ID=2258],47.4215202,15.0095991,http://data.europa.eu/949/concepts/op-types/rinf/10,10,http://publications.europa.eu/resource/authority/country/AUT,10,station
http://data.europa.eu/949/functionalInfrastructure/operationalPoints/56fa6024e5daede9c2538b3e53fcf6d538e20ae7,http://data.europa.eu/949/functionalInfrastructure/operationalPoints/ATWeb,ATWeb,Weissenbach-Neuhaus [BSTS_ID=2409],47.9842479,16.0458792,http://data.europa.eu/949/concepts/op-types/rinf/10,10,http://publications.europa.eu/resource/authority/country/AUT,10,station
http://data.europa.eu/949/functionalInfrastructure/operationalPoints/5737817e512df26808665cbf9002d99fcac35771,http://data.europa.eu/949/functionalInfrastructure/operationalPoints/ATJ,ATJ,Jedlersdorf (in F) [BSTS_ID=956],48.2744327,16.3955081,http://data.europa.eu/949/concepts/op-types/rinf/20,20,http://publications.europa.eu/resource/authority/country/AUT,20,small station
http://data.europa.eu/949/functionalInfrastructure/operationalPoints/576c049999441bae13c766d66df43c09d544bfac,http://data.europa.eu/949/functionalInfrastructure/operationalPoints/ATDlt,ATDlt,Terminal Wien Freudenau Hafen (in Dl) [BSTS_ID=2433108],48.1814352,16.4690337,http://data.europa.eu/949/concepts/op-types/rinf/20,20,http://publications.europa.eu/resource/authority/country/AUT,20,small station
http://data.europa.eu/949/functionalInfrastructure/operationalPoints/57839ad578ef267f383c35e654e664884cb12b1a,http://data.europa.eu/949/functionalInfrastructure/operationalPoints/ATTu,ATTu,Tulln an der Donau (in Tu) [BSTS_ID=2262],48.3276247,16.0642472,http://data.europa.eu/949/concepts/op-types/rinf/10,10,http://publications.europa.eu/resource/authority/country/AUT,10,station
http://data.europa.eu/949/functionalInfrastructure/operationalPoints/5bf0e813aa0c9ea6842866e44012b59da9fa9961,http://data.europa.eu/949/functionalInfrastructure/operationalPoints/ATEnz%20K1,ATEnz K1,Staatz (Awanst) [BSTS_ID=375],48.69972,16.4929469,http://data.europa.eu/949/concepts/op-types/rinf/70,70,http://publications.europa.eu/resource/authority/country/AUT,70,passenger stop
http://data.europa.eu/949/functionalInfrastructure/operationalPoints/5cdbeea6b9b490ee4f8141262c0b637c9a30854d,http://data.europa.eu/949/functionalInfrastructure/operationalPoints/ATMlx,ATMlx,W.Mat.-Laxenburg (in Wbf) [BSTS_ID=4403642],48.1814121,16.3640174,http://data.europa.eu/949/concepts/op-types/rinf/20,20,http://publications.europa.eu/resource/authority/country/AUT,20,small station
http://data.europa.eu/949/functionalInfrastructure/operationalPoints/60f9c5187718cd0ae1094d1926de211305cec1f8,http://data.europa.eu/949/functionalInfrastructure/operationalPoints/ATDue,ATDue,Dürnkrut [BSTS_ID=301],48.4711051,16.8610055,http://data.europa.eu/949/concepts/op-types/rinf/10,10,http://publications.europa.eu/resource/authority/country/AUT,10,station
http://data.europa.eu/949/functionalInfrastructure/operationalPoints/617fba0ae9ad2f8b7200e0c78b33cf2870d2bb24,http://data.europa.eu/949/functionalInfrastructure/operationalPoints/ATVik,ATVik,Viktring (in Kt) [BSTS_ID=1100],46.6044335,14.2998285,http://data.europa.eu/949/concepts/op-types/rinf/20,20,http://publications.europa.eu/resource/authority/country/AUT,20,small station
http://data.europa.eu/949/functionalInfrastructure/operationalPoints/6417e31d849c6d2a8c8265e73d15c6246630fb89,http://data.europa.eu/949/functionalInfrastructure/operationalPoints/ATTfd,ATTfd,Tullnerfeld (in Tfd) [BSTS_ID=4384321],48.2951647,15.9965385,http://data.europa.eu/949/concepts/op-types/rinf/10,10,http://publications.europa.eu/resource/authority/country/AUT,10,station
http://data.europa.eu/949/functionalInfrastructure/operationalPoints/65f0616e687dcb9eac2499170254c3610dba3ba7,http://data.europa.eu/949/functionalInfrastructure/operationalPoints/ATMan,ATMan,Mannersdorf (in Goe) [BSTS_ID=5148191],47.9778958,16.6027543,http://data.europa.eu/949/concepts/op-types/rinf/20,20,http://publications.europa.eu/resource/authority/country/AUT,20,small station
http://data.europa.eu/949/functionalInfrastructure/operationalPoints/6638eced7d8d31ef02b23ac99c7e1fb670ad66e6,http://data.europa.eu/949/functionalInfrastructure/operationalPoints/ATPz,ATPz,Wien Penzing (in Pz) [BSTS_ID=1797],48.1926372,16.3041709,http://data.europa.eu/949/concepts/op-types/rinf/10,10,http://publications.europa.eu/resource/authority/country/AUT,10,station
http://data.europa.eu/949/functionalInfrastructure/operationalPoints/690b2089faa4134e1cbe72e5d254e07b83447f9d,http://data.europa.eu/949/functionalInfrastructure/operationalPoints/ATFes,ATFes,Fentsch-St.Lorenzen [BSTS_ID=429],47.251729,14.8930946,http://data.europa.eu/949/concepts/op-types/rinf/10,10,http://publications.europa.eu/resource/authority/country/AUT,10,station
http://data.europa.eu/949/functionalInfrastructure/operationalPoints/6d5f17a20c84f0b15da62f272aabac66e0c036ff,http://data.europa.eu/949/functionalInfrastructure/operationalPoints/ATGra,ATGra,Grafenstein [BSTS_ID=683],46.6190343,14.4595228,http://data.europa.eu/949/concepts/op-types/rinf/10,10,http://publications.europa.eu/resource/authority/country/AUT,10,station
http://data.europa.eu/949/functionalInfrastructure/operationalPoints/6eb84e127bb535fb3cd7ae70f84fc603ab0b5fd9,http://data.europa.eu/949/functionalInfrastructure/operationalPoints/ATDv,ATDv,Leoben Donawitz [BSTS_ID=304],47.3811436,15.0590651,http://data.europa.eu/949/concepts/op-types/rinf/10,10,http://publications.europa.eu/resource/authority/country/AUT,10,station
http://data.europa.eu/949/functionalInfrastructure/operationalPoints/7016e1de761efdbe6784859d39e2bef5d59a4345,http://data.europa.eu/949/functionalInfrastructure/operationalPoints/ATEl,ATEl,Wien Erdbergerlände (in El) [BSTS_ID=352],48.182826,16.4288464,http://data.europa.eu/949/concepts/op-types/rinf/10,10,http://publications.europa.eu/resource/authority/country/AUT,10,station
http://data.europa.eu/949/functionalInfrastructure/operationalPoints/71abad200bdf27fbf0e0ed0277922fa74eb90c20,http://data.europa.eu/949/functionalInfrastructure/operationalPoints/ATRoh,ATRoh,Knoten Rohr (in Roh) [BSTS_ID=2644],48.1878187,15.4468495,http://data.europa.eu/949/concepts/op-types/rinf/10,10,http://publications.europa.eu/resource/authority/country/AUT,10,station
http://data.europa.eu/949/functionalInfrastructure/operationalPoints/73dc3cbcdd11dde4dab86435779cf9502f8b2229,http://data.europa.eu/949/functionalInfrastructure/operationalPoints/ATVs,ATVs,St.Veit a.d.Glan-West (in Vps) [BSTS_ID=2352],46.7626605,14.3623893,http://data.europa.eu/949/concepts/op-types/rinf/20,20,http://publications.europa.eu/resource/authority/country/AUT,20,small station
http://data.europa.eu/949/functionalInfrastructure/operationalPoints/740945abc0c7cc16a0075f0f51e2d7129ebde68f,http://data.europa.eu/949/functionalInfrastructure/operationalPoints/ATO,ATO,Wien Floridsdorf Fbf (in F) [BSTS_ID=1592],48.267858,16.4140267,http://data.europa.eu/949/concepts/op-types/rinf/20,20,http://publications.europa.eu/resource/authority/country/AUT,20,small station
http://data.europa.eu/949/functionalInfrastructure/operationalPoints/77267b84a39d4eeccae7d78b52ae2e93bb2bcdf5,http://data.europa.eu/949/functionalInfrastructure/operationalPoints/ATN,ATN,Neubau-Kreuzstetten [BSTS_ID=1495],48.4973526,16.500737,http://data.europa.eu/949/concepts/op-types/rinf/10,10,http://publications.europa.eu/resource/authority/country/AUT,10,station
http://data.europa.eu/949/functionalInfrastructure/operationalPoints/7902363c20dfb759a4d23cf969557be8530238b0,http://data.europa.eu/949/functionalInfrastructure/operationalPoints/ATUb,ATUb,Wien Donauuferbf (in Wv) [BSTS_ID=2276],48.2289472,16.4009823,http://data.europa.eu/949/concepts/op-types/rinf/20,20,http://publications.europa.eu/resource/authority/country/AUT,20,small station
http://data.europa.eu/949/functionalInfrastructure/operationalPoints/7b6aded43ab205fc11303f9f52aac114e962502c,http://data.europa.eu/949/functionalInfrastructure/operationalPoints/ATY,ATY,Ybbs a.d.Donau [BSTS_ID=2529],48.1591417,15.1000022,http://data.europa.eu/949/concepts/op-types/rinf/10,10,http://publications.europa.eu/resource/authority/country/AUT,10,station
http://data.europa.eu/949/functionalInfrastructure/operationalPoints/7fd583261c9f8c3a80f4c0fad93a88530c861262,http://data.europa.eu/949/functionalInfrastructure/operationalPoints/ATR%20A1,ATR A1,AB (Awanst) - R_A1 [BSTS_ID=1804],48.7572431,16.0028335,http://data.europa.eu/949/concepts/op-types/rinf/80,80,http://publications.europa.eu/resource/authority/country/AUT,80,junction
http://data.europa.eu/949/functionalInfrastructure/operationalPoints/80e8ae2e0dcda1f2c5768b6924f6acc1163eb163,http://data.europa.eu/949/functionalInfrastructure/operationalPoints/ATAbf,ATAbf,Abfaltersbach West [BSTS_ID=7],46.7533577,12.5110855,http://data.europa.eu/949/concepts/op-types/rinf/10,10,http://publications.europa.eu/resource/authority/country/AUT,10,station
http://data.europa.eu/949/functionalInfrastructure/operationalPoints/823cb2497c2a99211b28131cc1adf49b2e3245ff,http://data.europa.eu/949/functionalInfrastructure/operationalPoints/ATSu,ATSu,Stockerau (in Su) [BSTS_ID=2140],48.3823432,16.2131095,http://data.europa.eu/949/concepts/op-types/rinf/10,10,http://publications.europa.eu/resource/authority/country/AUT,10,station
http://data.europa.eu/949/functionalInfrastructure/operationalPoints/83e0215a3eac292a00fc5e4aa8016f9d9e4abcb5,http://data.europa.eu/949/functionalInfrastructure/operationalPoints/ATWg,ATWg,Deutsch Wagram [BSTS_ID=2447],48.3031823,16.5645491,http://data.europa.eu/949/concepts/op-types/rinf/10,10,http://publications.europa.eu/resource/authority/country/AUT,10,station
http://data.europa.eu/949/functionalInfrastructure/operationalPoints/860baebc073035595e5f868fd1ca2b96a1d3ca4b,http://data.europa.eu/949/functionalInfrastructure/operationalPoints/ATVi,ATVi,Vils [BSTS_ID=2319],47.5488214,10.6397194,http://data.europa.eu/949/concepts/op-types/rinf/10,10,http://publications.europa.eu/resource/authority/country/AUT,10,station
http://data.europa.eu/949/functionalInfrastructure/operationalPoints/86ec66376bf3dc544ac6c32adb21c903c14331ad,http://data.europa.eu/949/functionalInfrastructure/operationalPoints/ATBel,ATBel,Bernhardsthal Fbf (in Bel) [BSTS_ID=146],48.6773543,16.8836219,http://data.europa.eu/949/concepts/op-types/rinf/10,10,http://publications.europa.eu/resource/authority/country/AUT,10,station
http://data.europa.eu/949/functionalInfrastructure/operationalPoints/8bbee5b835cf7f7a932b5e2b8a596cb0aa156b12,http://data.europa.eu/949/functionalInfrastructure/operationalPoints/ATShr,ATShr,Schrambach [BSTS_ID=493],48.0020358,15.5753565,http://data.europa.eu/949/concepts/op-types/rinf/10,10,http://publications.europa.eu/resource/authority/country/AUT,10,station
http://data.europa.eu/949/functionalInfrastructure/operationalPoints/8cef4b3446c695e21547a0574c9e77ec62b408dd,http://data.europa.eu/949/functionalInfrastructure/operationalPoints/ATVob,ATVob,Voitsberg [BSTS_ID=2339],47.0431889,15.1499952,http://data.europa.eu/949/concepts/op-types/rinf/10,10,http://publications.europa.eu/resource/authority/country/AUT,10,station
http://data.europa.eu/949/functionalInfrastructure/operationalPoints/8dcd325a7ea5386787748437d51ecfa0eb05bd41,http://data.europa.eu/949/functionalInfrastructure/operationalPoints/ATHgr,ATHgr,Hötzelsdorf-Geras [BSTS_ID=829],48.7419955,15.6707278,http://data.europa.eu/949/concepts/op-types/rinf/10,10,http://publications.europa.eu/resource/authority/country/AUT,10,station
http://data.europa.eu/949/functionalInfrastructure/operationalPoints/8f263b213c1ebf47ef671f189b8b17d75ca3da4b,http://data.europa.eu/949/functionalInfrastructure/operationalPoints/ATWr,ATWr,Werndorf (in Wr) [BSTS_ID=2504],46.9169665,15.4769292,http://data.europa.eu/949/concepts/op-types/rinf/10,10,http://publications.europa.eu/resource/authority/country/AUT,10,station
http://data.europa.eu/949/functionalInfrastructure/operationalPoints/8fb6a5d30a323201b3360646531068245124ed33,http://data.europa.eu/949/functionalInfrastructure/operationalPoints/ATPus,ATPus,Purgstall [BSTS_ID=1780],48.0594219,15.1312051,http://data.europa.eu/949/concepts/op-types/rinf/10,10,http://publications.europa.eu/resource/authority/country/AUT,10,station
http://data.europa.eu/949/functionalInfrastructure/operationalPoints/8fd6fe8cee266667dabc4a98f9eb1e00ad41606e,http://data.europa.eu/949/functionalInfrastructure/operationalPoints/ATNif,ATNif,Nickelsdorf [BSTS_ID=1551],47.9426195,17.0867178,http://data.europa.eu/949/concepts/op-types/rinf/10,10,http://publications.europa.eu/resource/authority/country/AUT,10,station
http://data.europa.eu/949/functionalInfrastructure/operationalPoints/904fd8da51149683a49aba698b958fba3c704e51,http://data.europa.eu/949/functionalInfrastructure/operationalPoints/ATBru,ATBru,Braunau am Inn (in Bru) [BSTS_ID=231],48.2590985,13.0486453,http://data.europa.eu/949/concepts/op-types/rinf/10,10,http://publications.europa.eu/resource/authority/country/AUT,10,station
http://data.europa.eu/949/functionalInfrastructure/operationalPoints/91a189679024dc6b3098fb787fdd8a9f741712be,http://data.europa.eu/949/functionalInfrastructure/operationalPoints/ATBle,ATBle,Bleiburg (in Ble) [BSTS_ID=173],46.5741761,14.7862444,http://data.europa.eu/949/concepts/op-types/rinf/10,10,http://publications.europa.eu/resource/authority/country/AUT,10,station
http://data.europa.eu/949/functionalInfrastructure/operationalPoints/93142ae2f3094046386712de200f74a7c826d409,http://data.europa.eu/949/functionalInfrastructure/operationalPoints/ATSsn,ATSsn,Möllbrücke-Sachsenburg [BSTS_ID=2087],46.8307328,13.3681541,http://data.europa.eu/949/concepts/op-types/rinf/10,10,http://publications.europa.eu/resource/authority/country/AUT,10,station
http://data.europa.eu/949/functionalInfrastructure/operationalPoints/941cfe97f950700f601aa1e1c1cba1b17325c4d8,http://data.europa.eu/949/functionalInfrastructure/operationalPoints/ATOn,ATOn,Oberweiden [BSTS_ID=1625],48.3062674,16.8336756,http://data.europa.eu/949/concepts/op-types/rinf/10,10,http://publications.europa.eu/resource/authority/country/AUT,10,station
http://data.europa.eu/949/functionalInfrastructure/operationalPoints/948e1a15310014d2e98b0a3a11b862472903838e,http://data.europa.eu/949/functionalInfrastructure/operationalPoints/ATVn,ATVn,Viehofen [BSTS_ID=2334],48.2309949,15.6532576,http://data.europa.eu/949/concepts/op-types/rinf/10,10,http://publications.europa.eu/resource/authority/country/AUT,10,station
http://data.europa.eu/949/functionalInfrastructure/operationalPoints/9b9debebf1cb68584a1358c7b8bf235843fa3cab,http://data.europa.eu/949/functionalInfrastructure/operationalPoints/ATJd,ATJd,Jennersdorf [BSTS_ID=968],46.9350123,16.1397006,http://data.europa.eu/949/concepts/op-types/rinf/10,10,http://publications.europa.eu/resource/authority/country/AUT,10,station
http://data.europa.eu/949/functionalInfrastructure/operationalPoints/9bd3eb3a3be4c5126e3b8297c6022911dea300af,http://data.europa.eu/949/functionalInfrastructure/operationalPoints/ATKtf,ATKtf,Klagenfurt Fbf (in Kt) [BSTS_ID=4749411],46.6163929,14.3250289,http://data.europa.eu/949/concepts/op-types/rinf/20,20,http://publications.europa.eu/resource/authority/country/AUT,20,small station
http://data.europa.eu/949/functionalInfrastructure/operationalPoints/9c43358c2bce8c88f1ea20cba045efbe148b19e3,http://data.europa.eu/949/functionalInfrastructure/operationalPoints/ATGld,ATGld,Gleisdorf [BSTS_ID=620],47.099514,15.7082433,http://data.europa.eu/949/concepts/op-types/rinf/10,10,http://publications.europa.eu/resource/authority/country/AUT,10,station
http://data.europa.eu/949/functionalInfrastructure/operationalPoints/9d47077333879bed5b39e5af4937b40458163e65,http://data.europa.eu/949/functionalInfrastructure/operationalPoints/ATNf,ATNf,Nußdorf [BSTS_ID=1534],48.2599645,16.3677427,http://data.europa.eu/949/concepts/op-types/rinf/10,10,http://publications.europa.eu/resource/authority/country/AUT,10,station
http://data.europa.eu/949/functionalInfrastructure/operationalPoints/9ec466785f64bf7bf19a0e5dce8ba0ec537a3aaa,http://data.europa.eu/949/functionalInfrastructure/operationalPoints/ATPoe,ATPoe,Pöchlarn [BSTS_ID=1725],48.2081469,15.2163536,http://data.europa.eu/949/concepts/op-types/rinf/10,10,http://publications.europa.eu/resource/authority/country/AUT,10,station
http://data.europa.eu/949/functionalInfrastructure/operationalPoints/a0819ae49887622936fa1bc49b504f42c77d8529,http://data.europa.eu/949/functionalInfrastructure/operationalPoints/ATBm,ATBm,Bruck a.d.Mur (in Bm) [BSTS_ID=188],47.4137132,15.2796612,http://data.europa.eu/949/concepts/op-types/rinf/10,10,http://publications.europa.eu/resource/authority/country/AUT,10,station
http://data.europa.eu/949/functionalInfrastructure/operationalPoints/a35f1fe62a5aaf3b6dfb5f7f9ef69f5cba7d52ed,http://data.europa.eu/949/functionalInfrastructure/operationalPoints/ATRt,ATRt,Reutte in Tirol [BSTS_ID=1890],47.4929457,10.7216493,http://data.europa.eu/949/concepts/op-types/rinf/10,10,http://publications.europa.eu/resource/authority/country/AUT,10,station
http://data.europa.eu/949/functionalInfrastructure/operationalPoints/a43d4e91680759fc23c837adfa25bfb9a8bbb9de,http://data.europa.eu/949/functionalInfrastructure/operationalPoints/ATEco,ATEco,Eco Plus [BSTS_ID=1960108],48.2144294,14.5183975,http://data.europa.eu/949/concepts/op-types/rinf/10,10,http://publications.europa.eu/resource/authority/country/AUT,10,station
http://data.europa.eu/949/functionalInfrastructure/operationalPoints/a5a7a13d91891b38e36478d2252e87acee9eb331,http://data.europa.eu/949/functionalInfrastructure/operationalPoints/ATAms,ATAms,Amstetten (in Ams) [BSTS_ID=55],48.121455,14.8788685,http://data.europa.eu/949/concepts/op-types/rinf/10,10,http://publications.europa.eu/resource/authority/country/AUT,10,station
http://data.europa.eu/949/functionalInfrastructure/operationalPoints/a81532b1599b6310d3abf1e4970e7ff72e96f6a3,http://data.europa.eu/949/functionalInfrastructure/operationalPoints/ATGef,ATGef,Gerasdorf [BSTS_ID=570],48.294261,16.4841276,http://data.europa.eu/949/concepts/op-types/rinf/10,10,http://publications.europa.eu/resource/authority/country/AUT,10,station
