osm_id,name,type,ref,lat,lon
node/8091317,Wien Ottakring,halt,Ok,48.21182,16.3111913
node/8091320,Wien Hernals,stop,2,48.2232721,16.3148301
node/8091331,Wien Gersthof,stop,2,48.2308266,16.329064
node/8091423,Wien Heiligenstadt,station,Ht,48.2489807,16.3655452
node/9232378,Wien Jedlersdorf,stop,2,48.2740664,16.3959541
node/9232389,Wien Brünner Straße,stop,1,48.2676564,16.4036086
node/9232410,Wien Floridsdorf,stop,3,48.2563544,16.400016
node/9232449,Wien Traisengasse,stop,1,48.2350711,16.3830548
node/9232502,Wien Strebersdorf,stop,2,48.2859164,16.3812798
node/13876505,Freilassing,stop,4,47.8369012,12.9767718
node/25527144,Salzburg Sam,stop,2,47.819589,13.0630863
node/25527195,Puch Urstein,stop,1,47.724114,13.0881964
node/25527213,Hallein,stop,3,47.685227,13.0995485
node/25527228,Kuchl Garnei,stop,1,47.6516345,13.1283306
node/25527244,Golling-Abtenau,stop,2,47.6008136,13.1641322
node/25527332,Tenneck,stop,1,47.4944164,13.1789563
node/25527356,Werfen,stop,3,47.4728208,13.1952984
node/25527371,Pfarrwerfen,stop,1,47.4611085,13.1999006
node/25527402,Bischofshofen,stop,3,47.4178599,13.2200175
node/25527508,Radstadt,stop,2,47.3842914,13.4679935
node/25527547,Mandling,stop,2,47.404164,13.5681259
node/25527662,Öblarn,stop,2,47.4606984,13.9875739
node/25527792,Selzthal,stop,1,47.5502592,14.3128231
node/25527817,Stadt Rottenmann,halt,Rm H1,47.5277888,14.3650368
node/25527853,Trieben,stop,1,47.4889269,14.4900152
node/25527864,Gaishorn am See,stop,2,47.4890727,14.5467517
node/25527895,Wald am Schoberpass,stop,3,47.4502234,14.6709036
node/25527966,Kammern im Liesingtal,stop,2,47.3899566,14.903915
node/25528004,Leoben Hauptbahnhof,station,Leb,47.3866642,15.0897306
node/25528028,Niklasdorf,stop,2,47.3936959,15.1547831
node/25528105,Pernegg,stop,2,47.359274,15.3431949
node/25528183,Peggau-Deutschfeistritz,stop,1,47.2074093,15.3432574
node/25528225,Gratwein-Gratkorn,stop,2,47.1293073,15.3228784
node/25528260,Graz Hauptbahnhof,station,G,47.0723984,15.4165166
node/26827614,Jenbach,station,Jb,47.3884246,11.778271
node/26854311,Hall in Tirol,stop,3,47.2768461,11.5008661
node/26911359,Wörgl Kundl,halt,Kn,47.476097,11.9822888
node/27024450,Wien Simmering,stop,1,48.1700907,16.4194671
node/27144630,Kirchbichl,station,Kir,47.5196061,12.0939124
node/27147033,Münster-Wiesing,halt,Bri H1,47.4034925,11.8201746
node/27209470,Schweizerhaus-Luftburg,halt,,48.2134324,16.4012182
node/27322337,Wörgl Hauptbahnhof,station,W,47.4915138,12.0606215
node/29056188,Kalwang,station,Kag,47.4236383,14.7465147
node/29056350,Windischgarsten,station,Win,47.7153652,14.3269227
node/29056369,Roßleithen,halt,Piv H1,47.7243424,14.3090139
node/29056430,Hinterstoder,station,Hst,47.7745868,14.1788909
node/29056488,Klaus,station,Kus,47.8329258,14.1551389
node/29056542,Micheldorf,station,Mid,47.8830354,14.1260699
node/29056558,Kirchdorf an der Krems,station,Kik,47.9065433,14.1161595
node/29056587,Schlierbach,stop,1,47.9370068,14.111367
node/29056615,Nußbach,stop,1,47.9719009,14.1233091
node/29056622,Wartberg an der Krems,station,Wak,47.9889541,14.1215595
node/29056654,Kremsmünster,stop,2,48.0522523,14.1386506
node/29056671,Rohr-Bad Hall,station,Rr,48.0697197,14.191538
node/29056690,Kematen-Piberbach,station,Kek,48.1130332,14.2031332
node/29056702,Neuhofen an der Krems,station,Nkr,48.1359637,14.238502
node/29056716,Nöstlbach-St. Marien,stop,,48.1639829,14.2465523
node/29056727,Nettingsdorf,stop,2,48.1895325,14.2584684
node/29056735,Ansfelden,stop,2,48.2089948,14.2610365
node/29056748,Traun,station,T,48.225434,14.2536855
node/29056754,St. Martin bei Traun,stop,,48.2364382,14.2646183
node/29056763,Linz Oed,halt,Lz H1W,48.264682,14.2765495
node/29056877,Breitenschützing,stop,2,48.0788367,13.8009899
node/29056884,Neukirchen bei Lambach,halt,La H2,48.0952196,13.8329569
node/29056915,Wels Hauptbahnhof,station,We,48.1659478,14.0265101
node/29056933,Marchtrenk,station,Mak,48.2009977,14.099469
node/29056937,Oftering,stop,2,48.2277842,14.1514349
node/29696274,Schaftenau,stop,2,47.5587918,12.1253017
node/31258692,Langenzersdorf,stop,1,48.306483,16.3558673
node/31258829,Korneuburg,stop,1,48.3433291,16.3287145
node/31258940,Spillern,stop,1,48.3757296,16.2570661
node/31258957,Stockerau,stop,2,48.3822983,16.213402
node/31368614,Wien Erzherzog-Karl-Straße,stop,2,48.23011,16.4532608
node/31368635,Wien Siemensstraße,stop,1,48.2707893,16.4201394
node/31368655,Wien Matzleinsdorfer Platz,stop,1,48.1801923,16.3577272
node/31368683,Wien Speising,stop,1,48.1735859,16.283752
node/32317913,Hainburg an der Donau Ungartor,halt,1,48.1483537,16.9481531
node/32317926,Hainburg an der Donau Personenbf,halt,1,48.1489621,16.9398253
node/32317930,Hainburg an der Donau Kulturfabrik,station,Hai,48.1449394,16.9322672
node/32436687,Marchegg,station,Mac,48.2498012,16.917522
node/32436711,Breitensee bei Marchegg,halt,Sfl H1,48.254824,16.8787565
node/32853993,Scharnitz,station,Snz,47.3918701,11.2668145
node/32854017,Gießenbach,halt,1,47.3748177,11.2368967
node/32854094,Seefeld in Tirol,station,Set,47.3288417,11.1892094
node/32854131,Reith bei Seefeld,station,Re,47.3010483,11.2006343
node/32854154,Leithen,halt,1,47.2907807,11.2219996
node/32854199,Hochzirl,station,Hol,47.2809977,11.2497184
node/32854316,Innsbruck Hötting,station,Ih,47.2614757,11.3737254
node/32854340,Innsbruck Westbf,station,Wt,47.255518,11.3914764
node/33042033,Graz Puntigam,stop,2,47.0308721,15.4292832
node/33074912,Raasdorf,stop,2,48.2391038,16.5823592
node/33204411,Langkampfen,stop,2,47.545916,12.1094257
node/34005842,Parndorf Ort / Pandrof mjesto,stop,3,47.9917589,16.8513266
node/34006372,Wilfleinsdorf,stop,1,48.0219768,16.7198137
node/34006381,Sarasdorf,stop,1,48.0231913,16.6772101
node/34006387,Trautmannsdorf an der Leitha,stop,1,48.0241929,16.6424442
node/34006397,Götzendorf an der Leitha,stop,3,48.0257355,16.5863272
node/34006453,Kledering,stop,2,48.1335061,16.4388896
node/34705540,Kottingbrunn,stop,2,47.9500962,16.2270557
node/35362325,Perchtoldsdorf,stop,1,48.1230282,16.285481
node/35362722,Wiener Neustadt Hauptbahnhof,stop,2,47.8111034,16.2338734
node/35526636,Graz Ostbahnhof,station,Gob,47.0534204,15.4482575
node/35719855,Ainring,stop,1,47.8149274,12.9644081
node/35719889,Freilassing-Hofham,stop,1,47.8318264,12.967809
node/35829940,Flughafen Graz-Feldkirchen,stop,1,46.9979922,15.4494767
node/36632331,Kirchberg in Tirol,station,Kit,47.4489417,12.3090792
node/36634213,Kitzbühel Hahnenkamm,stop,2,47.4433273,12.3899894
node/36635240,Kitzbühel,station,Kzb,47.4542348,12.3910162
node/36635331,St. Johann in Tirol,station,Jti,47.5196013,12.4308187
node/39440165,Neufeld an der Leitha,station,Nfl,47.8685066,16.3813024
node/40202885,Laufen (Oberbayern),station,MLF,47.9335738,12.9224592
node/41461982,Traiskirchen Lokalbahn,stop,,48.0153596,16.2907058
node/42863458,Wöllersdorf Marchgraben,halt,1,47.8651466,16.1645771
node/42863493,Wöllersdorf,stop,2,47.8612708,16.1785131
node/47926201,Wien Quartier Belvedere,stop,2,48.1880095,16.3818962
node/49192585,Schloßbergbahn Bergstation,station,,47.0760986,15.436762
node/49192593,Schloßbergbahn,station,,47.0748698,15.4350626
node/57590683,Nestroyplatz,stop,4114,48.2152893,16.3854118
node/57590685,Vorgartenstraße,stop,4110,48.2236355,16.4010376
node/57590686,Donauinsel,stop,4108,48.2292413,16.4113591
node/57592307,Kaisermühlen - VIC,stop,4123,48.2328406,16.4164838
node/57592312,Alte Donau,stop,4125,48.2382599,16.4247868
node/57592315,Kagran,stop,4127,48.2429415,16.4329857
node/59599548,Wien Süßenbrunn,stop,3,48.2855567,16.4855608
node/59599624,Kapellerfeld,stop,2,48.3169192,16.4951923
node/59838615,Taubstummengasse,stop,4107,48.1936661,16.3704988
node/60090912,Rennbahnweg,stop,4187,48.2576234,16.4495744
node/60090913,Aderklaaer Straße,stop,4188,48.263432,16.4515472
node/60091121,Dresdner Straße,stop,4649,48.2372899,16.3800575
node/60091215,Jägerstraße,stop,4650,48.2352809,16.3686805
node/60091400,Nußdorfer Straße,stop,4626,48.231312,16.3524662
node/60091638,Thaliastraße,stop,4621,48.2077916,16.3380301
node/60091642,Josefstädter Straße,stop,4622,48.2114691,16.3391937
node/60091648,Alser Straße,stop,4623,48.2167984,16.3418596
node/60091653,Michelbeuern-AKH,stop,4624,48.2212082,16.3443044
node/60091661,Währinger Straße-Volksoper,stop,4625,48.225585,16.3495374
node/60091791,Burggasse-Stadthalle,stop,4620,48.2032887,16.337235
node/60092321,Gumpendorfer Straße,stop,4618,48.1907373,16.3375766
node/60093107,Wien Westbahnhof,station,Ws,48.1965445,16.3362817
node/60093481,Volkstheater,stop,4209,48.2053496,16.3576485
node/60093482,Herrengasse,stop,4907,48.2094183,16.3650682
node/60093484,Stubentor,stop,4905,48.2069905,16.3792135
node/60215284,Schlachthausgasse,station,1199,48.194479,16.4066043
node/60290336,Schottentor,stop,4203,48.2151495,16.3629959
node/60291628,Friedensbrücke,stop,4433,48.2278811,16.3640585
node/60291638,Spittelau,stop,4439,48.2348052,16.3586571
node/60361862,St.  Pölten Hauptbahnhof,stop,3,48.2082006,15.625786
node/60362719,Neulengbach,stop,2,48.1994762,15.8927825
node/60475645,Stadtpark,stop,4414,48.2029419,16.3797786
node/60475940,Pilgramgasse,stop,4420,48.1921335,16.3542607
node/60476133,Unter St. Veit,stop,4432,48.1911354,16.285995
node/60476136,Braunschweiggasse,stop,4430,48.1894202,16.2958262
node/60476139,Hietzing,stop,4428,48.1875971,16.3045816
node/60476152,Meidling Hauptstraße,stop,4424,48.1837264,16.327927
node/60667487,Unterkritzendorf,stop,2,48.3240457,16.309353
node/60706441,,station,,47.6273616,14.3151663
node/60821127,Neue Donau,stop,4647,48.2463043,16.3946811
node/60821450,Floridsdorf,stop,4646,48.2562611,16.4003455
node/60825162,Wien Hauptbahnhof,stop,2,48.1859663,16.3750995
node/60825796,Keplerplatz,stop,4103,48.1793616,16.3761821
node/60847900,Westbahnhof,stop,4920,48.1960009,16.3383473
node/60848217,Zieglergasse,stop,4919,48.1971185,16.3463023
node/60848313,Neubaugasse,stop,4918,48.1992297,16.3525842
node/60848715,Johnstraße,stop,4925,48.1976846,16.3202625
node/60848716,Schweglerstraße,stop,4924,48.1979058,16.3285258
node/60849378,Ottakring,stop,4930,48.2109877,16.3113651
node/61077005,Kagraner Platz,stop,4181,48.250216,16.4433594
node/61276349,Schönbrunn,stop,4426,48.1860602,16.3189477
node/61688573,Bahnhof Meidling,stop,4614,48.1735381,16.3313103
node/61688579,Tscherttegasse,stop,4629,48.1649916,16.3277761
node/61688581,Am Schöpfwerk,stop,4630,48.1606849,16.3241837
node/61688590,Alterlaa,stop,4638,48.1505002,16.3169181
node/61688597,Erlaaer Straße,stop,4637,48.1419894,16.3165606
node/61688600,Perfektastraße,stop,4636,48.136611,16.3132697
node/61688602,Siebenhirten,stop,4635,48.1304978,16.3098612
node/62667240,Taborstraße,stop,4262,48.2190881,16.381425
node/62671827,Krieau,stop,4265,48.2146504,16.4136845
node/62671830,Stadion,stop,4257,48.2105542,16.4206648
node/62671836,Donaumarina,stop,4268,48.2063642,16.4314824
node/62687115,Gasometer,station,1749,48.1848943,16.4172645
node/62687123,Zippererstraße,station,399,48.1802494,16.4119574
node/62823649,Schwechat,stop,1,48.1436991,16.4814189
node/62823673,Flughafen Wien,station,Fws,48.1202259,16.5642737
node/66416096,Mödling,stop,2,48.085797,16.2957196
node/66419427,Brunn-Maria Enzersdorf,stop,1,48.1052392,16.2880601
node/66422799,Wien Liesing,stop,1,48.1348573,16.2841121
node/66425346,Wien Atzgersdorf,stop,2,48.1469923,16.2884941
node/66428940,Wien Hetzendorf,stop,2,48.1668339,16.3154916
node/66432827,Wien Meidling,station,Mi,48.1745297,16.3339652
node/66444419,Wien Rennweg,stop,2,48.1953006,16.3861557
node/66450715,Wien Praterstern,stop,2,48.219007,16.3921117
node/66488892,Längenfeldgasse,stop,4438,48.1848782,16.3349876
node/67029576,Leopoldau,station,769,48.277582,16.4520703
node/68187430,Donauspital,stop,4271,48.2193666,16.4666304
node/68187437,Aspernstraße,stop,4272,48.222548,16.475
node/69389284,Donaustadtbrücke,stop,4267,48.2117911,16.4401871
node/69391819,Stadlau,stop,4269,48.2197134,16.4496137
node/69393189,Hardeggasse,stop,4270,48.2208341,16.4577325
node/69461745,Landstraße,stop,4412,48.2069463,16.3847566
node/69468988,Rochusgasse,station,1104,48.2020946,16.3922629
node/69472524,Erdberg,stop,4900,48.1914764,16.4141827
node/69484904,Enkplatz,station,425,48.1747314,16.4147471
node/69503159,Hütteldorfer Straße,stop,4928,48.2001366,16.3111176
node/69505153,Kendlerstraße,stop,4929,48.2045551,16.3092307
node/69556621,Kettenbrückengasse,stop,4418,48.1966434,16.3580535
node/69577600,Ober St. Veit,stop,4434,48.1922537,16.276166
node/71796548,Lanzenkirchen,station,Kw,47.7506141,16.2422367
node/72820174,Wörschach Schwefelbad,stop,1,47.5455358,14.1398049
node/73220148,Tullnerbach-Pressbaum,station,Pm,48.1860742,16.0932817
node/73222928,Purkersdorf Sanatorium,stop,1,48.2063619,16.2013545
node/73222939,Wien Weidlingau,stop,1,48.2104467,16.2122062
node/73222944,Wien Hadersdorf,stop,1,48.2103079,16.2231208
node/73222953,Wien Wolf in der Au,stop,1,48.2047906,16.2361405
node/76479566,Wankham,halt,Wankham b.Attnang,47.9975554,13.73077
node/78346237,Wien Meidling,stop,6,48.1743974,16.3340527
node/78547401,Neckenmarkt-Horitschon,station,Nm,47.5913871,16.5470437
node/78564114,Lackenbach,station,Lch,47.585697,16.4758246
node/78564360,Markt St. Martin,station,Mam,47.5647768,16.4319938
node/78572877,Oberpullendorf,station,Opu,47.4962125,16.5047449
node/83365393,Lähn,stop,1,47.419755,10.8334851
node/86763799,Hötzelsdorf-Geras,stop,2,48.7423477,15.6703236
node/86791769,Hausleiten,stop,2,48.391258,16.1073625
node/87015765,Dorfgastein,station,Dg,47.2385176,13.1032205
node/88986768,Riedau,station,Ri,48.3046907,13.6268718
node/92339823,Handelskai,stop,4648,48.2418629,16.3856478
node/97812422,Bad Erlach,stop,2,47.7312386,16.2111387
node/98393834,Wien Kaiserebersdorf,stop,2,48.1461591,16.465509
node/105411815,Heiligenstadt,stop,4435,48.2481432,16.3656339
node/108064961,St. Georgen bei Salzburg,stop,1,47.9902156,12.8890691
node/115184107,Kardinal-Nagl-Platz,station,653,48.1975959,16.3998577
node/117527786,Simmering,station,1260,48.1697771,16.4205339
node/125382708,Nickelsdorf,stop,2,47.9428452,17.0862553
node/129973308,Saalfelden,stop,2,47.4268617,12.8298396
node/129973615,Hochfilzen,station,Hch,47.467447,12.6266025
node/129973743,Grieswirt,stop,2,47.5091837,12.4684597
node/129975392,Fürth-Kaprun,stop,,47.2879344,12.7448674
node/129975436,Walchen im Pinzgau,stop,Ps K1,47.2852842,12.6959782
node/129975518,Niedernsill,stop,Nsi,47.2822276,12.6470059
node/129975681,Tischlerhäusl,stop,Tih,47.3079194,12.794069
node/129975686,Kitzsteinhornstraße,stop,Tih H1,47.3019584,12.7941436
node/132305823,Oberalm,stop,1,47.7000023,13.0932053
node/132305827,Puch bei Hallein,stop,1,47.7129833,13.0906416
node/140052877,Spittelau,stop,4627,48.2355771,16.3581013
node/140062525,Wien Mitte,stop,4,48.2055704,16.384576
node/140069854,Landstraße,station,743,48.2057626,16.3856676
node/140177589,Mitterberghütten,stop,1,47.3953114,13.2223388
node/148624755,Bregenz,stop,5,47.5031395,9.7397194
node/148901378,St. Georgen an der Gusen Ort,halt,1,48.27116,14.4509922
node/153632410,Mauthausen,stop,2,48.242922,14.532791
node/157707258,Katsdorf,halt,1,48.3122092,14.4906045
node/157708008,Kefermarkt,stop,1,48.4366182,14.5383975
node/158707691,Garsten,station,Gst,48.023692,14.4083266
node/158714803,Pama / Bijelo Selo,halt,1,48.0420607,17.0413814
node/158721957,Dorf an der Enns,halt,1,48.0912992,14.4730991
node/158868668,Lungitz,station,Lu,48.2886625,14.4783408
node/158869023,St. Georgen an der Gusen,stop,2,48.2652584,14.4407305
node/159416127,Steyregg,stop,2,48.2845439,14.3611614
node/160300956,Gaisruck,halt,Hui H1,48.3940826,16.0648609
node/176745164,Frastanz,station,Fa,47.22005,9.6392047
node/181317489,Tauplitz,station,Ku,47.5516494,14.0103576
node/181317500,Bad Mitterndorf,station,Bam,47.5503903,13.9451996
node/181317543,Kainisch,station,Kai,47.5698431,13.8426875
node/181317612,Bad Aussee,station,Au,47.599096,13.7767752
node/181317711,Obertraun Dachsteinhöhlen,station,Oa,47.557497,13.6837405
node/181317730,Hallstatt,halt,Oa H1,47.5676058,13.6620238
node/181317797,Steeg-Gosau,station,Stg,47.6163952,13.6318704
node/181317824,Bad Goisern,stop,1,47.6397689,13.612983
node/181317895,Bad Ischl,stop,,47.7121443,13.6275442
node/181318011,Ebensee Landungsplatz,halt,En H1,47.812323,13.7750203
node/181318049,Traunkirchen,station,Tk,47.8552628,13.7771341
node/181318089,Altmünster,station,Er,47.8912986,13.758227
node/185427975,Mistelbach,stop,2,48.5658694,16.5642778
node/185427978,Mistelbach Stadt,halt,1,48.570976,16.5688841
node/185525275,Schwarzach in Vorarlberg,stop,1,47.4460641,9.7543932
node/185525285,Dornbirn,station,Do,47.4175843,9.7386692
node/193651075,Petronell-Carnuntum,stop,2,48.1059785,16.8679969
node/194647771,Wien Blumental,stop,1,48.1395855,16.3696314
node/197446214,Helmahof,stop,2,48.3103784,16.5974175
node/197450759,Strasshof,stop,2,48.3184635,16.6339528
node/197468326,Gerasdorf,stop,2,48.2937029,16.4839919
node/197486884,Fischamend,stop,1,48.1166186,16.6151438
node/197490140,Maria Ellend,stop,2,48.1098633,16.6885024
node/197515073,Wien Erzherzog-Karl-Straße,stop,3,48.2300245,16.4535268
node/197542888,Wien Nußdorf,stop,2,48.2602622,16.3676943
node/197547316,Klosterneuburg Weidling,stop,2,48.2975753,16.3346236
node/197553474,Wien Oberdöbling,stop,2,48.2440961,16.3440157
node/197554283,Wien Krottenbachstraße,stop,2,48.2400788,16.3405938
node/197612700,Wien Praterkai,stop,1,48.1996897,16.4412719
node/197971416,Wien Leopoldau,stop,2,48.2771187,16.4477673
node/206095788,Nenzing,halt,Lt K1,47.1915677,9.7082842
node/206095800,Ludesch,station,Lt,47.180298,9.7712351
node/206097409,Imst-Pitztal,stop,1,47.2191334,10.7614744
node/206106928,Stams,stop,3,47.2818917,10.9794769
node/206113276,Köstendorf Weng,stop,1,47.9364,13.1751286
node/206113985,Pöndorf,halt,Fm H1,47.9866056,13.3559206
node/206114734,Vöcklamarkt,station,Vm,47.9980061,13.489446
node/211252807,Ladendorf,stop,2,48.5360298,16.5099672
node/211252853,Neubau-Kreuzstetten,stop,2,48.4973199,16.5007089
node/211252890,Hautzendorf,halt,1,48.4508029,16.492812
node/212784493,Langenlebarn,stop,2,48.3275522,16.1218649
node/215682892,Linz Hauptbahnhof,station,Lz,48.2902408,14.2918619
node/240129157,Serfaus Kirche,stop,,47.0382269,10.608404
node/240129222,Serfaus Zentrum,stop,,47.0386713,10.6050791
node/240129620,Serfaus Seilbahn,stop,,47.0405818,10.597647
node/242917962,St. Ruprecht an der Raab,halt,Sru,47.1516783,15.6680329
node/245690510,Göllersdorf,stop,1,48.4921598,16.1268991
node/245788989,Matrei am Brenner,station,Mei,47.1271389,11.4528221
node/245789006,Steinach am Brenner,station,Sti,47.0894547,11.4698741
node/247370131,Schrambach,stop,1,48.0020739,15.5753897
node/247482878,Zirl,station,Zl,47.2658927,11.2298392
node/247629312,Klagenfurt Hauptbahnhof,stop,1,46.6157887,14.3136982
node/247629819,Krumpendorf,stop,1,46.6264661,14.2218477
node/247632548,Villach Seebach,stop,1,46.6209284,13.8739748
node/247633413,Töschling,halt,2,46.6331969,14.1111542
node/247633673,Pritschitz,stop,2,46.6279678,14.1708565
node/248059805,Kindberg,station,Ki,47.5011743,15.448375
node/248061440,Mürzzuschlag,station,Mz,47.6079138,15.6772482
node/248064880,Semmering,station,Sem,47.6395943,15.8308831
node/248072080,Wolfsbergkogel,stop,2,47.6496105,15.8270757
node/248072578,Bruck an der Mur,stop,4,47.4138721,15.2794411
node/248110050,Furth-Göttweig,halt,1,48.3732327,15.6158138
node/248110190,Paudorf,stop,2,48.3516437,15.615791
node/248494576,St. Georgen am Steinfelde,halt,1,48.1376283,15.6144285
node/248790465,Traiskirchen Aspangbahn,stop,2,48.0179202,16.3034028
node/248790922,Eigenheimsiedlung,stop,,48.0396976,16.3041699
node/248790940,Guntramsdorf Lokalbahn,stop,,48.0486776,16.3122823
node/248790966,Neu Guntramsdorf,stop,,48.0639193,16.3136814
node/248791017,Wien Neu Erlaa,stop,,48.1405668,16.3280121
node/248791444,Wien Schöpfwerk,stop,2,48.163896,16.3308958
node/248792256,Baden Viadukt,stop,,48.0038307,16.2408063
node/248826603,Seyring,stop,2,48.3305234,16.5017956
node/249428878,Hainfeld,stop,2,48.0397532,15.7677247
node/250662967,Zeiselmauer-Königstetten,stop,2,48.3266409,16.175012
node/250736753,Muckendorf-Wipfing,stop,2,48.3283048,16.1500786
node/250736970,Tulln an der Donau,stop,3,48.3274244,16.0647862
node/250737014,Tulln Stadt,stop,2,48.3284275,16.0540419
node/251337936,Gletscher Shuttle,station,,47.1910888,12.6832794
node/251337937,Gletscher Shuttle,station,,47.1891315,12.6847776
node/252499750,Sierndorf an der March,stop,1,48.5113517,16.8911244
node/252659115,Mötz,stop,2,47.2756371,10.96061
node/253330602,Gmünd NÖ,station,Gm,48.7642168,14.9845125
node/253618628,Rosenbach,stop,3,46.5305523,14.0350293
node/253620181,Faak am See,stop,1,46.5642594,13.9115325
node/253627992,Gödersdorf,stop,1,46.5685218,13.8472022
node/253628071,Villach Warmbad,stop,2,46.5888494,13.8286883
node/253636713,Villach Westbahnhof,stop,1,46.6082533,13.8403256
node/253636715,Villach Westbahnhof,station,Vf,46.6091891,13.8405917
node/253636796,Villach Hauptbahnhof,stop,4,46.6186517,13.8484676
node/253674147,Ferndorf,stop,2,46.7326452,13.6289118
node/253675111,Spittal-Millstättersee,stop,4,46.7957318,13.4875151
node/253688011,Mühldorf-Möllbrücke,halt,1,46.8515541,13.3669051
node/254037081,Puchenau,halt,Uf H1,48.3116472,14.2385636
node/254073098,Gols,station,Go,47.8916965,16.9050407
node/255089252,Dornach bei Grein,halt,1,48.1918379,14.8201271
node/255938940,Rotunde,stop,,48.2094208,16.4077821
node/255938968,Stadion,halt,,48.2056302,16.4148749
node/256074989,Taxenbach-Rauris,station,Ta,47.2927877,12.9468091
node/256079576,Schwarzach-St. Veit,stop,2,47.3186082,13.1547632
node/256121745,Arnoldstein,stop,2,46.5514879,13.7075848
node/256123435,Neuhaus an der Gail,stop,1,46.5549738,13.7796072
node/256300446,Silz,stop,2,47.2702017,10.9369417
node/256328228,Zellerndorf,stop,2,48.6952405,15.9682061
node/256755541,Graz Wetzelsdorf,halt,1,47.0508681,15.4016522
node/256755544,Graz Webling,halt,1,47.0325602,15.4058858
node/256755554,Graz Straßgang,stop,2,47.0199023,15.4054383
node/256755569,Premstätten-Tobelbad,stop,1,46.979358,15.391012
node/257309265,Hatting,halt,Zl H2,47.2812855,11.1705606
node/259455509,Rufling,halt,,48.2732572,14.2195606
node/259485256,Enzersdorf bei Staatz,stop,1,48.6728275,16.5108886
node/261227970,Schloß Haus,halt,1,48.3415408,14.5054959
node/262051039,Dürnberg bei Ottensheim,halt,Puw H1,48.3314363,14.1924777
node/263383953,Paasdorf,halt,1,48.5467241,16.5351871
node/264120473,Lembergweg,halt,,47.9174271,13.8184212
node/264154993,Oberhofen im Inntal,stop,2,47.3020182,11.0955272
node/264159175,Lochau-Hörbranz,station,Lc,47.5294472,9.7424558
node/264773275,St. Margrethen SG,stop,,47.4533314,9.6383107
node/265075495,Neumarkt am Wallersee,stop,1,47.9555292,13.2256948
node/265607608,Steyr,station,Stb,48.0384285,14.4234498
node/265607788,Steyr Münichholz,halt,1,48.0478452,14.4493724
node/266161366,Pergern,station,,48.0494028,14.3568264
node/266639438,Kohlebahnhof Scheiben,station,,48.1362442,13.6340724
node/266916718,St.Marein-St.Lorenzen,station,Mas,47.473199,15.3731231
node/267118882,Axamer Lizum,station,,47.1938626,11.3028631
node/267118896,Hoadl,station,,47.1831778,11.2822346
node/267218630,Hörersdorf,halt,1,48.6200619,16.516664
node/267605917,Staatz,halt,1,48.6997113,16.4930277
node/267993496,Herzograd,halt,1,48.1613129,14.5033872
node/267993504,St. Valentin,station,Sv,48.1789148,14.5219995
node/268560472,Treibach-Althofen,stop,2,46.8685519,14.4654681
node/269261887,Unterhimmel-Christkindl,stop,,48.0399443,14.3937711
node/269973053,Gisingen,halt,1,47.2554981,9.5979172
node/270185697,Krems Campus-Kunstmeile,halt,1,48.4074819,15.5862716
node/270185745,Stein-Mautern,station,,48.399412,15.5720601
node/270272386,Prater Hauptbahnhof,halt,,48.2154036,16.3966662
node/270534452,Höbersdorf,halt,1,48.4484276,16.1731283
node/271308242,Lebring,stop,2,46.8557481,15.5320441
node/271319228,Wels Lokalbahn,station,Wl,48.1564625,14.0173783
node/271340790,Gleisdorf,station,Gld,47.0993691,15.7088704
node/271406315,Laßnitzhöhe,station,Lah,47.0789224,15.5884382
node/271767480,Geras-Kottaun,halt,1,48.8072821,15.6687311
node/272068539,Kaindorf an der Sulm,stop,2,46.8021303,15.5424289
node/272657452,Niederhofstraße,stop,4613,48.1807754,16.3310652
node/273992347,Tallesbrunn,stop,1,48.3638291,16.786545
node/274081872,Schauersberg,halt,1,48.1359369,14.00867
node/274082072,Großendorf,halt,1,48.0387833,14.0557202
node/274082124,Voitsdorf,stop,1,48.0124396,14.0470692
node/274082151,Wilfling,halt,1,47.9805245,14.0290685
node/274082339,Kothmühle,halt,1,47.8867576,13.9406893
node/274883728,Tisis,halt,1,47.2272577,9.5757053
node/274890610,Altenstadt (Feldkirch),halt,1,47.2564475,9.6152092
node/275808921,Altstadt,station,,47.2710038,11.3953964
node/275810487,Hungerburg,station,,47.2862294,11.4001718
node/276022410,Pflach,halt,1,47.5138902,10.7181668
node/276624996,Ottensheim,station,Ott,48.3378225,14.1771405
node/276625040,Walding,halt,Ott H1,48.3484331,14.1535605
node/276639628,Rankweil,station,Rk,47.2719584,9.6375993
node/276933896,Bad Neusiedl am See,station,Bns,47.9428524,16.8443241
node/277401532,ORF Tirol,halt,,47.275214,11.397157
node/277402873,Alpenzoo,halt,,47.2823149,11.400616
node/277694976,Ehrwald-Zugspitzbahn,station,Eh,47.4095595,10.9135899
node/277756229,Mönchhof-Halbturn,station,Mhf,47.8747587,16.9468505
node/278326216,Summerau,station,Smr,48.557345,14.4488515
node/278334594,Ebenfurth,stop,2,47.8776659,16.3623565
node/278439061,Bad Deutsch Altenburg,stop,2,48.13312,16.9108375
node/279108098,Götzis,station,Got,47.3366509,9.6366867
node/279108099,Altach,stop,2,47.3523661,9.6617236
node/279108101,Hatlerdorf,stop,1,47.3986514,9.7248679
node/279108102,Dornbirn Schoren,halt,Hos H2,47.4132022,9.7267426
node/279108103,Haselstauden (Dornbirn),halt,Do H1,47.4327786,9.7492612
node/279161875,St. Pölten Alpenbahnhof,stop,3,48.1984122,15.6130186
node/279162096,Klangen,station,Klg,48.1200588,15.5411759
node/279162120,Weinburg,halt,Klg H1,48.1124762,15.5352557
node/279162132,Kammerhof,halt,Klg H2,48.10473,15.5303484
node/279162153,Hofstetten-Grünau,station,Hog,48.0965812,15.5076006
node/279162233,Rabenstein,station,Rab,48.0682021,15.4661226
node/279162286,Steinklamm,halt,Rab H1,48.0534535,15.456765
node/279162333,Steinschal-Tradigist,halt,,48.0403568,15.4514828
node/279345055,St. Wolfgang Schafbergbf,station,Sws,47.7394221,13.4398094
node/279345281,Schafbergalm,station,Sa,47.7698606,13.4221474
node/279345342,Schafbergspitze,station,Sbg,47.7751286,13.4339947
node/279676014,Weiden am See,halt,Wds,47.92575,16.8638063
node/279717552,Leibnitz,station,Lei,46.7799189,15.5473459
node/280345077,Feldkirch Amberg,halt,Fk H1,47.2557281,9.6217113
node/280406389,Salzburg Süd,stop,1,47.7699524,13.0784778
node/280977694,Furth-Palt,stop,2,48.3846258,15.605771
node/280991073,Kirchberg an der Pielach,station,,48.0242644,15.4327817
node/280995782,Schwarzenbach an der Pielach,station,2,47.9951836,15.3539753
node/280996040,Frankenfels,station,,47.9820137,15.3221449
node/280996218,Boding,halt,,47.9635844,15.2972425
node/280996488,Winterbach,station,,47.9512312,15.2751506
node/280996612,Puchenstuben,halt,,47.9305585,15.2907
node/280996772,Gösing,station,,47.8883387,15.2819453
node/280996975,Annaberg-Reith,station,,47.8652584,15.3106975
node/280997116,Wienerbruck-Josefsberg,stop,,47.8564733,15.3072868
node/280997304,Erlaufklause,halt,,47.8326719,15.2836887
node/280997425,Mitterbach am Erlaufsee,station,Mit,47.8131203,15.2968423
node/280997536,Mariazell,stop,,47.7831596,15.3074474
node/281519668,Wolfurt,station,Wo,47.4570856,9.7411198
node/281519683,Klaus in Vorarlberg,halt,Rk K1,47.3085927,9.6244667
node/281519693,Schlins-Beschling,stop,1,47.1948527,9.6905532
node/281864940,Pettenbach,stop,1,47.9621642,14.0116651
node/281873175,Wiener Neudorf,stop,,48.0873144,16.3139911
node/282294550,Puchenau West,station,Puw,48.3125132,14.2224349
node/282298795,Rottenegg,station,Rog,48.3600564,14.1376726
node/282314284,Lacken im Mühlkreis,halt,Rog H1,48.3858893,14.0914033
node/282315403,Gerling OÖ,halt,Rog H2,48.3972899,14.0770793
node/282329885,Neuhaus-Niederwaldkirchen,stop,2,48.4420041,14.0514982
node/282329892,Neuhaus-Niederwaldkirchen,station,Nen,48.4419697,14.0515123
node/282331806,Kleinzell im Mühlkreis,halt,Nen H1,48.4581699,14.0320486
node/282332919,Neufelden,station,2,48.4838699,14.0051139
node/282338355,Iglmühle,halt,Nef H2,48.5205428,14.0364139
node/282341681,Haslach,stop,1,48.5544522,14.0308879
node/282344603,Rohrbach-Berg,stop,,48.5820144,13.98702
node/282348652,Oepping,halt,Oep,48.59979,13.9605319
node/282348962,Schlägl,halt,Oep H1,48.6365628,13.9754309
node/282349016,Aigen-Schlägl,stop,Ai,48.6425764,13.9750474
node/282894553,Gumpoldskirchen,stop,2,48.0411214,16.2851513
node/286389462,Völs,station,Vl,47.2557573,11.3213632
node/286389968,Kematen in Tirol,halt,Vl K1,47.2612402,11.2765164
node/286392419,Telfs-Pfaffenhofen,station,Ts,47.300664,11.0786465
node/286393220,Rietz,stop,2,47.2920422,11.0240887
node/286393769,Haiming,stop,2,47.2528788,10.8895509
node/286393774,Ötztal,stop,3,47.2386413,10.8595487
node/286416320,Leogang-Steinberge,stop,2,47.4451027,12.768535
node/286537363,Krottendorf-Ligist,station,Kro,47.0099101,15.2142649
node/286537641,Gaisfeld,halt,1,47.0211915,15.1980638
node/286793660,Deutschlandsberg Stadt,stop,1,46.8188876,15.2184681
node/286868518,Achleitnersiedlung,halt,Puw H1A,48.3215751,14.2055822
node/286883129,Vordernberg Markt,halt,Vr,47.4857938,14.9945609
node/286906025,Bad Waltersdorf,halt,Seb H1,47.1701629,16.0137747
node/286906067,Bad Blumau,halt,Seb H3,47.1231301,16.0567701
node/286906126,Fürstenfeld,stop,,47.0418239,16.083948
node/286906163,Söchau,stop,,47.0287082,16.0137475
node/286906283,Hatzendorf,halt,Sou H2,46.9790857,16.0035461
node/286918824,Sebersdorf,stop,,47.188883,15.9990205
node/287080900,Rohr an der Raab,halt,Stu H1,46.9763478,15.8124269
node/287084807,Feldbach,stop,,46.9585655,15.8892755
node/287377957,Greifenstein-Altenberg,stop,2,48.3448664,16.2397557
node/287381398,Jennersdorf,stop,Jd,46.9350164,16.1393463
node/287439202,Feldbach Landesbahn,station,Fb Z9,46.9493077,15.8967035
node/287642288,St. Johann in der Haide,halt,Jh,47.2804179,16.0354165
node/287642446,Hartberg,stop,Har,47.2812429,15.9850192
node/288015421,Leonding,stop,2,48.2740574,14.2544227
node/288208954,Sonnenburgerhof/Tirol Panorama,stop,,47.2463797,11.3935913
node/288209223,Mutters Kreith,stop,,47.2025636,11.3808913
node/288209470,Fulpmes,stop,,47.1556197,11.3524154
node/288519081,Obereggendorf,station,Ed,47.8496331,16.2966778
node/288968164,Mutters,stop,2,47.2287275,11.3785322
node/288980996,Grafendorf bei Hartberg,stop,,47.3467053,16.0035557
node/288986050,Dechantskirchen,halt,1,47.4187258,16.0221941
node/289009692,Übersbach,halt,Fue H1,47.02686,16.0537656
node/289077599,Riedenburg,stop,2,47.4934904,9.721305
node/289555376,Pinggau Markt,halt,1,47.440552,16.0610882
node/290044727,Asten-Fisching,stop,2,48.2272924,14.4277313
node/290166450,Rosenschau,halt,,48.2386584,16.417609
node/290170501,Donauturm,halt,,48.2400427,16.4089593
node/290338629,St. Michael,stop,3,47.3466245,15.0091216
node/290596389,Drösing,stop,2,48.539903,16.8956904
node/290857575,Kapfenberg,stop,1,47.4453016,15.2926121
node/292256615,Zissersdorf,stop,1,48.828019,15.6312262
node/292257670,Langau,stop,1,48.8252256,15.7183756
node/292371085,Siebenhirten,halt,1,48.6110733,16.5319555
node/292371635,Frättingsdorf,stop,2,48.642652,16.5133399
node/292372662,Kottingneusiedl,halt,1,48.7033915,16.4649685
node/292373510,Laa an der Thaya,stop,1,48.7236175,16.4027792
node/292636320,Loosdorf,stop,2,48.1948655,15.4049557
node/292716301,Zell an der Pram,halt,Ri H1,48.3173282,13.6240264
node/292890480,Bregenz Hafen,stop,1,47.5062833,9.7485068
node/293435586,Bernhardsthal,stop,1,48.6880098,16.8790069
node/293728794,Natters Hölltal,stop,,47.2385678,11.384566
node/293733127,Telfes Telfer Wiesen,stop,,47.1891948,11.3859781
node/293733626,Telfes Luimes,stop,,47.1729456,11.367359
node/293771758,Niederkreuzstetten,halt,1,48.4777901,16.47973
node/293865469,Weißenkirchen i.d. Wachau,station,,48.3984332,15.4731422
node/294066972,Schönfeld-Lassee,stop,2,48.2511689,16.8072473
node/294194764,Sitzenberg-Reidling,halt,1,48.332205,15.8187038
node/294545759,Laxenburg-Biedermannsdorf,stop,2,48.0776684,16.3570271
node/294590552,Greinsfurth,halt,1,48.1079326,14.8385363
node/294590602,Ulmerfeld-Hausmening,stop,2,48.0749002,14.8156769
node/294590733,Kröllendorf,halt,1,48.0426848,14.7889894
node/294590784,Hilm-Kematen,stop,2,48.0225314,14.761941
node/294590874,Rosenau,halt,1,48.0106008,14.7418348
node/294590963,Sonntagberg,halt,1,47.9920842,14.7382482
node/294591008,Böhlerwerk,halt,1,47.9831698,14.7540828
node/294591073,Waidhofen an der Ybbs,stop,2,47.9684922,14.7645926
node/294591152,Stadt Waidhofen an der Ybbs,halt,1,47.9585553,14.7679049
node/294651209,Weitlanbrunn,halt,1,46.7425177,12.3955146
node/294651227,Tassenbach,halt,1,46.7468222,12.4657241
node/294719695,Imsterberg,halt,1,47.2112114,10.7058973
node/295144895,Weiz Preding,stop,,47.2013407,15.6478275
node/295144908,Weiz Bahnhof,stop,Wez,47.2148798,15.6301275
node/295149883,Birkfeld,station,,47.3529562,15.6981653
node/295254828,Oberfeistritz,station,,47.2610397,15.714401
node/295342952,Eisenstadt Schule,halt,1,47.8438041,16.5365073
node/295690616,Ulrichskirchen,halt,1,48.4020962,16.4881085
node/295731173,Maria Anzbach,stop,1,48.1869072,15.9372923
node/296098484,Waidhofen an der Ybbs,stop,,47.9683,14.7660837
node/296098541,Waidhofen/Ybbs Kupferschmiedgasse,halt,1,47.9608174,14.7711917
node/296099482,Waidhofen/Ybbs Schillerpark,halt,1,47.9573521,14.7740202
node/296099517,Waidhofen/Ybbs Vogelsang,halt,1,47.9514488,14.7869958
node/297428922,Ehrenhausen,halt,1,46.7276762,15.5855202
node/297644536,Lieboch,stop,1,46.9687005,15.3452998
node/298956227,Steindorf am Ossiacher See,stop,2,46.6983159,14.0143939
node/299059177,Feldkirchen in Kärnten,stop,2,46.7214997,14.0997638
node/299082161,Tiffen,halt,1,46.7014707,14.0602251
node/299127138,Ossiach-Bodensdorf,stop,2,46.6826314,13.9742704
node/299187146,Sattendorf,stop,2,46.6628455,13.9169093
node/299230715,Judendorf-Straßengel,stop,1,47.1184939,15.3438317
node/299390247,St. Veit a. d. Glan,stop,3,46.770594,14.367183
node/299390284,St. Veit a. d. Glan West,stop,1,46.7626024,14.3620424
node/299400312,Kraubath,station,Kra,47.3059545,14.9454861
node/299623767,Fentsch-St.Lorenzen,stop,1,47.2517475,14.8925067
node/299633273,Knittelfeld,stop,2,47.2153157,14.8376129
node/299664673,Lind-Rosegg,halt,2,46.6061168,14.0005984
node/299665771,Velden am Wörthersee,stop,2,46.6201267,14.0448003
node/299666850,Föderlach,stop,2,46.6021239,13.9592378
node/299882213,Glandorf,stop,1,46.7504626,14.381228
node/299882367,Maria Saal,stop,2,46.6827689,14.3392068
node/300148472,Mining,stop,,48.2712555,13.1715137
node/300930229,Bad Radkersburg,station,Ra,46.6994737,15.9933746
node/300930261,Lichendorf,halt,Sd H2,46.7139065,15.6983238
node/300930283,Mureck,stop,2,46.7113448,15.771311
node/300930336,Purkla,stop,Gof H3,46.7315783,15.9032457
node/300930357,Halbenrain,station,1,46.7237963,15.9489689
node/301327015,Heidenreichstein,station,,48.8647097,15.1174699
node/301708452,Feldkirchen-Seiersberg,stop,1,47.0124246,15.4406229
node/301922829,Kappel am Krappfeld,stop,2,46.8378112,14.4754379
node/301922830,Passering,stop,2,46.8068204,14.469636
node/301922831,St. Georgen am Längsee,stop,1,46.761856,14.4235243
node/302097253,Salzburg Hauptbahnhof,station,Sb,47.8130618,13.045853
node/302239145,Neumarkt in Steiermark,stop,2,47.0735533,14.4146939
node/302313571,Straßwalchen,stop,3,47.9721152,13.26429
node/302314198,Neukirchen-Gampern,stop,Tm H1,48.0202367,13.5497701
node/302314715,Schwanenstadt,station,Sas,48.0535683,13.7672167
node/302347196,Zeltweg,station,Zg,47.190057,14.7499716
node/302436476,Mariahof-St. Lambrecht,stop,2,47.1061662,14.3728436
node/302464586,St. Georgen ob Judenburg,stop,2,47.212194,14.4990324
node/302464587,Thalheim-Pöls,station,Tel,47.1966494,14.5892831
node/302467551,Judenburg,station,Jg,47.1749706,14.6626045
node/302735255,Wildungsmauer,halt,1,48.1080027,16.8020704
node/303394583,Pörtschach am Wörthersee,station,Pow,46.636199,14.1463439
node/304177046,St. Andrä am Zicksee,station,Saz,47.7828211,16.9279393
node/304326067,St. Aegyd am Neuwalde Eisenwerk,stop,Sae,47.8590138,15.5827638
node/306092313,Werndorf,stop,2,46.9163031,15.476866
node/307065845,Graz Hauptbahnhof,stop,7,47.0723446,15.4161069
node/307067332,Söding-Mooskirchen,station,Smk,46.9966209,15.2828496
node/307503613,Möllersdorf,stop,,48.0278094,16.3001198
node/307654813,Lieboch Schadendorf,halt,1,46.9794608,15.3177352
node/308212771,Arnsdorf,stop,,47.9693567,12.9348965
node/308212783,Oberndorf Ziegelhaiden,stop,,47.953345,12.9426198
node/308213582,Oberndorf-Laufen,stop,1,47.937947,12.9422565
node/308213591,Oberndorf Oichtensiedlung,stop,OICH,47.9328121,12.9521706
node/308213647,Anthering,stop,,47.8790771,13.000944
node/308222462,Zehmemoos,stop,,47.9894869,12.9374314
node/308966927,Pamhagen,station,Pam,47.7040849,16.9034574
node/308990209,Brunn an der Pitten,halt,1,47.7225572,16.1884357
node/309179140,Anglerparadies Hessendorf,halt,1,48.8128411,15.7427923
node/309219325,Alling-Tobisegg,halt,1,46.8819446,15.3728647
node/309235864,Oisnitz-St. Josef,halt,1,46.9155015,15.3544681
node/309649845,St. Peter-Seitenstetten,stop,2,48.0548677,14.645431
node/310073478,St. Johann im Rosental,stop,1,46.5285527,14.2143161
node/310507988,Baumgarten-Schattendorf,station,Bgt,47.7278099,16.5176658
node/310507989,Draßburg,halt,Wul H1,47.7478838,16.4949425
node/310508282,Müllendorf,station,Mld,47.8347093,16.4591033
node/310908328,Ausschlag-Zöbern,stop,2,47.5331245,16.083252
node/312396651,Saffen,halt,1,48.0216899,15.152521
node/312396690,Sölling,halt,1,48.0390128,15.1403569
node/312396793,Petzenkirchen,halt,1,48.1435788,15.1571239
node/312399758,St. Martin-Sittich,stop,1,46.7321838,14.1526024
node/312399806,Mautbrücken,halt,1,46.7215879,14.1890144
node/312399844,Glanegg,stop,2,46.7175925,14.2113135
node/312399877,Tauchendorf-Haidensee,halt,1,46.7284027,14.2368831
node/313218581,Melk,stop,2,48.2246777,15.3307968
node/313590395,Scharnstein-Mühldorf,stop,1,47.9004456,13.9586565
node/313609740,Viechtwang,halt,Viw,47.9156787,13.9713753
node/314137117,Patsch,halt,I H2,47.1931956,11.4165558
node/314553014,Wald im Pinzgau,station,Wap,47.2437466,12.2279696
node/314553084,Krimml,station,Krl,47.2346007,12.1964004
node/314555971,Rosental,stop,Ner H2,47.2436089,12.245163
node/314556074,Neukirchen,stop,Ner,47.2510943,12.2821769
node/314559544,Bramberg,station,Bbg,47.2696893,12.3446062
node/314566710,Dorf-Pass Thurn,station,Dpt,47.2772859,12.3885788
node/314566769,Hollersbach i. P. Bahnhof,halt,Hba,47.2784101,12.4158128
node/314580713,Mittersill Bahnhof,stop,2,47.2836281,12.4810783
node/314580741,Burk,stop,Brk,47.2852543,12.4977562
node/314580920,Pirtendorf,stop,Ptd,47.2848682,12.5447285
node/314733686,Bad Fischau-Brunn,station,Fib,47.8266887,16.1732429
node/314741363,Winzendorf,stop,1,47.8110619,16.1115769
node/315111042,Frauenkirchen,station,Frk,47.8398647,16.9158115
node/315517798,Klagenfurt Süd,halt,1,46.6109032,14.3022568
node/316217758,Braunau am Inn,stop,2,48.2591072,13.0481227
node/316936985,Altenhof,halt,1,48.5441829,15.6858856
node/316937087,Buchberg am Kamp,halt,1,48.5759832,15.6588177
node/316937157,Gars-Thunau,stop,2,48.5974908,15.6550706
node/317259822,Hütteldorf,stop,4436,48.1970325,16.2608774
node/317367609,Dörnbach-Hitzing,station,,48.2715821,14.2019995
node/317379347,Köttmannsdorf Lambichl,halt,1,46.5800532,14.2828271
node/317986663,Leonding Straßfeld,halt,,48.2746472,14.245827
node/317986664,Bergham,stop,,48.274283,14.2412888
node/318151598,Bad Gastein,stop,2,47.1117531,13.1320052
node/319346822,Pfennigbach,halt,1,47.7957085,15.9238885
node/319346866,Grünbach Kohlenwerk,halt,1,47.7981564,15.9718582
node/319346880,Grünbach Schule,halt,1,47.8014149,15.9814888
node/319346952,Unter Höflein,halt,1,47.7906602,16.0330228
node/319346987,Rothengrub,halt,1,47.7892019,16.0510712
node/319347015,Willendorf,stop,2,47.7892725,16.0606023
node/319347043,Urschendorf,halt,1,47.7974734,16.0901992
node/319351630,Eichberg,station,Eib,47.6721752,15.9110463
node/319424738,Haaberg,halt,,47.7046357,15.8238357
node/319453723,Heiterwang-Plansee,stop,1,47.4422829,10.7484693
node/320189429,Stadl-Paura,station,Stp,48.0844134,13.8833995
node/320190627,Steinfeld,halt,,48.0617161,13.9051758
node/321109326,Laizing,halt,,47.9639853,13.8922413
node/321109330,Kirchham bei Vorchdorf Sportplatz,halt,,47.9676838,13.8946263
node/321109370,Vorchdorf Schloss Eggenberg,halt,,47.9941175,13.9182045
node/321109392,Feldham,halt,,48.014627,13.9124702
node/321109400,Kößlwang,halt,,48.0229753,13.9087846
node/321109408,Waldl,halt,,48.027611,13.9077938
node/321330275,Wien Hütteldorf,station,Hf,48.1973277,16.2612741
node/322200155,St. Margarethen - Rammersdorf,halt,,48.1493189,15.5005209
node/322224644,St. Pölten Porschestraße,halt,1,48.1831412,15.6170703
node/322347549,Herzogenburg,stop,3,48.2766095,15.6965209
node/322347642,Traismauer,stop,2,48.3478661,15.7457021
node/322571746,,station,,46.9810598,13.0509318
node/322950412,Ober Grafendorf,station,Ogr,48.1520921,15.5398852
node/323014231,Au,halt,,48.0474376,13.9070768
node/323014245,Mittlere Au,halt,,48.0386782,13.9104577
node/323392338,Rosenburg,halt,1,48.6284391,15.643582
node/324015753,Kreisbach,halt,1,48.1004551,15.6078841
node/324017272,Wilhelmsburg an der Traisen,station,Wm,48.1116918,15.6084476
node/324654719,Reutte in Tirol Schulzentrum,stop,1,47.48975,10.7249929
node/324679297,Asparn,station,,48.5826375,16.4928882
node/324679352,Mistelbach Interspar,halt,,48.5612582,16.5543616
node/324966395,Kammer-Schörfling,halt,Kms,47.9485172,13.5958758
node/324966426,Siebenmühlen-Rosenau,halt,Lng H2,47.9596393,13.6058186
node/324966465,Lenzing Ort,halt,Lng H1,47.9716726,13.6066479
node/324966487,Lenzing,station,Lng,47.9830445,13.6137888
node/324970818,St. Georgen im Attergau,stop,,47.9372361,13.4881344
node/324970874,Kogl,halt,,47.9466815,13.4721725
node/324970980,Schmidham,halt,,47.9729662,13.487362
node/324971010,Walchen,halt,,47.97898,13.4948352
node/324971066,Haid,halt,,47.9884009,13.5013843
node/324971281,Ampflwang,station,,48.0870026,13.5628099
node/325062961,Holzleithen,halt,Otg H2,48.1135701,13.6066442
node/325063009,Bergern,halt,Otg H1,48.1008518,13.6313374
node/325063058,Ottnang-Wolfsegg,station,Otg,48.0921303,13.6649129
node/325063182,Wolfshütte,halt,At H2,48.0529024,13.6815443
node/325063244,Lehen-Altensam,halt,At H1,48.0353873,13.7010252
node/325743426,St. Lorenzen ob Murau,station,Slo,47.1017281,14.0905052
node/326213431,Unter Tullnerbach,stop,2,48.191672,16.1280664
node/326309700,Tamsweg,station,Tam,47.1297914,13.8078876
node/326309735,Tamsweg St. Leonhard,halt,,47.1238825,13.806961
node/327287949,St. Anton am Arlberg,station,Ao,47.1273823,10.2673191
node/327424043,Oberweiden,stop,1,48.3064621,16.833487
node/327483128,Groß Schweinbarth,stop,2,48.4179996,16.6404294
node/327549714,Bockfließ,stop,1,48.3578065,16.6033939
node/327549775,Groß Engersdorf,stop,1,48.3540944,16.5700184
node/327820423,Ried im Innkreis,station,Rd,48.2004605,13.4882935
node/327820787,Oberbrunn,halt,Hs H2,48.1709863,13.5131737
node/328362700,Übelbach,station,Ueb,47.2247941,15.2372517
node/328363564,Prenning,halt,Pg H3A,47.2129198,15.3082199
node/329377949,Bleiburg/Pliberk,stop,2,46.5742117,14.7865224
node/329439138,Traisen,station,Trn,48.0568811,15.6123079
node/329740382,Gniebing,stop,,46.9620511,15.8525014
node/329834160,Vellach-Khünburg,halt,1,46.6313147,13.4081167
node/329834200,Pressegger See,halt,1,46.6315886,13.4367133
node/329834274,Görtschach-Förolach,stop,1,46.6229771,13.4709979
node/332038690,Mödling,stop,1,48.085755,16.2955824
node/332467547,Flughafen Wien,stop,1,48.1202276,16.5645553
node/333184234,Vandans,halt,1,47.098786,9.8687695
node/333221554,Lorüns,halt,1,47.1309945,9.8530088
node/333221656,St. Anton im Montafon,station,Amo,47.1099804,9.8661458
node/333221728,Kaltenbrunnen,halt,1,47.0855346,9.8879147
node/333221788,Tschagguns,halt,1,47.0791372,9.9048325
node/333885002,Achensee Seespitz,station,Ase,47.4258823,11.7296929
node/333885125,Eben in Tirol,stop,,47.4142646,11.7629585
node/333885228,Jenbach Achenseebahn,station,,47.3889938,11.7793332
node/333925099,Jenbach,stop,Z1,47.3879705,11.7777926
node/333925143,Strass im Zillertal,stop,,47.3952998,11.8183601
node/333925222,Gagering,stop,,47.3629495,11.8518399
node/333925300,Uderns im Zillertal,station,Fhz H1,47.3263523,11.8652692
node/333925338,Ried im Zillertal,stop,,47.3030238,11.8731586
node/333975300,Rotholz,halt,1,47.3909003,11.8009259
node/334427618,Straßham-Schönering,halt,,48.28356,14.1481703
node/334453925,Gstocket,halt,,48.3062899,13.9555997
node/334493057,Straß-Emling,halt,,48.2878546,14.0819808
node/334493115,Straßham Wehrgasse,halt,,48.2889112,14.1439458
node/334680003,Schützen Ruster Straße,halt,1,47.851198,16.6300009
node/334718434,Marz-Rohrbach,halt,1,47.717563,16.4288271
node/334854901,Jois,halt,1,47.9566755,16.7912805
node/334871746,Lasberg-St. Oswald,halt,1,48.4608473,14.5217184
node/335019966,Nötsch,stop,1,46.5886612,13.6258642
node/335543267,Oberwaltersdorf,halt,1,47.9751148,16.3283615
node/335544831,Tattendorf,stop,2,47.9555284,16.3059206
node/335546535,Teesdorf,halt,1,47.9425274,16.289696
node/336566126,Baden Leesdorf,halt,,47.9995655,16.2514574
node/336640646,Wolfsberg,stop,2,46.8421156,14.8384945
node/336640714,Wolfsberg Reding,halt,1,46.8252637,14.8459995
node/336640765,St. Stefan im Lavanttal,stop,2,46.8071099,14.8461637
node/336995176,Bad Fischau,halt,1,47.8312684,16.1713471
node/337134389,Miesenbach-Waidmannsfeld,halt,1,47.8775461,16.0055265
node/337136477,Pernitz-Muggendorf,stop,2,47.895767,15.9577718
node/337136516,Ortmann,stop,1,47.8934809,15.9790781
node/337136751,Wopfing,halt,1,47.8736608,16.0768851
node/337136919,Piesting Harzwerk,halt,1,47.8764874,16.1362325
node/337821568,Voitsberg,stop,2,47.0432221,15.1499632
node/337821696,Bärnbach,halt,1,47.055766,15.1298193
node/337863237,Innsbruck Hauptbahnhof,station,I,47.2632966,11.4010207
node/338039039,Enzesfeld-Lindabrunn,stop,1,47.9212665,16.1873652
node/339365066,Rainfeld-Kleinzell,halt,1,48.050606,15.7072292
node/339403530,Stübing,stop,1,47.1775545,15.3225008
node/339793742,Deutsch Wagram,stop,2,48.3028911,16.5636274
node/341212225,St.Marein-St.Lorenzen,stop,2,47.4731676,15.3731583
node/341339483,Obersdorf,stop,2,48.3623658,16.5167622
node/343103545,Elsbethen,stop,1,47.7608968,13.0803883
node/344600522,Ernstbrunn-Thomasl,halt,,48.5306439,16.3855587
node/344965369,Winden am See,halt,1,47.9470056,16.7590652
node/344965777,Breitenbrunn,halt,1,47.9410854,16.7462539
node/344966397,Donnerskirchen,halt,1,47.8885905,16.6604517
node/344968050,Wallern im Burgenland,station,Wal,47.733967,16.9304551
node/348018744,Vösendorf Schönbrunner Allee,stop,,48.1356294,16.3249202
node/348019152,Vösendorf-Siebenhirten,stop,,48.1257834,16.3193188
node/348019297,Vösendorf Shopping City Süd,stop,,48.1116674,16.3154858
node/348265495,Emmersdorf a.d. Donau,station,,48.2429663,15.3374826
node/348266214,Grimsing,halt,,48.2631459,15.3647103
node/348270182,Aggsbach Markt,station,,48.29664,15.4029271
node/348271647,Willendorf i.d. Wachau,halt,,48.3199603,15.4048363
node/348280145,Schwallenbach,halt,,48.3417067,15.4035049
node/348282921,Spitz a.d. Donau,station,,48.3650322,15.4174633
node/348286109,Wösendorf-Joching,halt,,48.3839548,15.4545687
node/355921332,Grünau im Almtal,stop,,47.8536777,13.9516204
node/359586457,Graz Don Bosco,halt,Gdo,47.058361,15.4196762
node/360636014,Weikendorf-Dörfles,stop,1,48.3496285,16.7591094
node/365906003,Perg Schulzentrum,halt,1,48.2424619,14.6407318
node/365918845,Aisthofen,halt,1,48.2574585,14.5901879
node/369140662,Mühlheim,halt,Ath H1,48.2697054,13.2209682
node/369222078,Neuratting,halt,Rd H3,48.2272224,13.3736634
node/369224763,Gurten,station,Gur,48.2433164,13.3349983
node/369871196,Maria Enzersdorf-Südstadt,stop,,48.0962949,16.3146553
node/370767041,Lustenau,stop,2,47.4505944,9.6673569
node/374408549,St. Peter im Sulmtal,halt,1,46.7597567,15.2542931
node/378276206,Traisen Markt,halt,1,48.0399156,15.6117145
node/381070426,St. Urban am Ossiacher See,halt,1,46.6747307,13.9598963
node/384856030,Bad Radkersburg,stop,1,46.6994604,15.9933144
node/385487769,Obertrattnach-Markt Hofkirchen,halt,Gk H1,48.2460694,13.7668394
node/386917802,Friedburg,stop,2,47.9970115,13.2342606
node/386917809,Lengau,halt,Nst H2H,48.0084718,13.219809
node/386917815,Teichstätt,halt,Nst H3H,48.0198494,13.2129673
node/387625076,Geinberg,halt,Gur H1,48.26628,13.2907941
node/387678688,Timelkam,station,Tm,48.008022,13.595856
node/388000380,Obernberg-Altheim,station,Ath,48.2705046,13.2577942
node/388000381,Obernberg-Altheim,stop,,48.2705753,13.2575511
node/388000488,Obernberg-Altheim,stop,,48.2704691,13.2577088
node/388071246,Piesting,stop,2,47.874839,16.1248405
node/388071930,Dreistetten,halt,1,47.8724021,16.1106664
node/388072397,Ober Piesting,stop,2,47.8745409,16.0973798
node/388087107,Dietrichshofen,halt,Ant H1,48.37004,13.4221102
node/388087200,Gopperding,halt,Ant H3,48.440778,13.4582423
node/391572507,Stubaitalbahnhof,stop,,47.253465,11.3976701
node/409185855,Frohnleiten,stop,,47.2663248,15.3270283
node/410623306,Dürnbach,halt,Lf H1,47.9783744,14.3538277
node/410623327,Ternberg,station,Te,47.9491999,14.3549217
node/410710954,Großraming,halt,1,47.88219,14.5512572
node/410869590,Neudorf / Novo Selo,halt,1,48.0088461,16.9382645
node/411058820,Gstatterboden im Nationalpark,stop,1,47.5913658,14.6336062
node/411664219,Untersiebenbrunn,stop,1,48.2480158,16.7489553
node/412467960,Munderfing,station,Mun,48.0735493,13.1798653
node/412467969,Mattighofen,station,Mho,48.1087801,13.1523213
node/412467999,Achenlohe,halt,Nst H4H,48.0458427,13.1978028
node/413987840,Grieskirchen-Gallspach,station,Gk,48.2310808,13.839025
node/415157635,Inzing,halt,Zl H1,47.2777382,11.1991925
node/415159271,Flaurling,stop,2,47.2890723,11.1429539
node/415830671,Innsbruck Hauptbahnhof,stop,31,47.2613844,11.4003456
node/416330626,Pottschach,stop,2,47.6969504,16.0058053
node/416563423,Sulz-Röthis,halt,Rk H1,47.2943453,9.6345507
node/417007466,Zell am See,stop,2,47.3206697,12.7967981
node/417184612,Hirschwang,station,,47.7071195,15.816064
node/417184648,Reichenau,station,,47.6980413,15.8393456
node/417184649,Kurhaus,halt,,47.6992199,15.8457906
node/419610148,Pfaffstätten,station,Bf,48.0181555,16.2588865
node/423361774,Taufkirchen an der Pram,station,Tp,48.4069862,13.5223109
node/423384342,Kumpfmühl,halt,Neu H2,48.2696867,13.6202401
node/423384343,Kimpling,halt,Neu H1,48.2666427,13.6709602
node/423384345,Schlüßlberg,halt,Wa H1,48.2238851,13.868226
node/423384346,Haiding,station,Had,48.2094941,13.9750533
node/424718971,Neulengbach Stadt,stop,1,48.1962797,15.9063852
node/425061282,Dürnstein-Oberloiben,station,Du,48.3933628,15.5251499
node/425064218,Unterloiben,halt,,48.3916488,15.5468216
node/428223657,Gobelsburg,halt,1,48.4624114,15.701615
node/429472709,Etsdorf-Straß,stop,2,48.4530751,15.7305376
node/429474377,Wagram-Grafenegg,halt,1,48.4341962,15.7766214
node/431413415,Kittsee,stop,1,48.0815423,17.0715393
node/435350774,Neunkirchen NÖ,stop,2,47.731574,16.085105
node/439180724,Salzburg Gnigl,stop,1,47.8119408,13.0663829
node/439224353,Stadt Haag,stop,2,48.1157056,14.5660059
node/439363234,Pöchlarn,stop,3,48.2080312,15.2163388
node/441057215,Baumgartner,station,Bau,47.7534728,15.8507477
node/441057217,Hengsthütte,halt,Haz H1,47.7583118,15.8831771
node/442472166,Glinzendorf,stop,2,48.242189,16.6408887
node/442481148,Siebenbrunn-Leopoldsdorf,stop,2,48.2456264,16.7047922
node/443011460,Haslau,halt,1,48.1096816,16.7103032
node/443310896,Lunz Amonhaus,halt,,47.8608187,15.0230967
node/443632076,Wiesen-Sigleß,halt,1,47.7531687,16.3701
node/443632078,Bad Sauerbrunn,stop,2,47.7739815,16.3248146
node/443632079,Neudörfl,stop,2,47.7937058,16.3006581
node/444548967,Klagenfurt Lend,stop,2,46.6216003,14.2838786
node/444629957,Horní Dvořiště,station,752220,48.6017966,14.42194
node/444945825,Trattenbach,halt,Te H1,47.9301072,14.3549985
node/444956374,Gröbming,stop,2,47.4267187,13.9004534
node/444956378,Pruggern,halt,1,47.4233572,13.8746526
node/445845280,Präbichl,station,,47.5208498,14.9512205
node/445965709,Mitterdorf-Veitsch,stop,2,47.5367797,15.5132691
node/445968472,Kapfenberg Fachhochschule,stop,2,47.4548487,15.3294779
node/446001579,Praterstern,stop,4112,48.2197874,16.3929664
node/446005361,Westbahnhof,stop,4619,48.1968253,16.3393432
node/446516528,Gries am Brenner,halt,Sti K1,47.0411566,11.4852086
node/446547731,St. Jodok am Brenner,halt,Sti H1,47.0632889,11.499145
node/446861548,Grazer Märchenbahn,halt,,47.0736687,15.4373468
node/448637183,Festungsbahn Talstation,station,,47.7964245,13.0460338
node/448647635,Festungsbahn Bergstation,station,,47.7948508,13.0463561
node/448765083,Hallwang-Elixhausen,stop,1,47.8578523,13.0916443
node/449389315,Greifenburg-Weißensee,stop,2,46.7411651,13.1910886
node/449443793,St. Johann im Pongau,stop,2,47.3483845,13.1949511
node/451758997,Wiesmühle,halt,1,48.0220251,14.0437667
node/451790949,Sattledt,station,Sad,48.074127,14.0579416
node/451790953,Unterhart,halt,1,48.0891105,14.0426383
node/451790955,Oberhart,halt,1,48.1039823,14.0391847
node/451790956,Steinhaus bei Wels,station,Sth,48.1193113,14.0179378
node/452907511,Parndorf / Pandrof,station,Par,47.9869005,16.8707388
node/455408545,Seebenstein,stop,2,47.7033556,16.1427819
node/457874180,Bad Pirawarth,stop,1,48.4485504,16.6057318
node/458256336,Hohenau,stop,3,48.5983111,16.900793
node/459528072,St. Georgen Eching,stop,,47.9770513,12.9087844
node/463092859,Langen am Arlberg,station,Lan,47.1316145,10.121246
node/466464108,Donau City,halt,,48.2363624,16.4085354
node/469067594,Bad Hofgastein,stop,1,47.1953427,13.1006306
node/469102034,Zellermoos,stop,,47.2961628,12.780341
node/469251719,Piesendorf Bahnhof,stop,,47.2905275,12.7233203
node/469874298,Bürmoos,stop,,47.9822208,12.9257519
node/470075651,Pürgg,halt,1,47.5286208,14.0645592
node/470132596,Krems in Steiermark,halt,1,47.0328964,15.1756617
node/470849023,Gleisdorf West,halt,Gld H1A,47.1054332,15.7034192
node/470849038,Albersdorf,halt,Gld H2A,47.123032,15.6952749
node/470849043,Wollsdorf,halt,Gld H3A,47.1342085,15.6826161
node/470850771,Unterfladnitz,station,Sru H1,47.1795712,15.6672828
node/472919473,Lannach,station,Lnn,46.9408924,15.3345372
node/472943912,Preding-Wieselsdorf,station,Pwd,46.858004,15.3817905
node/472952208,Frauental-Bad Gams,stop,1,46.8238571,15.2555963
node/472952215,Gussendorf,halt,1,46.8296494,15.3487918
node/472954021,Groß St. Florian,station,Gfl,46.8208741,15.3178792
node/473533605,Kötschach-Mauthen,stop,1,46.6712153,13.0030862
node/473533657,St. Daniel,halt,1,46.659325,13.0537333
node/473541806,Gundersheim,halt,1,46.6452884,13.1186713
node/473541900,Waidegg,halt,1,46.6315785,13.230137
node/473541941,Tröpolach,stop,1,46.6238476,13.2862695
node/473551750,Watschig,halt,1,46.6215262,13.3089304
node/473551767,Postran,halt,1,46.617433,13.3337683
node/473551798,Hermagor,stop,2,46.6262924,13.3755945
node/473571348,St. Stefan-Vorderberg,stop,2,46.6003828,13.5330901
node/473590992,Emmersdorf im Gailtal,halt,1,46.5953245,13.5724332
node/473699102,Schruns,station,Sns,47.0796627,9.91726
node/475396831,Stöttham im Attergau,halt,1,47.9256881,13.5086975
node/475396837,Palmsdorf,halt,1,47.9234967,13.512868
node/475408781,Vöcklamarkt Lokalbf,stop,,47.9978903,13.4895831
node/475436153,,stop,,47.9143767,13.5343317
node/475919123,Laßnitzthal,stop,,47.0882216,15.6566295
node/476292746,Pleißing-Waschbach,halt,1,48.8054964,15.8421623
node/476307175,Hofern,halt,1,48.7797307,15.9037458
node/476529989,Rohrendorf,halt,1,48.4232282,15.6569799
node/476981009,Vorchdorf Schule,stop,,48.0038984,13.9172887
node/479097505,Trumau,stop,Ti K1,47.9926492,16.332134
node/486237352,Hausfeldstraße,stop,4274,48.233365,16.4857727
node/488320999,Unterretzbach,halt,1,48.7651297,16.0080739
node/488933284,Pöckau,stop,1,46.5519197,13.7453906
node/496059585,Loipersbach-Schattendorf,station,Ls,47.700744,16.4918685
node/499813086,Wiesenfeld-Schwarzenbach,halt,1,48.051232,15.6486651
node/499841690,Rohrbach an der Gölsen,stop,1,48.0477437,15.742891
node/499983935,Roppen,stop,2,47.2155213,10.8168281
node/505063367,Herzogenburg-Wielandsthal,halt,1,48.2851177,15.6905548
node/506861989,Herzogenburg Stadt,halt,1,48.2845262,15.7005938
node/506862308,Unterradlberg,halt,1,48.2552559,15.6868508
node/506863942,St. Pölten Traisenpark,halt,1,48.2203417,15.6411457
node/507378664,Gnas,stop,Gna,46.8843778,15.8311547
node/507393334,Maierdorf,halt,Mdf,46.8871027,15.8547394
node/507393373,Trautmannsdorf in Oststeiermark,halt,Mdf H2,46.8781061,15.8886378
node/507393720,Bad Gleichenberg,station,Gbg,46.8716254,15.9035433
node/507395361,Feldbach,stop,,46.9586506,15.889269
node/507396524,Oedt Siedlung,halt,Fb H1A,46.9413259,15.8796773
node/507482659,Oedt,halt,Fb H2A,46.9363963,15.8690678
node/513640822,Schleinbach,stop,1,48.4222847,16.4898508
node/513838385,Breiteneich bei Horn,halt,1,48.6720911,15.688203
node/521299294,Bleiburg Stadt/Pliberk mesto,halt,1,46.5901571,14.7941505
node/521613055,St. Michael ob Bleiburg/Šmihel pri Pliberku,halt,1,46.5823884,14.7507337
node/521706851,St. Andrä im Lavanttal,stop,1,46.7632006,14.8416185
node/522228799,Traunkirchen Ort,halt,En H2,47.8427673,13.7871447
node/529053977,Höflein an der Donau,stop,2,48.3500752,16.2716837
node/536139198,Feldbach,stop,,46.9584778,15.8892783
node/537999375,Blankenberg,halt,,48.0334613,13.9080316
node/540298345,Mühling,halt,1,48.1110839,15.135573
node/550191106,Köflach,station,Kfl,47.0614599,15.0826703
node/559824785,Rettenbach,stop,Ret,47.2815187,12.4498549
node/560173615,Jesdorf-Bergfried,stop,Jes,47.2833913,12.6618859
node/566307305,Weißenbach-St. Gallen,stop,2,47.7143616,14.6355205
node/566341602,Johnsbach im Nationalpark,halt,1,47.582408,14.595877
node/585355903,Alt Weitra,station,Gm K1,48.7225423,14.9047927
node/585356223,Dietmanns,halt,Gm H2,48.7501577,14.9465959
node/587886734,Bichlbach Almkopfbahn,stop,1,47.4277216,10.7768261
node/587886981,Bichlbach-Berwang,station,Bch,47.4213282,10.7933375
node/587888857,Lermoos,station,Ler,47.4053796,10.8788624
node/593857725,Oberthalheim-Timelkam,halt,Vk H1,48.0018235,13.6237639
node/598192261,Schottenring,stop,4408,48.2164927,16.3718062
node/602109267,Seefeld in Tirol,stop,2,47.3288664,11.189501
node/603645471,Amt Mitterbach,stop,Sae H1,47.8702269,15.598192
node/605015480,Leobendorf-Burg Kreuzenstein,stop,1,48.3642713,16.3023297
node/606142772,Salzburg Hagenau,stop,,47.8320522,13.0296196
node/606142773,Salzburg Plainbrücke,stop,,47.8267047,13.0367271
node/606145853,Bergheim,stop,1,47.8393336,13.0210063
node/606149673,Muntigl,stop,,47.8531721,13.0056067
node/606149682,Bergheim Schlachthof,stop,SCHL,47.846236,13.0122088
node/606152679,Acharting,stop,,47.891283,12.9924578
node/606155258,Oberndorf Bahnhof,stop,,47.9417516,12.9441501
node/606155259,Pabing am Haunsberg,stop,1,47.9147184,12.9691739
node/606155260,Weitwörth-Nußdorf,stop,1,47.924053,12.965864
node/606176556,St. Pantaleon-Reith,stop,,48.0017419,12.8837414
node/606181690,St. Pantaleon Eiferding,stop,,48.0147387,12.8637974
node/606181728,St. Pantaleon Riedersbach,stop,,48.0245382,12.857505
node/606222733,Salzburg Kasern,stop,1,47.8392184,13.0652411
node/606243835,Eugendorf,stop,1,47.8735607,13.1171191
node/606243849,Wallersee,stop,1,47.9191804,13.1593263
node/610453035,Salzburg Mülln-Altstadt,stop,1,47.8082983,13.0336295
node/610456696,Salzburg Aiglhof,stop,1,47.8077822,13.0271018
node/611154299,Ollersbach,stop,1,48.1914934,15.8476747
node/616023439,Linz Franckstraße,stop,1,48.2859377,14.3236962
node/616023441,Pulgarn,halt,Sy H1,48.2783475,14.3935665
node/616151316,Bruck-Fusch,station,Brf,47.2846108,12.8283989
node/616709909,Lanzendorf-Rannersdorf,stop,2,48.1135036,16.4474211
node/617286253,Telfes Ort,stop,,47.1651873,11.359914
node/618875938,Bludenz Brunnenfeld,halt,1,47.1363759,9.8387681
node/618875940,Bludenz Moos,halt,1,47.142403,9.8308193
node/619805688,Salzburg Hauptbahnhof (S-Bahn),station,SALB,47.8127808,13.0445107
node/621122326,Salzburg Itzling,stop,Itz,47.819074,13.0410216
node/622369349,Altenmarkt im Pongau,halt,1,47.3821986,13.429232
node/624231459,Längenfeldgasse,stop,4617,48.1847899,16.3351198
node/624231466,Längenfeldgasse,stop,4612,48.1849389,16.3348968
node/631839322,Sollenau,stop,2,47.898454,16.2454383
node/632943999,Lilienfeld Krankenhaus,halt,1,48.0098531,15.5793874
node/639103739,Brunn an der Schneebergbahn,halt,1,47.8256012,16.1572583
node/639207910,Vorchdorf Gewerbegebiet,halt,,48.0099199,13.9143636
node/645615328,Salzburg Sam,stop,1,47.8196044,13.0631489
node/654133068,Sautern-Schiltern,halt,1,47.7072991,16.1557391
node/659513633,Ramsau-Hippach,stop,,47.2050054,11.8698407
node/659513636,Bichl im Zillertal,stop,,47.1950207,11.8705475
node/666271007,Weyer an der Enns,stop,1,47.8617511,14.6673161
node/666271200,Oberland,halt,1,47.9022171,14.7446386
node/670731113,Wien Penzing,stop,2,48.1926415,16.3048654
node/670866408,Sillian,stop,2,46.7455847,12.4250401
node/671429609,Gedersdorf,halt,1,48.4325864,15.6916748
node/677243566,Erlauf,station,Erf,48.1839155,15.1821138
node/678267393,Kapfing,stop,,47.3334098,11.8617765
node/678267394,Fügen-Hart im Zillertal,stop,,47.344758,11.8531737
node/678272424,Zell am Ziller,stop,,47.231369,11.8813625
node/678542457,Schlitters-Bruck am Ziller,stop,,47.3777645,11.843648
node/678586035,Erlach im Zillertal,stop,,47.2449238,11.8957801
node/683553111,Gschwandt-Rabesberg,station,,47.9318829,13.8458936
node/685063741,St. Veit an der Triesting,halt,1,47.9332583,16.1491391
node/686756668,Lutzmannsdorf,halt,Slo H2,47.1036864,14.0755292
node/686756724,Kreischberg Talstation,halt,Slo H1,47.1019423,14.0878204
node/688427236,Obertraun Koppenbrüllerhöhle,stop,,47.5639593,13.7201019
node/699586158,Niederspaching,stop,,48.3230266,13.8101333
node/703681647,Kranebitten,halt,1,47.2696198,11.3287093
node/704389592,Steinbach-Bad Großpertholz,station,Sgp,48.6402895,14.8421329
node/704415649,Breitenwaida,halt,1,48.5151192,16.0747091
node/717837771,Langenzersdorf,stop,2,48.3065419,16.3559689
node/729669711,Finkenstein,halt,1,46.5688255,13.867742
node/732664244,Stiefern,halt,1,48.5347513,15.6914272
node/733237627,Wien Hütteldorf,stop,11,48.1973735,16.2624019
node/739555332,Oed,stop,2,47.8786357,16.0258995
node/739585007,Pernitz Wipfelhofstraße,halt,1,47.8957328,15.9680856
node/739596239,Pernitz Raimundviertel,halt,1,47.8917491,15.945673
node/739597842,Gutenstein,stop,1,47.876948,15.910809
node/742321192,Lilienfeld,stop,1,48.0137338,15.5931012
node/755510125,Stoob,station,Sto,47.5286769,16.4700106
node/776029577,Bruderndorf Wasserstation,halt,,48.6051003,14.8487699
node/776031019,Abschlag,halt,Sgp H1,48.6244772,14.8463857
node/776036987,St. Martin bei Weitra,halt,Wra K1,48.6633466,14.8413946
node/776039824,Weitra,station,Wra,48.7004692,14.9015511
node/776065142,Gmünd NÖ (NÖVOG),station,,48.7649213,14.9839592
node/778889753,Pinsdorf,halt,Gz H1,47.933415,13.765859
node/778890479,Aurachkirchen,station,Ak,47.9681566,13.7454405
node/781300585,Uttendorf-Helpfau,halt,Mho K1,48.1607814,13.1334866
node/789464085,Stockerau,stop,3,48.3822551,16.2133941
node/808612860,Aschbach,stop,2,48.0696472,14.7561851
node/832477442,Mauerkirchen,station,Mau,48.1916634,13.1288188
node/836009532,Getzersdorf,halt,1,48.3242926,15.715414
node/845909962,Rattenberg-Kramsach,stop,1,47.4392486,11.8961281
node/853046849,Anger,station,,47.270749,15.6989902
node/853256851,Rosegg,station,,47.3016055,15.693509
node/860198785,Murau St. Leonhard,halt,Mua H1,47.1088339,14.1663529
node/861733128,Maurach,halt,Et H1,47.4218021,11.753773
node/871608333,Villach Warmbad,stop,3,46.5888309,13.828812
node/872499531,Klamm-Schottwien,stop,1,47.6651979,15.8742809
node/882941136,St. Johann-Weistrach,stop,2,48.0749962,14.6132517
node/890494632,Nüziders,halt,B H1,47.1709054,9.7940103
node/892821559,Reuthe,stop,,47.3833508,9.8745403
node/894910108,Schlöglmühl,stop,2,47.6826224,15.9137543
node/900491847,Hengsttal,halt,Pub H1,47.7850761,15.8991085
node/904384909,Pöstlingberg,halt,,48.3249812,14.2588776
node/907294177,Pasching,stop,2,48.2571855,14.2087584
node/910327108,Langenwang,stop,2,47.5679608,15.6134566
node/912323087,Enzesfeld-Lindabrunn,stop,2,47.9213288,16.187402
node/917913271,St. Nikola-Struden,stop,1,48.2334996,14.9091149
node/921201381,Hart bei Graz,halt,Mes H2,47.0418426,15.5074678
node/924440924,Ramingstein Thomatal,station,Rst,47.0752383,13.8300678
node/924440932,Ramingstein,halt,Sdl H5,47.076566,13.8436908
node/924440952,Hintering,halt,Sdl A4,47.0720976,13.8655114
node/924440977,Kendlbruck,halt,Sdl A1,47.069657,13.8825289
node/924443671,Predlitz Pichl,halt,Sdl H2,47.0769314,13.9213843
node/924443690,Einach,halt,Sdl H1,47.0839919,13.9406865
node/924593084,Marbach Golfplatz,halt,Mua H4,47.1009515,14.107717
node/924593108,Kaindorf im Murtal,halt,Mua H3,47.1033937,14.1250159
node/924593219,Wandritsch,halt,Slo A1,47.1107813,14.0344934
node/924613682,Murau,station,Mua,47.1089886,14.1735569
node/924613788,Murau West,halt,Mua H2,47.1116668,14.1479031
node/924625586,Triebendorf,halt,Fj H2,47.1282276,14.2455999
node/924625597,Saurau,halt,Fj H1,47.1312703,14.2810821
node/924625612,Frojach,station,Fj,47.1327193,14.3050112
node/924625672,Teufenbach,station,Teu,47.1349967,14.362263
node/924626036,Niederwölz,station,Tam Z9,47.1461659,14.3752391
node/924635237,Lind bei Scheifling,halt,Um H2,47.157559,14.4038588
node/924636733,Wallersbach,halt,Um H1,47.1895147,14.4303209
node/925351958,St. Andrä-Andlwirt,halt,,47.1466124,13.792038
node/925412644,Gröbendorf,halt,,47.1358876,13.7237142
node/925462577,Madling,halt,Rst H2,47.0759448,13.821877
node/925651550,Salzburg Taxham Europark,stop,2,47.816118,13.0105021
node/925838793,Predlitz-Turrach,halt,Sdl H3,47.0718945,13.9085766
node/925845206,Stadl an der Mur,station,Sdl,47.0847691,13.9815195
node/925854843,Hagendorf,halt,Slo H5,47.086468,13.9890432
node/925854844,Falkendorf,halt,Slo H4,47.0992219,14.0089148
node/925854845,St. Ruprecht ob Murau,halt,Slo H3,47.1082915,14.0246001
node/925867043,Puxerboden,halt,Teu H1,47.1317146,14.3348518
node/925950619,Lintsching,halt,,47.1420607,13.7729828
node/925950622,Mariapfarr,station,,47.1406914,13.7433324
node/925950623,Mauterndorf,station,,47.1302472,13.6843516
node/926504359,Eberschwang,halt,Hs H1,48.1517991,13.537389
node/926504361,Hausruck,station,Hs,48.1296072,13.571585
node/933006774,Ulrichsbrücke-Füssen,halt,1,47.5429925,10.6644896
node/936412092,St. Georgen an der Mattig,stop,1,48.2163328,13.0988771
node/936413231,Petersbaumgarten,halt,1,47.6340346,16.1323252
node/939869800,Schwarzenau,stop,2,48.7462867,15.2671552
node/946144582,Waizenkirchen,station,,48.3305349,13.8529942
node/946144792,Niederspaching,stop,,48.3230475,13.8100551
node/957067223,Bad Mitterndorf-Heilbrunn,halt,1,47.5511426,13.9252986
node/957159242,Gasthof zur Paula,halt,,47.868123,15.0148246
node/957159525,Gaming,halt,,47.9288549,15.0859421
node/957159572,Pfaffenschlag,station,,47.8965095,15.0165119
node/957186582,Reutte in Tirol,station,Rt,47.4930798,10.7216384
node/964716933,Bruckberg,stop,Brb,47.2975773,12.7865781
node/967766276,Ebensee,station,En,47.8044722,13.771667
node/973820474,Grünbach am Schneeberg,stop,2,47.7974882,15.9979728
node/973962473,Wr. Neustadt Anemonensee,halt,1,47.8119228,16.2097094
node/979632320,Schönberg am Kamp,stop,2,48.5155779,15.6966459
node/979961265,Burgeck,halt,Jb H1,47.397987,11.775581
node/980292416,Stillfried,stop,1,48.4115952,16.8464939
node/981329989,,station,,47.2468332,11.3998662
node/981330000,,station,,47.2488155,11.4000892
node/984228767,Platt,halt,1,48.6746131,15.9661374
node/1007207713,Holmec,halt,1,46.5663857,14.8413903
node/1007550157,Schlöglmühl,stop,1,47.6825841,15.9137469
node/1010572279,Südtiroler Platz-Hauptbahnhof,stop,4105,48.1871262,16.3736117
node/1010667838,Mühlbach im Pinzgau,halt,Mp,47.2729857,12.3741473
node/1013959163,Freilassing,stop,96,47.8362109,12.9792438
node/1013959198,Freilassing,stop,97,47.8361288,12.9792195
node/1014035376,Linz Urfahr,station,Uf,48.3119791,14.2796016
node/1014208330,Baden Melkergründe,stop,,48.0035654,16.2583385
node/1014208331,Tribuswinkel-Josefsthal,stop,,48.0078657,16.2696845
node/1016815090,Purkersdorf Sanatorium,stop,2,48.2063956,16.201348
node/1016815570,Wien Penzing,stop,3,48.1927573,16.3048736
node/1020890320,Wien Penzing,stop,4,48.1927973,16.3048764
node/1027864612,Mutters Nockhofweg/Muttereralm Bahn,stop,,47.224293,11.3717255
node/1028451086,Alkoven Schule,halt,,48.286258,14.1034595
node/1029919030,Schlitters-Bruck am Ziller,stop,,47.3777717,11.8437464
node/1032424912,Wels Messe,halt,1,48.1524432,14.0196315
node/1041834146,Salzburg Mülln-Altstadt,stop,2,47.808437,13.0341637
node/1048261306,Linz Urfahr,stop,,48.312041,14.2795489
node/1048261311,Linz Urfahr,stop,,48.3119461,14.2796296
node/1066278987,Waldstein,halt,1,47.2197739,15.28993
node/1068163232,Deutschfeistritz Hst,halt,Pg Z9,47.1996052,15.3356553
node/1068163326,Zitoll,halt,Pg H1A,47.2069211,15.3243469
node/1068163335,Prenning Viertler,halt,Pg H2A,47.2097791,15.3164392
node/1068163528,Guggenbach Pulverwerksiedlung,halt,Wsn H2,47.2186026,15.2658624
node/1068163540,Guggenbach Warthkogelsiedlung,halt,Wsn H4,47.2193799,15.2518157
node/1068163637,Himberg,halt,Wsn H1,47.218355,15.2739766
node/1069440419,Übelbach Vormarkt,halt,Wsn H5,47.2225341,15.2410596
node/1073092695,Wörgl Hauptbahnhof,stop,13,47.4924591,12.0632814
node/1075169695,Hollersbach Panoramabahn,stop,1,47.2792317,12.4049869
node/1078533305,Deutschkreutz,stop,2,47.6038986,16.620185
node/1080648430,Leobersdorf,stop,3,47.9384484,16.2311502
node/1084233740,Klamm-Schottwien,stop,2,47.6652869,15.874298
node/1086143659,Wies-Eibiswald,stop,2,46.7183732,15.2592929
node/1088824778,Piesting,stop,1,47.874782,16.1248772
node/1098412480,Dürnkrut,stop,3,48.4706638,16.8606874
node/1099682033,Hallein Burgfried,stop,1,47.6758515,13.1145548
node/1103147822,Felixdorf,stop,2,47.8878259,16.2480626
node/1112885262,Stuhlfelden,stop,Slf,47.285803,12.526659
node/1116471286,Rohrbach-Vorau,stop,,47.389122,15.985806
node/1135965664,Habachtal-Weyerhof,stop,Hat,47.2571209,12.3184601
node/1136081460,Langenlois,stop,2,48.4774495,15.686419
node/1138166179,Möllersdorf Aspangbahn,halt,1,48.0299732,16.3133045
node/1139663243,Wittmannsdorf NÖ,stop,2,47.9202313,16.2200925
node/1144663985,Waldegg-Dürnbach,halt,1,47.8675938,16.0515801
node/1145609033,Oberradlberg,halt,1,48.2406309,15.6705322
node/1145944920,Bad Gastein,stop,1,47.1117591,13.1320563
node/1170640974,Haiding,stop,,48.2096514,13.9750625
node/1170640980,Haiding,stop,,48.2095964,13.9748932
node/1170641166,Haiding,stop,,48.2096289,13.9750033
node/1170886758,Hörsching,stop,1,48.2455933,14.1862418
node/1172206307,Linz Hauptbahnhof,stop,1,48.2915965,14.292483
node/1172600553,Weiz Interspar,stop,,47.2074725,15.6397697
node/1174378850,Breitenschützing,stop,1,48.0787327,13.8009355
node/1174835631,Vöcklabruck,stop,2,48.0101078,13.663777
node/1175143666,Frankenmarkt,stop,,47.9829364,13.4322671
node/1175143746,Frankenmarkt,stop,,47.98293,13.4316899
node/1175348340,Straßwalchen,stop,1,47.9721802,13.2643642
node/1175349832,Straßwalchen,stop,2,47.9721484,13.2643316
node/1175435024,Neumarkt am Wallersee,stop,2,47.9555465,13.2256447
node/1175505651,Köstendorf Weng,stop,2,47.9364193,13.1750738
node/1176693641,Eugendorf,stop,2,47.8730135,13.1163097
node/1176693698,Seekirchen am Wallersee,stop,1,47.8993318,13.1300572
node/1176693889,Seekirchen am Wallersee,stop,2,47.8994397,13.1299516
node/1179318108,Záhorská Ves,stop,,48.3775151,16.8444712
node/1183409607,St. Egidi,halt,Fj H3,47.1082466,14.1819274
node/1184170535,St. Martin bei Traun,stop,,48.2364095,14.2646472
node/1185078762,Langen am Arlberg,stop,1,47.1316627,10.1213348
node/1192030951,Wilhelmsburg,stop,1,48.1118021,15.6084078
node/1201994987,Landeck-Zams,stop,1,47.1481452,10.5780276
node/1204401784,Wien Breitensee,stop,2,48.1975366,16.3067081
node/1204401837,Wien Breitensee,halt,Ok H1,48.1975454,16.3067324
node/1207358683,Pölfing-Brunn,halt,1,46.7300428,15.3000388
node/1215960381,Angern an der March,stop,2,48.3847836,16.8264585
node/1217462256,Irnfritz,stop,2,48.7485,15.5395929
node/1226648929,Payerbach Lokalbahn,station,,47.6960879,15.8592977
node/1226648939,Payerbach-Reichenau,stop,2,47.6961222,15.8629838
node/1226648979,Payerbach-Reichenau,stop,1a,47.6959964,15.8629778
node/1226648999,Payerbach-Reichenau,stop,3,47.6962091,15.8629983
node/1227763181,Graz Don Bosco,stop,5,47.0583444,15.4196458
node/1227972625,Spital am Pyhrn,station,Spi,47.6733215,14.3474844
node/1228424823,Graz Don Bosco,halt,G H1,47.0582132,15.4192323
node/1228431799,Feldkirchen-Seiersberg,stop,2,47.0124095,15.4405643
node/1228439089,Graz Hauptbahnhof,stop,6,47.0723901,15.4162643
node/1229944195,Rotunde,stop,,48.209547,16.4076167
node/1243189782,Braunschweiggasse,stop,4407,48.1893936,16.2958101
node/1243189796,Schönbrunn,stop,4411,48.1860335,16.3189326
node/1243190081,Hietzing,stop,4409,48.1875686,16.3045733
node/1243190167,Unter St. Veit,stop,4405,48.1911075,16.2859853
node/1243190224,Meidling Hauptstraße,stop,4413,48.1835623,16.3279142
node/1243190451,Ober St. Veit,stop,4403,48.1922243,16.276164
node/1251019528,Salzburg Süd,stop,2,47.7699609,13.0784226
node/1251181635,Salzburg Aigen,stop,2,47.7886234,13.0788216
node/1251181859,Salzburg Aigen,stop,1,47.7885405,13.0786703
node/1253186957,Mutters Feldeler,stop,,47.2149244,11.3754659
node/1253872848,Salzburg Parsch,stop,1,47.7992036,13.0730941
node/1253872976,Salzburg Parsch,stop,2,47.7991907,13.07304
node/1254082871,Wildon,station,Wi,46.8836201,15.5216296
node/1255616462,Pfaffstätten Rennplatz,stop,,48.0083231,16.2613131
node/1260533445,Oberndorf in Tirol,halt,Jti H1,47.4971215,12.3906562
node/1262521009,Reisach,halt,1,46.6426153,13.1545373
node/1267914450,Unterberg-Stefansbrücke,halt,I H1,47.2141227,11.3918406
node/1275124058,Linz Wegscheid,station,Wd,48.2495854,14.2755504
node/1279571961,Scheibbs,station,Sbs,48.004942,15.164436
node/1280226211,Villach St. Ruprecht,stop,2,46.6413519,13.8761119
node/1281024727,Hohenau,stop,2,48.5983043,16.9009174
node/1281107737,Hohenau,stop,1,48.5982996,16.9009843
node/1281231506,Bergheim,stop,2,47.8393162,13.0209539
node/1283628238,Wien Praterstern,stop,4,48.2190342,16.3924686
node/1293250882,Jedenspeigen,stop,1,48.4949237,16.8781822
node/1294140168,Rabensburg,stop,1,48.65201,16.894603
node/1299343915,Wiener Neustadt Nord,stop,2,47.8348927,16.2387525
node/1300143863,Theresienfeld,stop,2,47.860695,16.2440204
node/1306761264,Weizelsdorf,stop,1,46.5394812,14.2433979
node/1309470996,Marktl,halt,1,48.0216139,15.6004995
node/1312281669,Klagenfurt Annabichl,stop,2,46.6499796,14.3151316
node/1312628394,Wien Stadlau,stop,1,48.2185893,16.4480367
node/1312628447,Wien Stadlau,stop,2,48.2185551,16.448293
node/1312823576,Purkersdorf Zentrum,stop,1,48.2061373,16.1758341
node/1313296481,Wiener Neustadt Hauptbahnhof,stop,5,47.8110933,16.2334519
node/1313296483,Wiener Neustadt Hauptbahnhof,stop,7,47.8110893,16.2332234
node/1313296485,Wiener Neustadt Hauptbahnhof,stop,3,47.8110975,16.2336947
node/1313296486,Wiener Neustadt Hauptbahnhof,stop,6,47.8110922,16.2333921
node/1313296488,Wiener Neustadt Hauptbahnhof,stop,8,47.8110865,16.2330757
node/1313296489,Wiener Neustadt Hauptbahnhof,stop,9,47.8110853,16.2329964
node/1313296490,Wiener Neustadt Hauptbahnhof,stop,4,47.8110965,16.2336367
node/1313317369,Wiener Neustadt Civitas Nova,stop,1,47.8337385,16.2560698
node/1315071643,Felixdorf,stop,1,47.8871857,16.2479987
node/1325719629,Küb,stop,2,47.6816731,15.8765067
node/1336806229,Hollenegg,halt,1,46.7865555,15.2356853
node/1336806232,St. Martin im Sulmtal-Bergla,stop,1,46.7482643,15.284796
node/1336806235,Dietmannsdorf,halt,1,46.7445251,15.3117273
node/1336806243,Bad Schwanberg,halt,1,46.7660459,15.2395915
node/1338670478,Hirschbach,halt,1,48.7492596,15.1271337
node/1341038693,Baumgarten-Waldbach,halt,,47.9264469,13.8305146
node/1341038696,Gschwandt b.Gmunden Schule,halt,,47.9356517,13.8480327
node/1341038697,Eisengattern,station,,47.9525496,13.8804925
node/1341038703,Unterm Wald,halt,,47.9275916,13.8398035
node/1341051781,Kirchham b.Vorchdorf Ort,halt,,47.9709917,13.8968839
node/1341051784,Kirchham b.Vorchdorf,station,,47.9753579,13.8987566
node/1341051788,Weidach b.Vorchdorf,halt,,47.9898071,13.9084503
node/1341051792,Falkenohren,halt,,47.9880436,13.9046982
node/1344291024,Leobersdorf,stop,2,47.9384236,16.230962
node/1344291035,Kottingbrunn,stop,1,47.9500883,16.226989
node/1344291051,Bad Vöslau,stop,1,47.9695545,16.2238418
node/1344291055,Sollenau,stop,3,47.8984616,16.2453741
node/1344787995,Ansfelden,halt,T K1,48.2090233,14.2611098
node/1345520939,Obereggendorf,stop,1,47.849589,16.2967262
node/1349426467,Nettingsdorf,stop,3,48.1895473,14.2585907
node/1349431592,Obereggendorf,stop,2,47.84968,16.2966299
node/1349442912,Nettingsdorf,station,Net,48.1896436,14.25849
node/1352828684,Margaretengürtel,stop,4422,48.1885008,16.3430312
node/1352828685,Meidling Hauptstraße,station,863,48.1836444,16.3279206
node/1362117623,Flughafen Graz-Feldkirchen,stop,2,46.9979696,15.4494167
node/1362117646,Kalsdorf,stop,2,46.9642027,15.4700192
node/1362117649,Kalsdorf,stop,1,46.9642547,15.4701992
node/1362117652,Kalsdorf,stop,3,46.964159,15.4699137
node/1362930609,Wettmannstätten,station,Wtt,46.8373067,15.3808748
node/1363609374,Takern-St. Margarethen,stop,Tak,47.0457035,15.7577498
node/1364214835,Eferding Gewerbegebiet,halt,,48.3020831,14.0218035
node/1364270396,Sperneck,halt,,48.2910733,13.9941499
node/1364274047,Wackersbach,halt,Efd Z92,48.296416,13.9793042
node/1364278835,Kirnberg,halt,,48.2975558,13.9688231
node/1364280270,Gschnarret,halt,,48.3116744,13.9389916
node/1364323283,Manzing-Prambach,halt,,48.3318765,13.8885472
node/1364323284,Prambachkirchen-Bad Weinberg,station,,48.3153925,13.9011307
node/1364323285,Prattsdorf-Dachsberg,halt,,48.3152279,13.9292872
node/1364323442,Schurrerprambach,halt,,48.3424314,13.8703314
node/1364323443,Waizenkirchen Hochscharten,halt,,48.3338013,13.8593735
node/1364323444,Willersdorf,halt,,48.3256187,13.8320943
node/1364400403,Itzling,halt,,48.3130582,13.7949081
node/1364400405,Oberaschach,halt,,48.2791387,13.758194
node/1364400406,Prambeckenhof,halt,,48.291178,13.7819301
node/1364400428,Pötting,halt,,48.2851998,13.7679088
node/1364400429,Stefansdorf,halt,,48.3068844,13.7907131
node/1364400430,Straßhof an der Aschach,halt,,48.277381,13.7531876
node/1364677899,Lauffen,halt,Goi H2,47.6743938,13.6164177
node/1364686371,Kufstein,station,K,47.5829718,12.165727
node/1364706632,Kufstein,stop,13,47.5847049,12.1658839
node/1364706827,Kufstein,stop,2,47.5833736,12.1656541
node/1364706901,Kufstein,stop,21,47.5819991,12.1657715
node/1364717010,,stop,,46.7553716,14.4530195
node/1364717310,,stop,,46.7559005,14.452694
node/1364831254,St. Margrethen SG,stop,,47.4532918,9.6382929
node/1364831273,St. Margrethen SG,stop,,47.4534236,9.6383488
node/1364851174,Klagenfurt Hauptbahnhof,stop,2,46.6157414,14.313699
node/1364877699,Klagenfurt Hauptbahnhof,stop,5,46.6154637,14.31372
node/1364877700,Klagenfurt Hauptbahnhof,stop,4,46.6155841,14.3137149
node/1364877702,Klagenfurt Hauptbahnhof,stop,3,46.6156301,14.3137076
node/1365572139,Thurnharting,halt,,48.2693614,14.1859017
node/1367078247,Klagenfurt Lend,stop,1,46.6215289,14.2838445
node/1369150271,St. Johann in Tirol,stop,1,47.5197024,12.4307086
node/1369350079,Bruck an der Mur,stop,6,47.4137003,15.2797222
node/1369350081,Bruck an der Mur,stop,2,47.4137084,15.2793322
node/1369350082,Bruck an der Mur,stop,3,47.4138594,15.2793895
node/1369350088,Bruck an der Mur,stop,5,47.4136874,15.2796751
node/1369840617,Schwarzenberg,stop,,47.3991466,9.8544803
node/1369865284,Zell am Ziller,stop,,47.2313552,11.8814094
node/1371538013,Krumpendorf,stop,3,46.6263389,14.221913
node/1371538018,Krumpendorf,stop,2,46.6264267,14.2218675
node/1371548682,Spielfeld-Straß,station,Sd,46.7095168,15.6291162
node/1371572232,Pritschitz,stop,1,46.6279366,14.1708326
node/1371572372,Pörtschach am Wörthersee,stop,1,46.6361684,14.146201
node/1372004361,Töschling,stop,1,46.6331614,14.1111556
node/1372024985,Velden am Wörther See,halt,1,46.6200431,14.044842
node/1372037719,Lind-Rosegg,stop,1,46.6060845,14.000622
node/1372105644,Föderlach,stop,1,46.6020379,13.9592199
node/1372327605,Thörl-Maglern,station,Th,46.540334,13.6483556
node/1372478295,Arnoldstein,stop,3,46.5515773,13.7075948
node/1372555644,Nötsch,stop,2,46.5885886,13.6258626
node/1372616034,St. Stefan-Vorderberg,stop,1,46.6004567,13.5331014
node/1372627689,Görtschach-Förolach,stop,2,46.6229557,13.4709326
node/1372706630,Arnoldstein,stop,1,46.5514459,13.707581
node/1372726688,Pöckau,stop,2,46.5520286,13.745419
node/1372744204,Neuhaus an der Gail,stop,2,46.5550074,13.7796054
node/1373988200,Gödersdorf,stop,2,46.5684376,13.8472136
node/1374017679,Fürnitz,stop,1,46.5631711,13.8133453
node/1374017693,Fürnitz,stop,2,46.5632637,13.8133427
node/1374171737,Villach Warmbad,stop,1,46.5888594,13.8286322
node/1374245574,Linz Pichling,stop,2,48.2428953,14.3793052
node/1376785071,Wald im Pinzgau Lahnsiedlung,stop,Wap H2,47.2399662,12.2070624
node/1376885587,Sulzbachtäler,stop,Slz,47.2424889,12.2607066
node/1376926781,Neukirchen a. Grv. Vorstadl,stop,Bbg H3,47.2526552,12.2982223
node/1377047632,Bramberg Steinach,stop,Bbg H1,47.2674125,12.337986
node/1377101654,Wenns,stop,Mp H1,47.2723344,12.3545505
node/1377192783,Lengdorf,stop,Lgd,47.2815815,12.6285918
node/1377750631,Wien Praterstern,stop,3,48.2190124,16.3921755
node/1377750785,Wien Traisengasse,stop,2,48.2350934,16.3830992
node/1377763123,Linz Ebelsberg,stop,2,48.2520216,14.3471154
node/1377834393,Piesendorf Bad,stop,Ps H1,47.2883398,12.7125727
node/1377939899,Wien Hetzendorf,stop,1,48.1668038,16.3155363
node/1378051638,Rabensburg,stop,2,48.652016,16.8946566
node/1378051713,Bernhardsthal,stop,2,48.6880192,16.8790739
node/1378094193,Am Schöpfwerk,stop,4639,48.1606715,16.3242289
node/1378094222,Wien Schöpfwerk,stop,1,48.1640635,16.3307102
node/1378094234,Tscherttegasse,stop,4640,48.1649737,16.3278094
node/1379898006,Gmünd NÖ,stop,1,48.7643481,14.9845364
node/1381810307,Litschau,station,,48.9418656,15.0441647
node/1382959104,Feistawiese,stop,,47.5256638,14.9251117
node/1385050713,Telfes Telfer Wiesen,stop,,47.1893058,11.3859725
node/1385050731,Mutters Kreith,stop,,47.2026946,11.3807371
node/1385050758,Mutters Feldeler,stop,,47.2150057,11.3752432
node/1385050785,Mutters,stop,1,47.2287346,11.3783036
node/1385050853,Natters Hölltal,stop,,47.2385511,11.3848249
node/1385050882,Sonnenburgerhof/Tirol Panorama,stop,,47.2464939,11.3935738
node/1388720796,Hochschneeberg Bergbahnhof,station,Bhs,47.7603246,15.8342548
node/1390157795,Langau,stop,2,48.8251663,15.7182826
node/1390696429,Gartenbahn Hauptbahnhof,halt,,48.3253066,16.6710568
node/1391371057,Alser Straße,stop,4606,48.2168105,16.34181
node/1391371069,Josefstädter Straße,stop,4607,48.2114726,16.3391346
node/1391371084,Michelbeuern-AKH,stop,4605,48.2212754,16.3441846
node/1391371110,Nußdorfer Straße,stop,4603,48.2313469,16.3524355
node/1391371862,Spittelau,stop,4651,48.235611,16.3580935
node/1391371870,Thaliastraße,stop,4608,48.2078023,16.3379802
node/1391371900,Währinger Straße-Volksoper,stop,4604,48.2255908,16.3494784
node/1395295329,Obersdorf,stop,1,48.3623274,16.5166298
node/1398940888,Schauboden,halt,1,48.0789182,15.1369614
node/1399692389,Schwedenplatz,stop,4113,48.2117078,16.377655
node/1403472196,Lienz,stop,3,46.828358,12.7714059
node/1404147996,Bregenz,stop,4,47.5030457,9.7397821
node/1404607752,Hirtenberg,halt,1,47.9292362,16.1759759
node/1407695075,Zell am See,stop,3,47.3206037,12.7968822
node/1408216400,Areitbahn,stop,Tih H1H,47.2994046,12.7900588
node/1408216409,Bruckberg Golfplatz,stop,,47.2946603,12.7761628
node/1408226380,Fürth-Kaprun,stop,,47.2879898,12.744876
node/1408503833,Stuhlfelden Heilbad Burgwies,halt,Slf H1,47.2862106,12.5106127
node/1409127009,Hollersbach i. P. Bahnhof,stop,Hba,47.2783751,12.4160513
node/1409127130,Zell am See Lokalbahn,stop,11,47.3202093,12.7958198
node/1409127133,Zell am See Lokalbahn,stop,12,47.3202407,12.7957784
node/1409952832,Fraham,stop,,48.2874924,14.039553
node/1410405271,Bramberg,stop,Bbg,47.2697157,12.3445898
node/1410988456,Koglhof,halt,,47.3168948,15.6925535
node/1418408017,Wien Gersthof,halt,Ht H3,48.2308278,16.3290971
node/1418408040,Wien Krottenbachstraße,halt,Ht H2,48.2400603,16.3405928
node/1418408080,Wien Oberdöbling,halt,Ht H1,48.2440888,16.3440388
node/1418491819,Heiligenstadt,stop,4402,48.2481589,16.3655715
node/1418491823,Friedensbrücke,stop,4404,48.2277938,16.3638923
node/1418491847,Spittelau,stop,4440,48.2347834,16.3584975
node/1420029997,Weppersdorf-Kobersdorf,halt,Lch H1,47.5731009,16.4320202
node/1423284753,Wien Wolf in der Au,stop,2,48.2048267,16.2364091
node/1424286589,Kapellerfeld,stop,1,48.3169433,16.4950762
node/1424286613,Seyring,stop,1,48.3305522,16.5016831
node/1429066392,Obersee,halt,,47.591516,13.6658518
node/1429334585,St. Pantaleon,halt,1,48.2279474,14.5287302
node/1429372027,Mauer-Öhling,stop,2,48.094993,14.800857
node/1429379152,Krenstetten-Biberbach,stop,2,48.0550148,14.6986044
node/1432852825,Puchberg am Schneeberg,stop,,47.7905511,15.910473
node/1435056267,Bludenz,station,B,47.1547225,9.8148945
node/1435056512,Bludenz,stop,2,47.1547406,9.814971
node/1435056628,Bludenz,stop,21,47.1560935,9.8132959
node/1436297417,Pöham,stop,1,47.4302427,13.2549277
node/1437478468,Feuerwerksanstalt,stop,2,47.8487418,16.1892851
node/1438258506,Wöllersdorf,stop,1,47.8613207,16.1785612
node/1438260723,Puchberg am Schneeberg,stop,1,47.7903898,15.9105494
node/1438260724,Puchberg am Schneeberg,stop,2,47.7904264,15.9105323
node/1438260725,Puchberg am Schneeberg,stop,,47.7905071,15.9104883
node/1438317240,Feuerwerksanstalt,stop,1,47.8487369,16.1893697
node/1439265071,Scheiblingkirchen-Warth,stop,1,47.6622794,16.1310943
node/1439265074,Scheiblingkirchen-Warth,stop,2,47.6622927,16.1309902
node/1439734548,St. Egyden,stop,1,47.761046,16.1467513
node/1439764901,Bad Vöslau,stop,2,47.9695681,16.2240327
node/1439764902,Bad Vöslau,stop,3,47.969572,16.224158
node/1439764903,Leobersdorf,stop,1,47.938406,16.2308431
node/1439764904,Leobersdorf,stop,4,47.9384666,16.2312827
node/1440856966,Baden,stop,1,48.0040538,16.2427644
node/1440885694,Pfaffstätten,stop,1,48.0179708,16.2585439
node/1440898252,Hochzirl,stop,2,47.2810037,11.2499852
node/1444598846,Wien Atzgersdorf,stop,1,48.1469746,16.2885641
node/1444651148,Wien Liesing,stop,2,48.1348506,16.2841806
node/1444660812,Perchtoldsdorf,stop,2,48.123032,16.2855338
node/1444663942,Brunn-Maria Enzersdorf,stop,2,48.1052454,16.2881253
node/1444892489,Wien Haidestraße,stop,2,48.1787668,16.4262936
node/1446969470,Gumpoldskirchen,stop,1,48.0411493,16.2851045
node/1447006416,Mödling,stop,3,48.0858134,16.2957785
node/1447006417,Mödling,stop,4,48.0858564,16.2959237
node/1454193848,Gleisdorf,stop,,47.099247,15.7092942
node/1456164349,Neunkirchen NÖ,stop,3,47.7316156,16.085077
node/1461685365,Plank am Kamp,stop,2,48.5578633,15.6732462
node/1461685393,Plank am Kamp,stop,1,48.5578734,15.6733256
node/1468038818,Eben im Pongau,station,Ebn,47.4065308,13.3966095
node/1468892343,Wien Erzherzog-Karl-Straße,stop,4,48.2299661,16.4536662
node/1468921078,Mürzzuschlag,stop,11,47.607644,15.6787787
node/1470057713,Weyer an der Enns,stop,2,47.8618085,14.6672224
node/1474970103,Steinkogel,halt,1,47.7870895,13.7410863
node/1475372808,Gerasdorf,stop,1,48.2937242,16.4838696
node/1493203279,Sommerhubermühle,halt,,48.0062664,14.3030205
node/1493983457,Traisen,stop,2b,48.0569347,15.6123145
node/1494017545,Lilienfeld,stop,2,48.0137975,15.5930866
node/1494078429,Berndorf Stadt,halt,1,47.9448255,16.1086963
node/1494108483,Bad Fischau-Brunn,stop,1,47.8267804,16.1732544
node/1494115243,Winzendorf,stop,2,47.8110807,16.1115069
node/1495482636,Diepoltsdorf,stop,,48.0356043,12.8606413
node/1495482637,Ostermiething,stop,,48.0437255,12.8465767
node/1496727699,Gösing,stop,,47.8883057,15.2818211
node/1497725904,Absdorf-Hippersdorf,stop,4,48.4020888,15.9858754
node/1497726176,Absdorf-Hippersdorf,stop,2,48.4019686,15.9857506
node/1501275829,Eferding,stop,,48.3029713,14.0157934
node/1504316866,Schleinbach,stop,2,48.4222614,16.4897244
node/1525968820,Mautern im Liesingtal,stop,2,47.3967037,14.837075
node/1525968825,Niederöblarn,halt,1,47.4817894,14.0143323
node/1529325858,Bezau,station,,47.3820745,9.8963039
node/1536430297,Kirchberg an der Pielach,stop,,48.0241992,15.4326869
node/1537977858,Waidhofen/Ybbs Lokalbahn,stop,1,47.9558131,14.7788763
node/1562591082,Kundl,stop,1,47.4758141,11.9818333
node/1564975838,Hausleiten,stop,1,48.3913452,16.1073736
node/1565970424,Bergham Am Dürrweg,halt,1,48.2745343,14.2291733
node/1570802247,Stadion,stop,4266,48.210416,16.4203651
node/1570802254,Stadion,stop,,48.2104815,16.4205144
node/1583591380,Pram-Haag,station,Pra,48.2317958,13.6179793
node/1588202777,Lahrndorf,stop,,47.9948164,14.3737451
node/1589512963,Innsbruck Allerheiligenhöfe,halt,1,47.2691169,11.353456
node/1591134933,Groß Schweinbarth,stop,1,48.4179479,16.6404007
node/1593974298,Salzburg Gnigl,stop,2,47.8118831,13.066258
node/1603329032,Flachgau,stop,,47.7509661,12.947364
node/1604822888,Volders-Baumkirchen,stop,1,47.2959612,11.5639588
node/1606447022,Wien Gutheil-Schoder-Gasse,stop,1,48.1593952,16.3357608
node/1626816322,Wien Praterstern,stop,1,48.2189801,16.3917596
node/1631811731,Wien Gutheil-Schoder-Gasse,stop,2,48.1591732,16.3357723
node/1637332879,Lendorf,halt,1,46.8275617,13.4187349
node/1637349437,Steinfeld im Drautal,stop,1,46.7528484,13.259942
node/1637349455,Steinfeld im Drautal,station,Std,46.7526829,13.2597578
node/1637359543,Berg im Drautal,halt,1,46.7423944,13.1277543
node/1637364607,Dellach im Drautal,stop,2,46.735747,13.075427
node/1637376299,Irschen,halt,1,46.7405444,13.0133714
node/1637402800,Oberdrauburg,stop,2,46.746302,12.9738211
node/1638304056,Möllbrücke-Sachsenburg,station,Ssn,46.8309989,13.3673077
node/1638351130,Markt Sachsenburg,halt,1,46.8258288,13.3481107
node/1638503127,Kleblach-Lind,stop,2,46.7708281,13.3415145
node/1638682924,Puch,stop,1,46.6629964,13.7600853
node/1638682928,Weißenstein-Kellerberg,halt,2,46.6794838,13.7198976
node/1639054887,St. Georgen am Längsee,stop,2,46.7618501,14.4230299
node/1639204443,Passering,stop,1,46.8068474,14.4696707
node/1639228830,Kappel am Krappfeld,stop,1,46.8378285,14.4754839
node/1639256996,Treibach-Althofen,stop,3,46.8685523,14.465596
node/1639419646,Dölsach,stop,2,46.8147482,12.8335425
node/1639419661,Nikolsdorf,halt,1,46.7791899,12.8950332
node/1640908095,Lienz,stop,2,46.8284307,12.77136
node/1642340758,Mittewald a. d. Drau,stop,2,46.7693752,12.5937827
node/1642768928,Wolfsberg,stop,1,46.842099,14.8386133
node/1642783766,Markt Paternion,halt,2,46.7257369,13.6415951
node/1643811336,Glaslbremse,stop,,47.5118125,14.9780602
node/1644070445,Friesach,stop,1,46.9534991,14.4104234
node/1646009150,St. Valentin,stop,5,48.1788635,14.5215217
node/1652534255,Dölsach,stop,1,46.8148265,12.8335883
node/1664649067,Atzenbrugg,halt,1,48.2973379,15.917759
node/1664649068,Moosbierbaum-Heiligeneich,stop,2,48.305818,15.9012472
node/1664649099,Trasdorf,halt,1,48.3150602,15.880467
node/1669073051,Gänserndorf,stop,4,48.3404272,16.7327591
node/1669073052,Gänserndorf,stop,11,48.3408018,16.7353391
node/1674493331,Salzburg Aiglhof,stop,2,47.8078804,13.0262407
node/1676355851,Bleiburg/Pliberk,stop,1,46.5742529,14.7865414
node/1676761568,Katzelsdorf,halt,1,47.7927714,16.2667535
node/1679697253,Neumarkt in Steiermark,stop,1,47.0736233,14.4147731
node/1682424192,Hallein,stop,2,47.6851647,13.0994247
node/1682433018,Hallein Burgfried,stop,2,47.6757911,13.1144495
node/1682892987,Puch Urstein,stop,2,47.7241122,13.0881398
node/1682893024,Puch bei Hallein,stop,2,47.7129704,13.0905961
node/1684036704,Serfaus Parkplatz,stop,,47.0383429,10.6137583
node/1687228828,Bad Vigaun,stop,2,47.6646138,13.1242432
node/1687245092,Kuchl Garnei,stop,2,47.6516278,13.1282702
node/1687275160,Kuchl,stop,1,47.6258992,13.1415217
node/1687288131,Golling-Abtenau,stop,3,47.6007886,13.1639923
node/1697455331,Theresienfeld,stop,1,47.8606934,16.2440821
node/1697667277,Stockerau,stop,1,48.3823824,16.2134334
node/1700259724,Schwarzach-St. Veit,stop,1,47.3186522,13.1547633
node/1706655864,Göpfritz,stop,1,48.7297185,15.3947084
node/1707891865,Frättingsdorf,stop,1,48.642601,16.5132396
node/1707903909,Enzersdorf bei Staatz,stop,2,48.6728565,16.5110102
node/1708053429,Mistelbach,stop,1,48.5658305,16.5643091
node/1709354528,Maria Ellend,stop,1,48.1098225,16.6885253
node/1709526185,Bad Erlach,stop,1,47.7312002,16.211256
node/1713828990,Bad Vigaun,stop,1,47.6637427,13.1240138
node/1715101712,Maria Saal,stop,3,46.6826954,14.3393338
node/1717872249,Götzendorf an der Leitha,stop,1,48.0256074,16.5863215
node/1717872297,Götzendorf an der Leitha,stop,2,48.025693,16.5863259
node/1717872337,Götzendorf an der Leitha,stop,4,48.0258194,16.5863303
node/1718395779,Bleiburg/Pliberk,stop,3,46.5741322,14.7864794
node/1719390797,Grafenstein,stop,2,46.6190912,14.4594955
node/1719593578,Pernitz-Muggendorf,stop,1,47.8958252,15.9577304
node/1723138679,Sattledt,stop,,48.0741045,14.0579369
node/1723265606,Steinbachbrücke,stop,,47.9323391,13.9930745
node/1723595371,Rohr-Bad Hall,stop,1,48.0696834,14.1915739
node/1724157038,Kalwang,stop,2,47.4236295,14.7481495
node/1724162894,Musau,halt,1,47.5315132,10.6727584
node/1725336119,Loich,station,,48.0119817,15.3920021
node/1728467702,Walsberg,stop,,47.9570916,13.4730213
node/1728498408,Hipping,halt,,47.9506921,13.4720578
node/1728517030,Walsberg,stop,,47.9573386,13.4730278
node/1728545529,St. Georgen im Attergau Thern,halt,1,47.9298561,13.5002263
node/1728545535,St. Georgen im Attergau Seniorenheim,halt,,47.9341632,13.4935729
node/1731695251,Baden,stop,2,48.0040333,16.2428136
node/1731709171,Baden Josefsplatz,stop,,48.0058508,16.233754
node/1733368985,Furth-Palt,stop,1,48.384551,15.6057217
node/1733589686,Loosdorf,stop,1,48.1947788,15.4048682
node/1733615216,Groß Sierning,stop,2,48.1881136,15.458159
node/1733615234,Groß Sierning,stop,1,48.187899,15.458169
node/1737685494,Spittal-Millstättersee,stop,5,46.7956938,13.4873845
node/1737685526,Spittal-Millstättersee,stop,3,46.795747,13.4875699
node/1737685528,Spittal-Millstättersee,stop,1,46.7957962,13.4877506
node/1739713821,Michelhausen,halt,1,48.296478,15.9340286
node/1739809182,Unter Tullnerbach,stop,1,48.1916442,16.1281001
node/1740706778,Maria Anzbach,stop,2,48.186936,15.9373274
node/1740822565,Hütteldorf,stop,4401,48.1969024,16.2608061
node/1740850471,Wien Hernals,halt,Hns,48.2232527,16.3148455
node/1740850473,Wien Ottakring,stop,2,48.2118153,16.311159
node/1742868858,Stadt Rottenmann,stop,2,47.5278675,14.3647258
node/1747390770,Oberolberndorf,halt,1,48.4137474,16.1740197
node/1747390793,Sierndorf,stop,2,48.4285002,16.1748555
node/1747578410,Schönborn-Mallebarn,halt,1,48.4685552,16.1591147
node/1748965463,Hollabrunn,stop,3,48.5629029,16.0722262
node/1752780905,Hetzmannsdorf-Wullersdorf,stop,2,48.6171583,16.0915807
node/1752780997,Hetzmannsdorf-Wullersdorf,stop,1,48.6171682,16.0917151
node/1752930218,Leumühle,stop,Efd H2,48.3220113,14.0102712
node/1754813888,Guntersdorf,stop,1,48.6422859,16.0537365
node/1758655616,Steinhaus am Semmering,stop,2,47.6208539,15.7837206
node/1768001961,Hall in Tirol,stop,2,47.2769896,11.5012436
node/1769448198,Schaftenau,stop,1,47.5587689,12.1253421
node/1769778367,Münster-Wiesing,stop,1,47.4035369,11.8203771
node/1770760597,Spital am Pyhrn,stop,1,47.6733215,14.3474196
node/1770808981,Innsbruck Westbf,stop,1,47.2555923,11.3911706
node/1770824767,Kirchdorf an der Krems,stop,3,47.9065556,14.1161013
node/1772970174,Wien Praterkai,stop,2,48.1996637,16.4413105
node/1772970220,Wien Simmering,halt,Wbf H1,48.1700397,16.4195311
node/1772991810,Wien Haidestraße,stop,1,48.1787974,16.4261982
node/1774202634,Wien Erzherzog-Karl-Straße,stop,1,48.2301419,16.4531132
node/1775174475,Krems a. d. Donau,stop,2A,48.4091947,15.6054066
node/1775537146,Wien Penzing,station,Pz,48.1926935,16.3048931
node/1775537150,Wien Hadersdorf,stop,2,48.2104247,16.2231314
node/1775537151,Wien Hütteldorf,stop,6,48.1971626,16.2611936
node/1775537152,Wien Hütteldorf,stop,4,48.1973075,16.2612579
node/1775537153,Wien Hütteldorf,stop,3,48.197409,16.2613147
node/1775537154,Wien Hütteldorf,stop,1,48.1974927,16.2613546
node/1775537155,Wien Weidlingau,stop,2,48.2104846,16.2121778
node/1780444747,Lenzing,stop,,47.983111,13.6136496
node/1790572908,Wien Blumental,stop,2,48.1396157,16.3694655
node/1797957981,Katzendorf,halt,Gna H1,46.8820364,15.8531228
node/1797958076,Burgfried,halt,Fb H5A,46.8948956,15.8342121
node/1800317595,Wien Liesing,stop,3,48.1348398,16.2843461
node/1800377828,Traxenbichl,stop,,47.8769872,13.938405
node/1804303390,Mallnitz-Obervellach,stop,,46.9809226,13.1768757
node/1812299596,Maria Enzersdorf-Südstadt,stop,,48.0962918,16.3147823
node/1812299737,Vösendorf Schönbrunner Allee,stop,,48.1356198,16.3249719
node/1812299740,Vösendorf Shopping City Süd,stop,,48.1116625,16.3156325
node/1812299745,Vösendorf-Siebenhirten,stop,,48.1257713,16.3193851
node/1812299748,Wiener Neudorf,stop,,48.0873061,16.3140622
node/1814239443,Baden Josefsplatz,stop,,48.0058609,16.2337911
node/1814239488,Guntramsdorf Lokalbahn,stop,,48.048658,16.3123528
node/1814239491,Baden Melkergründe,stop,,48.0035596,16.2583915
node/1814239492,Möllersdorf,stop,,48.0278032,16.3001758
node/1814239496,Eigenheimsiedlung,stop,,48.0395408,16.3041696
node/1814239499,Neu Guntramsdorf,stop,,48.063941,16.3137776
node/1814239502,Pfaffstätten Rennplatz,stop,,48.0082937,16.26134
node/1814239522,Baden Landesklinikum,stop,,47.9995527,16.2559458
node/1814239993,Traiskirchen Lokalbahn,stop,,48.0153413,16.2907647
node/1814239994,Tribuswinkel-Josefsthal,stop,,48.0078246,16.2696763
node/1820314345,Tullnerfeld,stop,1,48.29497,15.9964943
node/1820314349,Tullnerfeld,stop,2,48.2950661,15.9965011
node/1820314352,Tullnerfeld,stop,3,48.2952181,15.9965119
node/1820314357,Tullnerfeld,stop,4,48.2953259,15.9965196
node/1832184777,Wien Meidling,stop,2,48.1747126,16.3339201
node/1832826183,Götzis,stop,3,47.3367659,9.6365736
node/1834036369,Wien Strebersdorf,stop,1,48.2858951,16.3812358
node/1834448321,Trieben,stop,2,47.4890201,14.4900871
node/1835269434,Angern an der March,stop,1,48.3847232,16.8265487
node/1839708030,Frastanz,stop,3,47.2200122,9.6389155
node/1839787468,Wien Hauptbahnhof,stop,9,48.1848323,16.3778938
node/1839787470,Wien Hauptbahnhof,station,Wbf,48.1849883,16.3779391
node/1843184816,Neudorf,halt,,46.8723166,15.312204
node/1843184856,Herbersdorf,halt,,46.877514,15.2984435
node/1845139766,Steyregg,stop,1,48.2846379,14.3611785
node/1850083997,Haiming,stop,1,47.2527952,10.8896755
node/1850114599,Telfs-Pfaffenhofen,stop,1,47.3005954,11.0787164
