uri,uri_canonical,id,name,lat,lon,op_type,op_type_label,country,op_type_code,op_type_name
http://data.europa.eu/949/functionalInfrastructure/operationalPoints/0030b8d6b764807344a9a2dd4e529db902cb2a59,http://data.europa.eu/949/functionalInfrastructure/operationalPoints/BG24005,BG24005,STRAZHITSA,43.2171,25.9548,http://data.europa.eu/949/concepts/op-types/rinf/10,10,http://publications.europa.eu/resource/authority/country/BGR,10,station
http://data.europa.eu/949/functionalInfrastructure/operationalPoints/00e5ac4ed280b649aa4d14e3784e1ae0817f5f98,http://data.europa.eu/949/functionalInfrastructure/operationalPoints/BG41001,BG41001,DIMITROVGRAD SEVER,42.0713,25.5734,http://data.europa.eu/949/concepts/op-types/rinf/10,10,http://publications.europa.eu/resource/authority/country/BGR,10,station
http://data.europa.eu/949/functionalInfrastructure/operationalPoints/00fa019c1ce0ad7da2ab28b4793d2ce652ba5db5,http://data.europa.eu/949/functionalInfrastructure/operationalPoints/BG56055,BG56055,DAMYANITSA,41.5048,23.2701,http://data.europa.eu/949/concepts/op-types/rinf/20,20,http://publications.europa.eu/resource/authority/country/BGR,20,small station
http://data.europa.eu/949/functionalInfrastructure/operationalPoints/0278d500c47e7a40278c2c75d29bf2b13bb0d2b5,http://data.europa.eu/949/functionalInfrastructure/operationalPoints/BG11020,BG11020,VOLUYAK,42.7546,23.2448,http://data.europa.eu/949/concepts/op-types/rinf/80,80,http://publications.europa.eu/resource/authority/country/BGR,80,junction
http://data.europa.eu/949/functionalInfrastructure/operationalPoints/06fca31113018a6f0defc9ca57837d7aff8bdc54,http://data.europa.eu/949/functionalInfrastructure/operationalPoints/BG27320,BG27320,TROYAN,42.8811,24.7139,http://data.europa.eu/949/concepts/op-types/rinf/10,10,http://publications.europa.eu/resource/authority/country/BGR,10,station
http://data.europa.eu/949/functionalInfrastructure/operationalPoints/08e40da5bcd5b7be596eac855e03d5e49421d768,http://data.europa.eu/949/functionalInfrastructure/operationalPoints/BG56002,BG56002,BATANOVTSI,42.5956,22.9535,http://data.europa.eu/949/concepts/op-types/rinf/80,80,http://publications.europa.eu/resource/authority/country/BGR,80,junction
http://data.europa.eu/949/functionalInfrastructure/operationalPoints/08f15f6789d00041ce27d8d6580390a3b6b67f1c,http://data.europa.eu/949/functionalInfrastructure/operationalPoints/BG16005,BG16005,ISKAR,42.6646,23.4127,http://data.europa.eu/949/concepts/op-types/rinf/10,10,http://publications.europa.eu/resource/authority/country/BGR,10,station
http://data.europa.eu/949/functionalInfrastructure/operationalPoints/09466bcbf1d437af645de3f0c069ca55633db1a7,http://data.europa.eu/949/functionalInfrastructure/operationalPoints/BG23020,BG23020,ELISEYNA,43.0822,23.5055,http://data.europa.eu/949/concepts/op-types/rinf/20,20,http://publications.europa.eu/resource/authority/country/BGR,20,small station
http://data.europa.eu/949/functionalInfrastructure/operationalPoints/0a9d6d6b4f6f448684d1d8aa0bdfd4543e448599,http://data.europa.eu/949/functionalInfrastructure/operationalPoints/BG34004,BG34004,GURKOVO,42.6539,25.8143,http://data.europa.eu/949/concepts/op-types/rinf/20,20,http://publications.europa.eu/resource/authority/country/BGR,20,small station
http://data.europa.eu/949/functionalInfrastructure/operationalPoints/0dfad336f6aaf93b147382a0a65312121b638a1e,http://data.europa.eu/949/functionalInfrastructure/operationalPoints/BG32007,BG32007,YANA,42.7262,23.5513,http://data.europa.eu/949/concepts/op-types/rinf/10,10,http://publications.europa.eu/resource/authority/country/BGR,10,station
http://data.europa.eu/949/functionalInfrastructure/operationalPoints/0eee061d88b3ac31f0a281a65716eb496611ecde,http://data.europa.eu/949/functionalInfrastructure/operationalPoints/BG42022,BG42022,DVE MOGILI,43.5884,25.8727,http://data.europa.eu/949/concepts/op-types/rinf/20,20,http://publications.europa.eu/resource/authority/country/BGR,20,small station
http://data.europa.eu/949/functionalInfrastructure/operationalPoints/101a2ef953dd2dba2d97b04a34af21327a8ec8ed,http://data.europa.eu/949/functionalInfrastructure/operationalPoints/BG72102,BG72102,MONTANA,43.4083,23.23,http://data.europa.eu/949/concepts/op-types/rinf/10,10,http://publications.europa.eu/resource/authority/country/BGR,10,station
http://data.europa.eu/949/functionalInfrastructure/operationalPoints/10dffc51d3d93505955d2e9820e17c03515b7240,http://data.europa.eu/949/functionalInfrastructure/operationalPoints/BG32056,BG32056,KAZANLAK,42.614,25.393,http://data.europa.eu/949/concepts/op-types/rinf/10,10,http://publications.europa.eu/resource/authority/country/BGR,10,station
http://data.europa.eu/949/functionalInfrastructure/operationalPoints/10f23a0fc6554431d73dc53308b28dfe6eda7b43,http://data.europa.eu/949/functionalInfrastructure/operationalPoints/BG38001,BG38001,STRALDZHA,42.5924,26.6886,http://data.europa.eu/949/concepts/op-types/rinf/10,10,http://publications.europa.eu/resource/authority/country/BGR,10,station
http://data.europa.eu/949/functionalInfrastructure/operationalPoints/124d1d906a9a447d3b709d5867e6d2a9559faa25,http://data.europa.eu/949/functionalInfrastructure/operationalPoints/BG23010,BG23010,SVOGE,42.9601,23.3494,http://data.europa.eu/949/concepts/op-types/rinf/20,20,http://publications.europa.eu/resource/authority/country/BGR,20,small station
http://data.europa.eu/949/functionalInfrastructure/operationalPoints/12f16b95ee6d6d9d6d5fc361d9ef2d4140ca287c,http://data.europa.eu/949/functionalInfrastructure/operationalPoints/BG56210,BG56210,PETRICH,41.4082,23.2066,http://data.europa.eu/949/concepts/op-types/rinf/20,20,http://publications.europa.eu/resource/authority/country/BGR,20,small station
http://data.europa.eu/949/functionalInfrastructure/operationalPoints/131805b6b1ef88a13e5c9d9342aa846ee5ff9bf2,http://data.europa.eu/949/functionalInfrastructure/operationalPoints/BG72021,BG72021,MARCHEVO,43.5158,23.3396,http://data.europa.eu/949/concepts/op-types/rinf/20,20,http://publications.europa.eu/resource/authority/country/BGR,20,small station
http://data.europa.eu/949/functionalInfrastructure/operationalPoints/14fd47564cc7806a2d4d752bf278d544e1ca9f02,http://data.europa.eu/949/functionalInfrastructure/operationalPoints/BG56043,BG56043,SIMITLI,41.8843,23.107,http://data.europa.eu/949/concepts/op-types/rinf/20,20,http://publications.europa.eu/resource/authority/country/BGR,20,small station
http://data.europa.eu/949/functionalInfrastructure/operationalPoints/16a6ca79b5d7267885a6c482422b5ddf147620d2,http://data.europa.eu/949/functionalInfrastructure/operationalPoints/BG32030,BG32030,HRISTO DANOVO,42.7128,24.6075,http://data.europa.eu/949/concepts/op-types/rinf/20,20,http://publications.europa.eu/resource/authority/country/BGR,20,small station
http://data.europa.eu/949/functionalInfrastructure/operationalPoints/172d0499d8d4fb950404261bfb5d1878bc3470b1,http://data.europa.eu/949/functionalInfrastructure/operationalPoints/BG32010,BG32010,STOLNIK,42.7055,23.6322,http://data.europa.eu/949/concepts/op-types/rinf/10,10,http://publications.europa.eu/resource/authority/country/BGR,10,station
http://data.europa.eu/949/functionalInfrastructure/operationalPoints/181bae7db42a6bc4e651f385ebbf73097eec42c5,http://data.europa.eu/949/functionalInfrastructure/operationalPoints/BG84014,BG84014,BEZMER,42.4602,26.3875,http://data.europa.eu/949/concepts/op-types/rinf/20,20,http://publications.europa.eu/resource/authority/country/BGR,20,small station
http://data.europa.eu/949/functionalInfrastructure/operationalPoints/1988ee4b9910af7df6d297f216a553646bfb77c5,http://data.europa.eu/949/functionalInfrastructure/operationalPoints/BG32005,BG32005,KREMIKOVTCI,42.7516,23.4856,http://data.europa.eu/949/concepts/op-types/rinf/10,10,http://publications.europa.eu/resource/authority/country/BGR,10,station
http://data.europa.eu/949/functionalInfrastructure/operationalPoints/1a1f85623f63fbfef37d5d6e926952ccffb96965,http://data.europa.eu/949/functionalInfrastructure/operationalPoints/BG27048,BG27048,POLIKRAJSHTE,43.1675,25.6201,http://data.europa.eu/949/concepts/op-types/rinf/80,80,http://publications.europa.eu/resource/authority/country/BGR,80,junction
http://data.europa.eu/949/functionalInfrastructure/operationalPoints/1a3f97468c78255900c8732cf11517f0b7866672,http://data.europa.eu/949/functionalInfrastructure/operationalPoints/BG18005,BG18005,POPOVICA,42.1385,25.0606,http://data.europa.eu/949/concepts/op-types/rinf/10,10,http://publications.europa.eu/resource/authority/country/BGR,10,station
http://data.europa.eu/949/functionalInfrastructure/operationalPoints/1ad55af305f36c63270d29516027c80b72064c9a,http://data.europa.eu/949/functionalInfrastructure/operationalPoints/BG32013,BG32013,SARANTSI,42.7156,23.7567,http://data.europa.eu/949/concepts/op-types/rinf/20,20,http://publications.europa.eu/resource/authority/country/BGR,20,small station
http://data.europa.eu/949/functionalInfrastructure/operationalPoints/1bbb9438535ec7d5049f52fc2609be5a1d4644b3,http://data.europa.eu/949/functionalInfrastructure/operationalPoints/BG32046,BG32046,TAZHA,42.6392,25.0903,http://data.europa.eu/949/concepts/op-types/rinf/20,20,http://publications.europa.eu/resource/authority/country/BGR,20,small station
http://data.europa.eu/949/functionalInfrastructure/operationalPoints/1fcef3dcbd6d0c08086eea88c50e6045689d8de0,http://data.europa.eu/949/functionalInfrastructure/operationalPoints/BG56030,BG56030,DUPNITSA,42.2603,23.1036,http://data.europa.eu/949/concepts/op-types/rinf/10,10,http://publications.europa.eu/resource/authority/country/BGR,10,station
http://data.europa.eu/949/functionalInfrastructure/operationalPoints/23213533dcd4ff6682c76fa6951e1f2f10cd20bd,http://data.europa.eu/949/functionalInfrastructure/operationalPoints/BG94001,BG94001,RUSE RAZPREDELITELNA,43.8578,25.9976,http://data.europa.eu/949/concepts/op-types/rinf/100,100,http://publications.europa.eu/resource/authority/country/BGR,100,shunting yard
http://data.europa.eu/949/functionalInfrastructure/operationalPoints/250dc72a1d37d784bed52ea5c5c8f7e843bd5a55,http://data.europa.eu/949/functionalInfrastructure/operationalPoints/BG86502,BG86502,SARAFOVO,42.5676,27.4929,http://data.europa.eu/949/concepts/op-types/rinf/20,20,http://publications.europa.eu/resource/authority/country/BGR,20,small station
http://data.europa.eu/949/functionalInfrastructure/operationalPoints/25e5e70da74f40db5e5c41199976138fb0647493,http://data.europa.eu/949/functionalInfrastructure/operationalPoints/BG43210,BG43210,GABROVO,42.8851,25.3169,http://data.europa.eu/949/concepts/op-types/rinf/20,20,http://publications.europa.eu/resource/authority/country/BGR,20,small station
http://data.europa.eu/949/functionalInfrastructure/operationalPoints/261ec48f7a17f42725206382b9376ea35cd8ea69,http://data.europa.eu/949/functionalInfrastructure/operationalPoints/BG16030,BG16030,KOSTENEC,42.308,23.8601,http://data.europa.eu/949/concepts/op-types/rinf/10,10,http://publications.europa.eu/resource/authority/country/BGR,10,station
http://data.europa.eu/949/functionalInfrastructure/operationalPoints/26289d2de28c76990a74a2ad578e8a8f5f8f3f6e,http://data.europa.eu/949/functionalInfrastructure/operationalPoints/BG72042,BG72042,DIMOVO,43.7359,22.722,http://data.europa.eu/949/concepts/op-types/rinf/20,20,http://publications.europa.eu/resource/authority/country/BGR,20,small station
http://data.europa.eu/949/functionalInfrastructure/operationalPoints/279cd65e7b9844c26de9a89a15b57681f8e5c3bc,http://data.europa.eu/949/functionalInfrastructure/operationalPoints/BG38013,BG38013,LOZAREVO,42.769,26.8875,http://data.europa.eu/949/concepts/op-types/rinf/10,10,http://publications.europa.eu/resource/authority/country/BGR,10,station
http://data.europa.eu/949/functionalInfrastructure/operationalPoints/27e956eecdc9c168c8e58e78dcf01c3d10d1fb84,http://data.europa.eu/949/functionalInfrastructure/operationalPoints/BG27022,BG27022,PLEVEN ZAPAD,43.43,24.5931,http://data.europa.eu/949/concepts/op-types/rinf/10,10,http://publications.europa.eu/resource/authority/country/BGR,10,station
http://data.europa.eu/949/functionalInfrastructure/operationalPoints/2934e8e918141fb8cdf03c3fa486138327488211,http://data.europa.eu/949/functionalInfrastructure/operationalPoints/BG23006,BG23006,REBROVO,42.899,23.3885,http://data.europa.eu/949/concepts/op-types/rinf/20,20,http://publications.europa.eu/resource/authority/country/BGR,20,small station
http://data.europa.eu/949/functionalInfrastructure/operationalPoints/2a6d4486f65917726231c2b2067ae674af8052da,http://data.europa.eu/949/functionalInfrastructure/operationalPoints/BG29030,BG29030,VARNA,43.1983,27.912,http://data.europa.eu/949/concepts/op-types/rinf/10,10,http://publications.europa.eu/resource/authority/country/BGR,10,station
http://data.europa.eu/949/functionalInfrastructure/operationalPoints/2db7a20c8b9ec3170188c45638b5e4e7a54af201,http://data.europa.eu/949/functionalInfrastructure/operationalPoints/BG27014,BG27014,TELISH,43.3306,24.2527,http://data.europa.eu/949/concepts/op-types/rinf/20,20,http://publications.europa.eu/resource/authority/country/BGR,20,small station
http://data.europa.eu/949/functionalInfrastructure/operationalPoints/30c5e2cb19d544838eb9515609c27a6ba669601c,http://data.europa.eu/949/functionalInfrastructure/operationalPoints/BG43026,BG43026,DEBELETS,43.0455,25.597,http://data.europa.eu/949/concepts/op-types/rinf/10,10,http://publications.europa.eu/resource/authority/country/BGR,10,station
http://data.europa.eu/949/functionalInfrastructure/operationalPoints/31f9d6a82ddb43fbe3eb361f0386c50ebe0b4654,http://data.europa.eu/949/functionalInfrastructure/operationalPoints/BG27010,BG27010,CHERVEN BRYAG,43.2822,24.0789,http://data.europa.eu/949/concepts/op-types/rinf/10,10,http://publications.europa.eu/resource/authority/country/BGR,10,station
http://data.europa.eu/949/functionalInfrastructure/operationalPoints/36ca8a7baa4ca5327caee174e03f0f62d9f60cbd,http://data.europa.eu/949/functionalInfrastructure/operationalPoints/BG44004,BG44004,MOMCHILGRAD,41.5265,25.4037,http://data.europa.eu/949/concepts/op-types/rinf/20,20,http://publications.europa.eu/resource/authority/country/BGR,20,small station
http://data.europa.eu/949/functionalInfrastructure/operationalPoints/36ff9ea221d9f28b6c4c3b90034a2608360b47a2,http://data.europa.eu/949/functionalInfrastructure/operationalPoints/BG27020,BG27020,YASEN,43.4342,24.5311,http://data.europa.eu/949/concepts/op-types/rinf/10,10,http://publications.europa.eu/resource/authority/country/BGR,10,station
http://data.europa.eu/949/functionalInfrastructure/operationalPoints/3894cc408fa8ecffa427789c31ff0206f01c9246,http://data.europa.eu/949/functionalInfrastructure/operationalPoints/BG83010,BG83010,AYTOS,42.6947,27.2463,http://data.europa.eu/949/concepts/op-types/rinf/20,20,http://publications.europa.eu/resource/authority/country/BGR,20,small station
http://data.europa.eu/949/functionalInfrastructure/operationalPoints/38cb162fb5d838b257a7b79007ad6a7005e39944,http://data.europa.eu/949/functionalInfrastructure/operationalPoints/BG24024,BG24024,TARGOVISHTE,43.2635,26.578,http://data.europa.eu/949/concepts/op-types/rinf/10,10,http://publications.europa.eu/resource/authority/country/BGR,10,station
http://data.europa.eu/949/functionalInfrastructure/operationalPoints/38e4dad580885d6c96ed92fb531dae5ce0b88596,http://data.europa.eu/949/functionalInfrastructure/operationalPoints/BG32052,BG32052,SAHRANE,42.6458,25.2231,http://data.europa.eu/949/concepts/op-types/rinf/20,20,http://publications.europa.eu/resource/authority/country/BGR,20,small station
http://data.europa.eu/949/functionalInfrastructure/operationalPoints/3b51a455b31ca4aa72b061286c4525539a99062d,http://data.europa.eu/949/functionalInfrastructure/operationalPoints/BG32023,BG32023,KOPRIVSHTITSA,42.70077,24.33916,http://data.europa.eu/949/concepts/op-types/rinf/20,20,http://publications.europa.eu/resource/authority/country/BGR,20,small station
http://data.europa.eu/949/functionalInfrastructure/operationalPoints/3c1b634b5c3964da40a773f10891378b7bc760b4,http://data.europa.eu/949/functionalInfrastructure/operationalPoints/BG56036,BG56036,KOCHERINOVO,42.0808,23.0376,http://data.europa.eu/949/concepts/op-types/rinf/20,20,http://publications.europa.eu/resource/authority/country/BGR,20,small station
http://data.europa.eu/949/functionalInfrastructure/operationalPoints/3c62a924ef497a642b97669427be11dd399326a1,http://data.europa.eu/949/functionalInfrastructure/operationalPoints/BG56021,BG56021,DELYAN,42.3875,23.1094,http://data.europa.eu/949/concepts/op-types/rinf/20,20,http://publications.europa.eu/resource/authority/country/BGR,20,small station
http://data.europa.eu/949/functionalInfrastructure/operationalPoints/3c6d3ed457dcb49a4af3f0cd588ae8e1960a076f,http://data.europa.eu/949/functionalInfrastructure/operationalPoints/BG42010,BG42010,POLSKI TRAMBESH,43.3704,25.6343,http://data.europa.eu/949/concepts/op-types/rinf/20,20,http://publications.europa.eu/resource/authority/country/BGR,20,small station
http://data.europa.eu/949/functionalInfrastructure/operationalPoints/3d5010d243437ee0a1e592d4f6cf0712b01eef5a,http://data.europa.eu/949/functionalInfrastructure/operationalPoints/BG16024,BG16024,IHTIMAN,42.4296,23.7988,http://data.europa.eu/949/concepts/op-types/rinf/10,10,http://publications.europa.eu/resource/authority/country/BGR,10,station
http://data.europa.eu/949/functionalInfrastructure/operationalPoints/3ed25ea4c0f5b9d617432224c7548c77d45ea3e8,http://data.europa.eu/949/functionalInfrastructure/operationalPoints/BG56060,BG56060,KULATA,41.3914,23.3616,http://data.europa.eu/949/concepts/op-types/rinf/10,10,http://publications.europa.eu/resource/authority/country/BGR,10,station
http://data.europa.eu/949/functionalInfrastructure/operationalPoints/41266e5776a78612e39535287a2510a9035559a7,http://data.europa.eu/949/functionalInfrastructure/operationalPoints/BG32020,BG32020,ZLATITSA,42.7161,24.1266,http://data.europa.eu/949/concepts/op-types/rinf/10,10,http://publications.europa.eu/resource/authority/country/BGR,10,station
http://data.europa.eu/949/functionalInfrastructure/operationalPoints/43dc627387a71bb4d978caef35e1a2f65b80934c,http://data.europa.eu/949/functionalInfrastructure/operationalPoints/BG56044,BG56044,CHERNICHE,41.8601,23.1288,http://data.europa.eu/949/concepts/op-types/rinf/20,20,http://publications.europa.eu/resource/authority/country/BGR,20,small station
http://data.europa.eu/949/functionalInfrastructure/operationalPoints/43f2ce3d5a0e2fe74e01d70ae37fc8068110996b,http://data.europa.eu/949/functionalInfrastructure/operationalPoints/BG16043,BG16043,PAZARDZHIK,42.17,24.3208,http://data.europa.eu/949/concepts/op-types/rinf/10,10,http://publications.europa.eu/resource/authority/country/BGR,10,station
http://data.europa.eu/949/functionalInfrastructure/operationalPoints/441dcba553d6e3bfd2f2a6780318745f1729a440,http://data.europa.eu/949/functionalInfrastructure/operationalPoints/BG29711,BG29711,DOBRICH SEVER,43.5916,27.84,http://data.europa.eu/949/concepts/op-types/rinf/20,20,http://publications.europa.eu/resource/authority/country/BGR,20,small station
http://data.europa.eu/949/functionalInfrastructure/operationalPoints/46bf70cb31e8dfb048fcdf2d5e39fb0867683db4,http://data.europa.eu/949/functionalInfrastructure/operationalPoints/BG14013,BG14013,HARMANLI,41.9227,25.9239,http://data.europa.eu/949/concepts/op-types/rinf/20,20,http://publications.europa.eu/resource/authority/country/BGR,20,small station
http://data.europa.eu/949/functionalInfrastructure/operationalPoints/47b69bd971d16a13e19e84bc09722d47442ea27a,http://data.europa.eu/949/functionalInfrastructure/operationalPoints/BG56034,BG56034,BOBOSHEVO,42.1584,23.0375,http://data.europa.eu/949/concepts/op-types/rinf/20,20,http://publications.europa.eu/resource/authority/country/BGR,20,small station
http://data.europa.eu/949/functionalInfrastructure/operationalPoints/482f6434942a5bd53ad95d50a04dc94dd3699019,http://data.europa.eu/949/functionalInfrastructure/operationalPoints/BG38032,BG38032,DALGOPOL,43.0481,27.3411,http://data.europa.eu/949/concepts/op-types/rinf/10,10,http://publications.europa.eu/resource/authority/country/BGR,10,station
http://data.europa.eu/949/functionalInfrastructure/operationalPoints/4b6561d937e83c8aa94afe2285934bba5df20cb0,http://data.europa.eu/949/functionalInfrastructure/operationalPoints/BG27016,BG27016,DOLNI DABNIK,43.4141,24.4295,http://data.europa.eu/949/concepts/op-types/rinf/20,20,http://publications.europa.eu/resource/authority/country/BGR,20,small station
http://data.europa.eu/949/functionalInfrastructure/operationalPoints/4bd7c4d6435a51d3374db6a5f68e007a42f3f705,http://data.europa.eu/949/functionalInfrastructure/operationalPoints/BG48010,BG48010,STARA ZAGORA,42.4162,25.6294,http://data.europa.eu/949/concepts/op-types/rinf/10,10,http://publications.europa.eu/resource/authority/country/BGR,10,station
http://data.europa.eu/949/functionalInfrastructure/operationalPoints/4c086adb21c8a76059acbb44414eba89978d3ae8,http://data.europa.eu/949/functionalInfrastructure/operationalPoints/BG48011,BG48011,ZMEJOVO,42.4988,25.5961,http://data.europa.eu/949/concepts/op-types/rinf/20,20,http://publications.europa.eu/resource/authority/country/BGR,20,small station
http://data.europa.eu/949/functionalInfrastructure/operationalPoints/4c5f13596b0f810a1dcf6f836ec7414922fe090f,http://data.europa.eu/949/functionalInfrastructure/operationalPoints/BG94020,BG94020,SAMUIL,43.5124,26.7391,http://data.europa.eu/949/concepts/op-types/rinf/80,80,http://publications.europa.eu/resource/authority/country/BGR,80,junction
http://data.europa.eu/949/functionalInfrastructure/operationalPoints/4cde1ab1284712b962d17bc8a96eb8a2b07f9abc,http://data.europa.eu/949/functionalInfrastructure/operationalPoints/BG41003,BG41003,MERICHLERI,42.1214,25.4911,http://data.europa.eu/949/concepts/op-types/rinf/20,20,http://publications.europa.eu/resource/authority/country/BGR,20,small station
http://data.europa.eu/949/functionalInfrastructure/operationalPoints/4dd5d8480dca28798a85f64a37f71cdb3e12f073,http://data.europa.eu/949/functionalInfrastructure/operationalPoints/BG29025,BG29025,BELOSLAV,43.1988,27.7062,http://data.europa.eu/949/concepts/op-types/rinf/10,10,http://publications.europa.eu/resource/authority/country/BGR,10,station
http://data.europa.eu/949/functionalInfrastructure/operationalPoints/4eef4a40560bc826d7ed628654301893f3329450,http://data.europa.eu/949/functionalInfrastructure/operationalPoints/BG94013,BG94013,RAZGRAD,43.5673,26.5093,http://data.europa.eu/949/concepts/op-types/rinf/10,10,http://publications.europa.eu/resource/authority/country/BGR,10,station
http://data.europa.eu/949/functionalInfrastructure/operationalPoints/50cfc232a7e2f92e4743c7f7407553d44c834e24,http://data.europa.eu/949/functionalInfrastructure/operationalPoints/BG42102,BG42102,Lyaskovets,43.11,25.7217,http://data.europa.eu/949/concepts/op-types/rinf/40,40,http://publications.europa.eu/resource/authority/country/BGR,40,freight terminal
http://data.europa.eu/949/functionalInfrastructure/operationalPoints/51bf84444191a0330be76148070d910c18ccf3c8,http://data.europa.eu/949/functionalInfrastructure/operationalPoints/BG65012,BG65012,RAZHDAVICA,42.3797,22.7069,http://data.europa.eu/949/concepts/op-types/rinf/20,20,http://publications.europa.eu/resource/authority/country/BGR,20,small station
http://data.europa.eu/949/functionalInfrastructure/operationalPoints/52aba32d8872515ca2e334a9f25b004751d14d86,http://data.europa.eu/949/functionalInfrastructure/operationalPoints/BG94130,BG94130,SILISTRA,44.1137,27.2505,http://data.europa.eu/949/concepts/op-types/rinf/10,10,http://publications.europa.eu/resource/authority/country/BGR,10,station
http://data.europa.eu/949/functionalInfrastructure/operationalPoints/549a4ca13d8f97dcb91e8eeef07154446b238bd4,http://data.europa.eu/949/functionalInfrastructure/operationalPoints/BG32021,BG32021,PIRDOP,42.7101,24.1738,http://data.europa.eu/949/concepts/op-types/rinf/10,10,http://publications.europa.eu/resource/authority/country/BGR,10,station
http://data.europa.eu/949/functionalInfrastructure/operationalPoints/59bf4f21e6c61934f6fa20541f43c421cdfa8a0a,http://data.europa.eu/949/functionalInfrastructure/operationalPoints/BG56056,BG56056,GENERAL TODOROV,41.4559,23.2805,http://data.europa.eu/949/concepts/op-types/rinf/10,10,http://publications.europa.eu/resource/authority/country/BGR,10,station
http://data.europa.eu/949/functionalInfrastructure/operationalPoints/5a369ab558431124a5dfd8193454118c354fc6fd,http://data.europa.eu/949/functionalInfrastructure/operationalPoints/BG56040,BG56040,BLAGOEVGRAD,42.0136,23.0851,http://data.europa.eu/949/concepts/op-types/rinf/10,10,http://publications.europa.eu/resource/authority/country/BGR,10,station
http://data.europa.eu/949/functionalInfrastructure/operationalPoints/5bbabc51e1ed174a6e54f4cfa82c45c254141ca8,http://data.europa.eu/949/functionalInfrastructure/operationalPoints/BG27040,BG27040,LEVSKI,43.3513,25.1431,http://data.europa.eu/949/concepts/op-types/rinf/80,80,http://publications.europa.eu/resource/authority/country/BGR,80,junction
http://data.europa.eu/949/functionalInfrastructure/operationalPoints/5c216193c0d9350c1e0e3f4c1390f50daabe89d2,http://data.europa.eu/949/functionalInfrastructure/operationalPoints/BG44033,BG44033,HASKOVO,41.9331,25.5799,http://data.europa.eu/949/concepts/op-types/rinf/20,20,http://publications.europa.eu/resource/authority/country/BGR,20,small station
http://data.europa.eu/949/functionalInfrastructure/operationalPoints/5c4dfd89d72485b5dc1728dd578851cf81067755,http://data.europa.eu/949/functionalInfrastructure/operationalPoints/BG16000,BG16000,SOFIA,42.7122,23.3212,http://data.europa.eu/949/concepts/op-types/rinf/30,30,http://publications.europa.eu/resource/authority/country/BGR,30,passenger terminal
http://data.europa.eu/949/functionalInfrastructure/operationalPoints/5d0c77f007ee44bf4b3ff190fb4e80839f65e1a0,http://data.europa.eu/949/functionalInfrastructure/operationalPoints/BG16010,BG16010,KAZICHENE,42.6525,23.4697,http://data.europa.eu/949/concepts/op-types/rinf/80,80,http://publications.europa.eu/resource/authority/country/BGR,80,junction
http://data.europa.eu/949/functionalInfrastructure/operationalPoints/5ea3baeae28a9c8bfa14990ec56696da507a9cbf,http://data.europa.eu/949/functionalInfrastructure/operationalPoints/BG65030,BG65030,GJUESHEVO,42.2358,22.4762,http://data.europa.eu/949/concepts/op-types/rinf/10,10,http://publications.europa.eu/resource/authority/country/BGR,10,station
http://data.europa.eu/949/functionalInfrastructure/operationalPoints/5ec1144fa952116013da7014ef215f5f2a9f9d01,http://data.europa.eu/949/functionalInfrastructure/operationalPoints/BG81210,BG81210,DOLNA MAHALA,42.4082,24.7786,http://data.europa.eu/949/concepts/op-types/rinf/10,10,http://publications.europa.eu/resource/authority/country/BGR,10,station
http://data.europa.eu/949/functionalInfrastructure/operationalPoints/5f6f865d4c365656e276fa488db9b67931ba2305,http://data.europa.eu/949/functionalInfrastructure/operationalPoints/BG29705,BG29705,VALCHI DOL,43.4048,27.5589,http://data.europa.eu/949/concepts/op-types/rinf/20,20,http://publications.europa.eu/resource/authority/country/BGR,20,small station
http://data.europa.eu/949/functionalInfrastructure/operationalPoints/5ff53b054a92f7cf1ff0b8d463b11b92329c9bec,http://data.europa.eu/949/functionalInfrastructure/operationalPoints/BG84303,BG84303,RADNEVO,42.2911,25.9268,http://data.europa.eu/949/concepts/op-types/rinf/10,10,http://publications.europa.eu/resource/authority/country/BGR,10,station
http://data.europa.eu/949/functionalInfrastructure/operationalPoints/610e55956eaaf18e0b57245a3701fb1cfd528d50,http://data.europa.eu/949/functionalInfrastructure/operationalPoints/BG23015,BG23015,LAKATNIK,43.0824,23.3786,http://data.europa.eu/949/concepts/op-types/rinf/20,20,http://publications.europa.eu/resource/authority/country/BGR,20,small station
http://data.europa.eu/949/functionalInfrastructure/operationalPoints/6269753dbbd9f970ab7a4a1615b5d8cf876a517f,http://data.europa.eu/949/functionalInfrastructure/operationalPoints/BG27211,BG27211,CHERKVITSA,43.7049,24.8385,http://data.europa.eu/949/concepts/op-types/rinf/20,20,http://publications.europa.eu/resource/authority/country/BGR,20,small station
http://data.europa.eu/949/functionalInfrastructure/operationalPoints/62f5853e7dd3f693e39c7b98f3fd1a78d8177dfb,http://data.europa.eu/949/functionalInfrastructure/operationalPoints/BG16510,BG16510,PESHTERA,42.0344,24.3124,http://data.europa.eu/949/concepts/op-types/rinf/20,20,http://publications.europa.eu/resource/authority/country/BGR,20,small station
http://data.europa.eu/949/functionalInfrastructure/operationalPoints/638b204259f56235bb2cbfdf23e4395ba62914ac,http://data.europa.eu/949/functionalInfrastructure/operationalPoints/BG27015,BG27015,GORNI DABNIK,43.3803,24.3444,http://data.europa.eu/949/concepts/op-types/rinf/20,20,http://publications.europa.eu/resource/authority/country/BGR,20,small station
http://data.europa.eu/949/functionalInfrastructure/operationalPoints/658878562c1a5a898c0fb893ddb54af02d446b84,http://data.europa.eu/949/functionalInfrastructure/operationalPoints/BG27008,BG27008,KARLUKOVO,43.1888,24.0713,http://data.europa.eu/949/concepts/op-types/rinf/20,20,http://publications.europa.eu/resource/authority/country/BGR,20,small station
http://data.europa.eu/949/functionalInfrastructure/operationalPoints/66f8172c417ffa44e2bf6f389e27f020be74aa16,http://data.europa.eu/949/functionalInfrastructure/operationalPoints/BG14000,BG14000,DIMITROVGRAD,42.0549,25.5936,http://data.europa.eu/949/concepts/op-types/rinf/10,10,http://publications.europa.eu/resource/authority/country/BGR,10,station
http://data.europa.eu/949/functionalInfrastructure/operationalPoints/687262fae172586d02d31b4d1333037da929b36f,http://data.europa.eu/949/functionalInfrastructure/operationalPoints/BG94010,BG94010,SENOVO,43.6614,26.3812,http://data.europa.eu/949/concepts/op-types/rinf/10,10,http://publications.europa.eu/resource/authority/country/BGR,10,station
http://data.europa.eu/949/functionalInfrastructure/operationalPoints/69806ab2f6d0abf548fe826e45f41dc0cdfe3a84,http://data.europa.eu/949/functionalInfrastructure/operationalPoints/BG27310,BG27310,LOVECH,43.1373,24.7068,http://data.europa.eu/949/concepts/op-types/rinf/20,20,http://publications.europa.eu/resource/authority/country/BGR,20,small station
http://data.europa.eu/949/functionalInfrastructure/operationalPoints/6de76ee9ad3664388f96083a3df93675cf4b84b5,http://data.europa.eu/949/functionalInfrastructure/operationalPoints/BG24003,BG24003,DZHULJUNICA,43.1608,25.883,http://data.europa.eu/949/concepts/op-types/rinf/10,10,http://publications.europa.eu/resource/authority/country/BGR,10,station
http://data.europa.eu/949/functionalInfrastructure/operationalPoints/6f0ab3d89c0d0c68957c20df2aa3fe8d8c231863,http://data.europa.eu/949/functionalInfrastructure/operationalPoints/BG56054,BG56054,SANDANSKI,41.5427,23.2517,http://data.europa.eu/949/concepts/op-types/rinf/20,20,http://publications.europa.eu/resource/authority/country/BGR,20,small station
http://data.europa.eu/949/functionalInfrastructure/operationalPoints/6ff56be80de89c2208d28e58923af96e4feb9237,http://data.europa.eu/949/functionalInfrastructure/operationalPoints/BG65020,BG65020,KJUSTENDIL,42.289,22.6829,http://data.europa.eu/949/concepts/op-types/rinf/20,20,http://publications.europa.eu/resource/authority/country/BGR,20,small station
http://data.europa.eu/949/functionalInfrastructure/operationalPoints/707cd7e7e8dc51340b0137540474944ecf44fd20,http://data.europa.eu/949/functionalInfrastructure/operationalPoints/BG72051,BG72051,Feribotna,44.0042,22.9084,http://data.europa.eu/949/concepts/op-types/rinf/40,40,http://publications.europa.eu/resource/authority/country/BGR,40,freight terminal
http://data.europa.eu/949/functionalInfrastructure/operationalPoints/712186fd85f5cde6a9effb849ca6252e79d3a963,http://data.europa.eu/949/functionalInfrastructure/operationalPoints/BG18001,BG18001,KRUMOVO,42.0933,24.8186,http://data.europa.eu/949/concepts/op-types/rinf/10,10,http://publications.europa.eu/resource/authority/country/BGR,10,station
http://data.europa.eu/949/functionalInfrastructure/operationalPoints/71b5d1123e3ee99d78154d9d0625b6e776301db3,http://data.europa.eu/949/functionalInfrastructure/operationalPoints/BG34019,BG34019,SLIVEN,42.6666,26.336,http://data.europa.eu/949/concepts/op-types/rinf/10,10,http://publications.europa.eu/resource/authority/country/BGR,10,station
http://data.europa.eu/949/functionalInfrastructure/operationalPoints/72517707d203a5c47d82ade585d18686fef80ef3,http://data.europa.eu/949/functionalInfrastructure/operationalPoints/BG42002,BG42002,JANTRA,43.2068,25.6656,http://data.europa.eu/949/concepts/op-types/rinf/20,20,http://publications.europa.eu/resource/authority/country/BGR,20,small station
http://data.europa.eu/949/functionalInfrastructure/operationalPoints/74ab84796c0653f2b4cb365afaa5b5ac61bd6fdd,http://data.europa.eu/949/functionalInfrastructure/operationalPoints/BG83012,BG83012,BALGAROVO,42.5959,27.3021,http://data.europa.eu/949/concepts/op-types/rinf/20,20,http://publications.europa.eu/resource/authority/country/BGR,20,small station
http://data.europa.eu/949/functionalInfrastructure/operationalPoints/75052b13f13c0f7877e3cf48259deb274226b9cc,http://data.europa.eu/949/functionalInfrastructure/operationalPoints/BG14020,BG14020,SVILENGRAD,41.7745,26.1442,http://data.europa.eu/949/concepts/op-types/rinf/10,10,http://publications.europa.eu/resource/authority/country/BGR,10,station
http://data.europa.eu/949/functionalInfrastructure/operationalPoints/75591669d620a9901a711e15fcd640b016f5f24c,http://data.europa.eu/949/functionalInfrastructure/operationalPoints/BG24901,BG24901,GORNA ORJAHOVICA - RAZPREDELITELNA,43.1417,25.6577,http://data.europa.eu/949/concepts/op-types/rinf/10,10,http://publications.europa.eu/resource/authority/country/BGR,10,station
http://data.europa.eu/949/functionalInfrastructure/operationalPoints/759b07a02405b790df7bcf9e6ae4e0357311e2ce,http://data.europa.eu/949/functionalInfrastructure/operationalPoints/BG23013,BG23013,BOV,43.0219,23.3516,http://data.europa.eu/949/concepts/op-types/rinf/20,20,http://publications.europa.eu/resource/authority/country/BGR,20,small station
http://data.europa.eu/949/functionalInfrastructure/operationalPoints/784e1dafcbe6ac39b518943a8d6e98ad9f97cfc9,http://data.europa.eu/949/functionalInfrastructure/operationalPoints/BG18610,BG18610,ASENOVGRAD,42.0144,24.8691,http://data.europa.eu/949/concepts/op-types/rinf/20,20,http://publications.europa.eu/resource/authority/country/BGR,20,small station
http://data.europa.eu/949/functionalInfrastructure/operationalPoints/788477aa45f2962198e1af7eed769129e4feea8e,http://data.europa.eu/949/functionalInfrastructure/operationalPoints/BG72050,BG72050,VIDIN PATNICHESKA,43.9843,22.8752,http://data.europa.eu/949/concepts/op-types/rinf/30,30,http://publications.europa.eu/resource/authority/country/BGR,30,passenger terminal
http://data.europa.eu/949/functionalInfrastructure/operationalPoints/790adccba6fc29141ae74c5cac4c60baf4f8ff90,http://data.europa.eu/949/functionalInfrastructure/operationalPoints/BG81014,BG81014,SVOBODA,42.2405,25.4339,http://data.europa.eu/949/concepts/op-types/rinf/20,20,http://publications.europa.eu/resource/authority/country/BGR,20,small station
http://data.europa.eu/949/functionalInfrastructure/operationalPoints/793ba10a4d8a02f381bd25e73cf30431b347e242,http://data.europa.eu/949/functionalInfrastructure/operationalPoints/BG27306,BG27306,DOYRENTSI,43.2264,24.8441,http://data.europa.eu/949/concepts/op-types/rinf/20,20,http://publications.europa.eu/resource/authority/country/BGR,20,small station
http://data.europa.eu/949/functionalInfrastructure/operationalPoints/7bf9db4a00731632397b7e4f2e091198943cb124,http://data.europa.eu/949/functionalInfrastructure/operationalPoints/BG56101,BG56101,GOLEMO SELO,42.2923,23.036,http://data.europa.eu/949/concepts/op-types/rinf/40,40,http://publications.europa.eu/resource/authority/country/BGR,40,freight terminal
http://data.europa.eu/949/functionalInfrastructure/operationalPoints/7e5940ae99b035a9d29cfbca8a2d8da705162e3c,http://data.europa.eu/949/functionalInfrastructure/operationalPoints/BG32034,BG32034,SOPOT,42.6417,24.7424,http://data.europa.eu/949/concepts/op-types/rinf/20,20,http://publications.europa.eu/resource/authority/country/BGR,20,small station
http://data.europa.eu/949/functionalInfrastructure/operationalPoints/806afa74081f4b60b1601c1c4fde92a6d4e4e8dc,http://data.europa.eu/949/functionalInfrastructure/operationalPoints/BG11015,BG11015,KOSTINBROD,42.8071,23.1997,http://data.europa.eu/949/concepts/op-types/rinf/10,10,http://publications.europa.eu/resource/authority/country/BGR,10,station
http://data.europa.eu/949/functionalInfrastructure/operationalPoints/8197e63655b22d84ad36843329732959c7a4b2d0,http://data.europa.eu/949/functionalInfrastructure/operationalPoints/BG84001,BG84001,KALITINOVO,42.4268,25.7315,http://data.europa.eu/949/concepts/op-types/rinf/10,10,http://publications.europa.eu/resource/authority/country/BGR,10,station
http://data.europa.eu/949/functionalInfrastructure/operationalPoints/820c082222ed6b9198dfdbb2aa3518684ae04ccf,http://data.europa.eu/949/functionalInfrastructure/operationalPoints/BG27033,BG27033,PORDIM,43.3862,24.8475,http://data.europa.eu/949/concepts/op-types/rinf/10,10,http://publications.europa.eu/resource/authority/country/BGR,10,station
http://data.europa.eu/949/functionalInfrastructure/operationalPoints/822af50e23d24304a5c6cfc6be3ae244cf7a90af,http://data.europa.eu/949/functionalInfrastructure/operationalPoints/BG24012,BG24012,SLAVJANOVO,43.2937,26.1716,http://data.europa.eu/949/concepts/op-types/rinf/10,10,http://publications.europa.eu/resource/authority/country/BGR,10,station
http://data.europa.eu/949/functionalInfrastructure/operationalPoints/8267b453127684aeb0d24bdd12928afc1ac4d951,http://data.europa.eu/949/functionalInfrastructure/operationalPoints/BG72040,BG72040,ORESHETS,43.6594,22.7446,http://data.europa.eu/949/concepts/op-types/rinf/20,20,http://publications.europa.eu/resource/authority/country/BGR,20,small station
http://data.europa.eu/949/functionalInfrastructure/operationalPoints/83088d586f90cb7aad0d491774e8be63e37039f2,http://data.europa.eu/949/functionalInfrastructure/operationalPoints/BG56010,BG56010,RADOMIR,42.5387,22.9523,http://data.europa.eu/949/concepts/op-types/rinf/80,80,http://publications.europa.eu/resource/authority/country/BGR,80,junction
http://data.europa.eu/949/functionalInfrastructure/operationalPoints/8336dba5c9abd81786f24889b6c6c77bd7751760,http://data.europa.eu/949/functionalInfrastructure/operationalPoints/BG44023,BG44023,MOST,41.7411,25.5303,http://data.europa.eu/949/concepts/op-types/rinf/20,20,http://publications.europa.eu/resource/authority/country/BGR,20,small station
http://data.europa.eu/949/functionalInfrastructure/operationalPoints/8603ad331197583399504f97ba54cb3bad8cec09,http://data.europa.eu/949/functionalInfrastructure/operationalPoints/BG48002,BG48002,KALOYANOVETS,42.3109,25.5694,http://data.europa.eu/949/concepts/op-types/rinf/10,10,http://publications.europa.eu/resource/authority/country/BGR,10,station
http://data.europa.eu/949/functionalInfrastructure/operationalPoints/875e9a6adbbca332e6dc1f69cee9d5befbf063ff,http://data.europa.eu/949/functionalInfrastructure/operationalPoints/BG32016,BG32016,DOLNO KAMARTSI,42.7133,23.862,http://data.europa.eu/949/concepts/op-types/rinf/20,20,http://publications.europa.eu/resource/authority/country/BGR,20,small station
http://data.europa.eu/949/functionalInfrastructure/operationalPoints/8a7a99d193a1b8334568b1fb59623e24839c564f,http://data.europa.eu/949/functionalInfrastructure/operationalPoints/BG72020,BG72020,BOYCHINOVTSI,43.4751,23.3385,http://data.europa.eu/949/concepts/op-types/rinf/10,10,http://publications.europa.eu/resource/authority/country/BGR,10,station
http://data.europa.eu/949/functionalInfrastructure/operationalPoints/8a98b0f420da3b9a93e406ce69d80344ccd594f1,http://data.europa.eu/949/functionalInfrastructure/operationalPoints/BG27007,BG27007,KUNINO,43.1873,24.0063,http://data.europa.eu/949/concepts/op-types/rinf/10,10,http://publications.europa.eu/resource/authority/country/BGR,10,station
http://data.europa.eu/949/functionalInfrastructure/operationalPoints/8b2d47f7a19d37e7647cbc1a820ec6b5e691ecb0,http://data.europa.eu/949/functionalInfrastructure/operationalPoints/BG51001,BG51001,ZAHARNA FABRIKA,42.7129,23.2914,http://data.europa.eu/949/concepts/op-types/rinf/10,10,http://publications.europa.eu/resource/authority/country/BGR,10,station
http://data.europa.eu/949/functionalInfrastructure/operationalPoints/8cffe225c13d00b36e0739b140bc596e56f761ac,http://data.europa.eu/949/functionalInfrastructure/operationalPoints/BG56000,BG56000,PERNIK,42.6012,23.0307,http://data.europa.eu/949/concepts/op-types/rinf/10,10,http://publications.europa.eu/resource/authority/country/BGR,10,station
http://data.europa.eu/949/functionalInfrastructure/operationalPoints/8db5640853bd9fd41c2a0c6022344261ea3161a6,http://data.europa.eu/949/functionalInfrastructure/operationalPoints/BG18002,BG18002,KATUNICA,42.1016,24.8757,http://data.europa.eu/949/concepts/op-types/rinf/10,10,http://publications.europa.eu/resource/authority/country/BGR,10,station
http://data.europa.eu/949/functionalInfrastructure/operationalPoints/8e8de43c822e41a37c676ae5a0570bca37c4515e,http://data.europa.eu/949/functionalInfrastructure/operationalPoints/BG38000,BG38000,ZIMNICA,42.5855,26.5981,http://data.europa.eu/949/concepts/op-types/rinf/10,10,http://publications.europa.eu/resource/authority/country/BGR,10,station
http://data.europa.eu/949/functionalInfrastructure/operationalPoints/94dca73c89bc7a9be2797f19ac9880acc6c593fd,http://data.europa.eu/949/functionalInfrastructure/operationalPoints/BG38004,BG38004,CERKOVSKI,42.6208,26.8413,http://data.europa.eu/949/concepts/op-types/rinf/20,20,http://publications.europa.eu/resource/authority/country/BGR,20,small station
http://data.europa.eu/949/functionalInfrastructure/operationalPoints/9583f19a802db3fb3acec334755a7880b24b9fd4,http://data.europa.eu/949/functionalInfrastructure/operationalPoints/BG16012,BG16012,ELIN PELIN,42.6282,23.5788,http://data.europa.eu/949/concepts/op-types/rinf/10,10,http://publications.europa.eu/resource/authority/country/BGR,10,station
http://data.europa.eu/949/functionalInfrastructure/operationalPoints/95f2aa6856e0df46605fa041a46200dd7581251b,http://data.europa.eu/949/functionalInfrastructure/operationalPoints/BG94011,BG94011,PROSTORNO,43.6432,26.4806,http://data.europa.eu/949/concepts/op-types/rinf/10,10,http://publications.europa.eu/resource/authority/country/BGR,10,station
http://data.europa.eu/949/functionalInfrastructure/operationalPoints/96ba41f783cd5edb41b9499d406a0a39f8f5261d,http://data.europa.eu/949/functionalInfrastructure/operationalPoints/BG43027,BG43027,VELIKO TARNOVO,43.0741,25.6382,http://data.europa.eu/949/concepts/op-types/rinf/10,10,http://publications.europa.eu/resource/authority/country/BGR,10,station
http://data.europa.eu/949/functionalInfrastructure/operationalPoints/97f0a8b1425b5eac410ddd649a2d6a3ef686f2ed,http://data.europa.eu/949/functionalInfrastructure/operationalPoints/BG49002,BG49002,Ruse tovarna,43.8571,25.9767,http://data.europa.eu/949/concepts/op-types/rinf/40,40,http://publications.europa.eu/resource/authority/country/BGR,40,freight terminal
http://data.europa.eu/949/functionalInfrastructure/operationalPoints/98a2196c6204029038193571240326a4d1d7cc1b,http://data.europa.eu/949/functionalInfrastructure/operationalPoints/BG27047,BG27047,RESEN,43.1814,25.564,http://data.europa.eu/949/concepts/op-types/rinf/80,80,http://publications.europa.eu/resource/authority/country/BGR,80,junction
http://data.europa.eu/949/functionalInfrastructure/operationalPoints/99ce3423284d99810c27b80855be32d7454dac1c,http://data.europa.eu/949/functionalInfrastructure/operationalPoints/BG16505,BG16505,BRATSIGOVO,42.0378,24.3616,http://data.europa.eu/949/concepts/op-types/rinf/20,20,http://publications.europa.eu/resource/authority/country/BGR,20,small station
http://data.europa.eu/949/functionalInfrastructure/operationalPoints/9c9fb06142a267493bd97b2f2e70aca8aed73205,http://data.europa.eu/949/functionalInfrastructure/operationalPoints/BG42005,BG42005,PETKO KARAVELOVO,43.299,25.6397,http://data.europa.eu/949/concepts/op-types/rinf/20,20,http://publications.europa.eu/resource/authority/country/BGR,20,small station
http://data.europa.eu/949/functionalInfrastructure/operationalPoints/9da8fe06d9f8d289aa18d485a42cf8d970c24099,http://data.europa.eu/949/functionalInfrastructure/operationalPoints/BG24020,BG24020,DRALFA,43.3317,26.4341,http://data.europa.eu/949/concepts/op-types/rinf/10,10,http://publications.europa.eu/resource/authority/country/BGR,10,station
http://data.europa.eu/949/functionalInfrastructure/operationalPoints/a175a32dd4a4b50e96c4151c072e7b08e9b5c41f,http://data.europa.eu/949/functionalInfrastructure/operationalPoints/BG24604,BG24604,SMYADOVO,43.0762,27.0294,http://data.europa.eu/949/concepts/op-types/rinf/20,20,http://publications.europa.eu/resource/authority/country/BGR,20,small station
http://data.europa.eu/949/functionalInfrastructure/operationalPoints/a2242fa967276a0587b756d2b54fd708e6062cb0,http://data.europa.eu/949/functionalInfrastructure/operationalPoints/BG16040,BG16040,SEPTEMVRI,42.2044,24.1322,http://data.europa.eu/949/concepts/op-types/rinf/10,10,http://publications.europa.eu/resource/authority/country/BGR,10,station
http://data.europa.eu/949/functionalInfrastructure/operationalPoints/a31a0267835c618f9da86424ed47584803b425d7,http://data.europa.eu/949/functionalInfrastructure/operationalPoints/BG32041,BG32041,BOTEV,42.6015,24.8935,http://data.europa.eu/949/concepts/op-types/rinf/20,20,http://publications.europa.eu/resource/authority/country/BGR,20,small station
http://data.europa.eu/949/functionalInfrastructure/operationalPoints/a3361f6f05df0aa6422a96bf75871b4668c7c44e,http://data.europa.eu/949/functionalInfrastructure/operationalPoints/BG94006,BG94006,VETOVO,43.6946,26.2482,http://data.europa.eu/949/concepts/op-types/rinf/10,10,http://publications.europa.eu/resource/authority/country/BGR,10,station
http://data.europa.eu/949/functionalInfrastructure/operationalPoints/a39afe8e8ec88aed39f99dbccb8754220e5f8810,http://data.europa.eu/949/functionalInfrastructure/operationalPoints/BG72012,BG72012,BELI IZVOR,43.2788,23.4615,http://data.europa.eu/949/concepts/op-types/rinf/10,10,http://publications.europa.eu/resource/authority/country/BGR,10,station
http://data.europa.eu/949/functionalInfrastructure/operationalPoints/a460de608ca2c62b62d23e86a2ce697bdfbd6885,http://data.europa.eu/949/functionalInfrastructure/operationalPoints/BG32018,BG32018,MIRKOVO,42.7036,23.9968,http://data.europa.eu/949/concepts/op-types/rinf/20,20,http://publications.europa.eu/resource/authority/country/BGR,20,small station
http://data.europa.eu/949/functionalInfrastructure/operationalPoints/a86ab9bfa50e642507f5edd0271a603410412d0b,http://data.europa.eu/949/functionalInfrastructure/operationalPoints/BG27406,BG27406,ORESH,43.5845,25.2161,http://data.europa.eu/949/concepts/op-types/rinf/20,20,http://publications.europa.eu/resource/authority/country/BGR,20,small station
http://data.europa.eu/949/functionalInfrastructure/operationalPoints/a88e8943125580d65ee333dc4f0d7f3a4f68295d,http://data.europa.eu/949/functionalInfrastructure/operationalPoints/BG43012,BG43012,TRJAVNA,42.8733,25.4967,http://data.europa.eu/949/concepts/op-types/rinf/10,10,http://publications.europa.eu/resource/authority/country/BGR,10,station
http://data.europa.eu/949/functionalInfrastructure/operationalPoints/a91754e239a4b64e20511e2f897648d2eeea69ab,http://data.europa.eu/949/functionalInfrastructure/operationalPoints/BG43020,BG43020,TSAREVA LIVADA,42.9331,25.4547,http://data.europa.eu/949/concepts/op-types/rinf/80,80,http://publications.europa.eu/resource/authority/country/BGR,80,junction
http://data.europa.eu/949/functionalInfrastructure/operationalPoints/a9c4c018493f03c21709c0538b4b843e8825f77e,http://data.europa.eu/949/functionalInfrastructure/operationalPoints/BG84003,BG84003,HAN ASPARUH,42.4448,25.8452,http://data.europa.eu/949/concepts/op-types/rinf/10,10,http://publications.europa.eu/resource/authority/country/BGR,10,station
http://data.europa.eu/949/functionalInfrastructure/operationalPoints/ab25a8ba07a57bced555a97f1016f480efdf19b3,http://data.europa.eu/949/functionalInfrastructure/operationalPoints/BG18014,BG18014,YABALKOVO,42.0761,25.4468,http://data.europa.eu/949/concepts/op-types/rinf/10,10,http://publications.europa.eu/resource/authority/country/BGR,10,station
http://data.europa.eu/949/functionalInfrastructure/operationalPoints/ab422cf3d2f8e6c8c884f77361a883dfe3bc4e6a,http://data.europa.eu/949/functionalInfrastructure/operationalPoints/BG34001,BG34001,DABOVO,42.614,25.6376,http://data.europa.eu/949/concepts/op-types/rinf/10,10,http://publications.europa.eu/resource/authority/country/BGR,10,station
http://data.europa.eu/949/functionalInfrastructure/operationalPoints/ab85334aab9661dbc4f8f588e41c296ff9f19425,http://data.europa.eu/949/functionalInfrastructure/operationalPoints/BG32022,BG32022,ANTON,42.729,24.2472,http://data.europa.eu/949/concepts/op-types/rinf/20,20,http://publications.europa.eu/resource/authority/country/BGR,20,small station
http://data.europa.eu/949/functionalInfrastructure/operationalPoints/ad505f3cf2711b8ad7852e4ea96d86c589aaa688,http://data.europa.eu/949/functionalInfrastructure/operationalPoints/BG23000,BG23000,ILIYANTSI,42.7513,23.3266,http://data.europa.eu/949/concepts/op-types/rinf/80,80,http://publications.europa.eu/resource/authority/country/BGR,80,junction
http://data.europa.eu/949/functionalInfrastructure/operationalPoints/ae3b262534986c34beeb9d4a0e62611203be729e,http://data.europa.eu/949/functionalInfrastructure/operationalPoints/BG29029,BG29029,TOPOLITE,43.2003,27.8106,http://data.europa.eu/949/concepts/op-types/rinf/10,10,http://publications.europa.eu/resource/authority/country/BGR,10,station
http://data.europa.eu/949/functionalInfrastructure/operationalPoints/ae7fd3ad82b9d145829ef4051905953a0b1af014,http://data.europa.eu/949/functionalInfrastructure/operationalPoints/BG72206,BG72206,LOM,43.8218,23.2419,http://data.europa.eu/949/concepts/op-types/rinf/10,10,http://publications.europa.eu/resource/authority/country/BGR,10,station
http://data.europa.eu/949/functionalInfrastructure/operationalPoints/afa99460543ff0b5189fa419ad982ee7358b26af,http://data.europa.eu/949/functionalInfrastructure/operationalPoints/BG16034,BG16034,BELOVO,42.2155,24.0184,http://data.europa.eu/949/concepts/op-types/rinf/10,10,http://publications.europa.eu/resource/authority/country/BGR,10,station
http://data.europa.eu/949/functionalInfrastructure/operationalPoints/afcdd1bf22234a9dd03a0011b007223e45d58f6a,http://data.europa.eu/949/functionalInfrastructure/operationalPoints/BG72010,BG72010,VRATSA,43.2087,23.5581,http://data.europa.eu/949/concepts/op-types/rinf/10,10,http://publications.europa.eu/resource/authority/country/BGR,10,station
http://data.europa.eu/949/functionalInfrastructure/operationalPoints/b0c4057649f0831452e04801f4038a8b5da21def,http://data.europa.eu/949/functionalInfrastructure/operationalPoints/BG61003,BG61003,HRABARSKO,42.8054,23.0619,http://data.europa.eu/949/concepts/op-types/rinf/20,20,http://publications.europa.eu/resource/authority/country/BGR,20,small station
http://data.europa.eu/949/functionalInfrastructure/operationalPoints/b0e96c6cf6c3e4560d0c44e40e9bcc8c9b745bb3,http://data.europa.eu/949/functionalInfrastructure/operationalPoints/BG81004,BG81004,BELOZEM,42.2017,25.0459,http://data.europa.eu/949/concepts/op-types/rinf/20,20,http://publications.europa.eu/resource/authority/country/BGR,20,small station
http://data.europa.eu/949/functionalInfrastructure/operationalPoints/b466cbb98245ced1231fc5e2d978f07626446078,http://data.europa.eu/949/functionalInfrastructure/operationalPoints/BG56023,BG56023,DYAKOVO,42.32925,23.10532,http://data.europa.eu/949/concepts/op-types/rinf/20,20,http://publications.europa.eu/resource/authority/country/BGR,20,small station
http://data.europa.eu/949/functionalInfrastructure/operationalPoints/b54a9c29e6a1d0cad18b68d3042fbbc2b14ea17b,http://data.europa.eu/949/functionalInfrastructure/operationalPoints/BG94110,BG94110,ISPERIH,43.704,26.8346,http://data.europa.eu/949/concepts/op-types/rinf/20,20,http://publications.europa.eu/resource/authority/country/BGR,20,small station
http://data.europa.eu/949/functionalInfrastructure/operationalPoints/b575d82edad2fa5f61041139248aec47d25982b2,http://data.europa.eu/949/functionalInfrastructure/operationalPoints/BG43022,BG43022,DRJANOVO,42.9714,25.4761,http://data.europa.eu/949/concepts/op-types/rinf/10,10,http://publications.europa.eu/resource/authority/country/BGR,10,station
http://data.europa.eu/949/functionalInfrastructure/operationalPoints/b5d8f4284cf7ef0b391271502bf6bb66d5409e34,http://data.europa.eu/949/functionalInfrastructure/operationalPoints/BG27043,BG27043,PAVLIKENI,43.2336,25.301,http://data.europa.eu/949/concepts/op-types/rinf/10,10,http://publications.europa.eu/resource/authority/country/BGR,10,station
http://data.europa.eu/949/functionalInfrastructure/operationalPoints/b62cecf4d02abca9010a91c6ac05cdffd782bcd9,http://data.europa.eu/949/functionalInfrastructure/operationalPoints/BG49901,BG49901,RUSE ZAPAD,43.8403,25.944,http://data.europa.eu/949/concepts/op-types/rinf/10,10,http://publications.europa.eu/resource/authority/country/BGR,10,station
http://data.europa.eu/949/functionalInfrastructure/operationalPoints/b64687237a0243dbdcd0267280bf62fd683859b9,http://data.europa.eu/949/functionalInfrastructure/operationalPoints/BG44010,BG44010,KARDZHALI,41.6308,25.3883,http://data.europa.eu/949/concepts/op-types/rinf/20,20,http://publications.europa.eu/resource/authority/country/BGR,20,small station
http://data.europa.eu/949/functionalInfrastructure/operationalPoints/b6ac13b7d1e7745c2538aba537bc7420b07b6746,http://data.europa.eu/949/functionalInfrastructure/operationalPoints/BG16906,BG16906,RP BIRIMIRCI,42.7301,23.3478,http://data.europa.eu/949/concepts/op-types/rinf/20,20,http://publications.europa.eu/resource/authority/country/BGR,20,small station
http://data.europa.eu/949/functionalInfrastructure/operationalPoints/b83bb4940773552a65da85cf33eee9b0cde6b623,http://data.europa.eu/949/functionalInfrastructure/operationalPoints/BG29010,BG29010,PROVADIA,43.1899,27.4382,http://data.europa.eu/949/concepts/op-types/rinf/10,10,http://publications.europa.eu/resource/authority/country/BGR,10,station
http://data.europa.eu/949/functionalInfrastructure/operationalPoints/b875051ff81191781259be63915a43f8c4b26e90,http://data.europa.eu/949/functionalInfrastructure/operationalPoints/BG94120,BG94120,DULOVO,43.8029,27.1477,http://data.europa.eu/949/concepts/op-types/rinf/20,20,http://publications.europa.eu/resource/authority/country/BGR,20,small station
http://data.europa.eu/949/functionalInfrastructure/operationalPoints/b95cdabf6690c22423dcab1bda34c82af06d8632,http://data.europa.eu/949/functionalInfrastructure/operationalPoints/BG51009,BG51009,PERNIK RAZPREDELITELNA,42.6049,23.0615,http://data.europa.eu/949/concepts/op-types/rinf/80,80,http://publications.europa.eu/resource/authority/country/BGR,80,junction
http://data.europa.eu/949/functionalInfrastructure/operationalPoints/bd9420a094ab9c9fb28fdcbd210b416cc99c87e9,http://data.europa.eu/949/functionalInfrastructure/operationalPoints/BG29020,BG29020,SINDEL,43.1231,27.5983,http://data.europa.eu/949/concepts/op-types/rinf/10,10,http://publications.europa.eu/resource/authority/country/BGR,10,station
http://data.europa.eu/949/functionalInfrastructure/operationalPoints/be667f2f26a05da1e6fdb90feb5c17ecf934a5b9,http://data.europa.eu/949/functionalInfrastructure/operationalPoints/BG27202,BG27202,DOLNA MITROPOLIA,43.473,24.5377,http://data.europa.eu/949/concepts/op-types/rinf/20,20,http://publications.europa.eu/resource/authority/country/BGR,20,small station
http://data.europa.eu/949/functionalInfrastructure/operationalPoints/becb3f87c983077cf3d1383258c30cf0aaed3929,http://data.europa.eu/949/functionalInfrastructure/operationalPoints/BG83020,BG83020,BURGAS,42.4909,27.4726,http://data.europa.eu/949/concepts/op-types/rinf/10,10,http://publications.europa.eu/resource/authority/country/BGR,10,station
http://data.europa.eu/949/functionalInfrastructure/operationalPoints/bf306432ef75acef3e01f15122a7aa7eb637c294,http://data.europa.eu/949/functionalInfrastructure/operationalPoints/BG81011,BG81011,CHERNA GORA,42.2206,25.2272,http://data.europa.eu/949/concepts/op-types/rinf/20,20,http://publications.europa.eu/resource/authority/country/BGR,20,small station
http://data.europa.eu/949/functionalInfrastructure/operationalPoints/bfb5133fe64da3609ca2eb3e357ba3644fa966a6,http://data.europa.eu/949/functionalInfrastructure/operationalPoints/BG49905,BG49905,RUSE SEVER,43.8803,26.0136,http://data.europa.eu/949/concepts/op-types/rinf/10,10,http://publications.europa.eu/resource/authority/country/BGR,10,station
http://data.europa.eu/949/functionalInfrastructure/operationalPoints/c30675733947e97208564bff099b27735f1256d3,http://data.europa.eu/949/functionalInfrastructure/operationalPoints/BG81214,BG81214,BANJA,42.5419,24.8452,http://data.europa.eu/949/concepts/op-types/rinf/20,20,http://publications.europa.eu/resource/authority/country/BGR,20,small station
http://data.europa.eu/949/functionalInfrastructure/operationalPoints/c5b5d986ca8816037a8007a5f0ba413f7c16a476,http://data.europa.eu/949/functionalInfrastructure/operationalPoints/BG32002,BG32002,SVETOVRACHANE,42.7833,23.3814,http://data.europa.eu/949/concepts/op-types/rinf/20,20,http://publications.europa.eu/resource/authority/country/BGR,20,small station
http://data.europa.eu/949/functionalInfrastructure/operationalPoints/c963ec2abdb36cc0fa9a6de8abd0c5e14211a867,http://data.europa.eu/949/functionalInfrastructure/operationalPoints/BG16045,BG16045,OGNJANOVO,42.1384,24.4167,http://data.europa.eu/949/concepts/op-types/rinf/10,10,http://publications.europa.eu/resource/authority/country/BGR,10,station
http://data.europa.eu/949/functionalInfrastructure/operationalPoints/c9a43ebfe494a196fd78a6d20de17ddc53e9f16c,http://data.europa.eu/949/functionalInfrastructure/operationalPoints/BG23002,BG23002,KURILO,42.8182,23.3565,http://data.europa.eu/949/concepts/op-types/rinf/10,10,http://publications.europa.eu/resource/authority/country/BGR,10,station
http://data.europa.eu/949/functionalInfrastructure/operationalPoints/ca25d81016c3417b6ef34d4f87fde03c7fb02abe,http://data.europa.eu/949/functionalInfrastructure/operationalPoints/BG29000,BG29000,KASPICHAN,43.3117,27.167,http://data.europa.eu/949/concepts/op-types/rinf/80,80,http://publications.europa.eu/resource/authority/country/BGR,80,junction
http://data.europa.eu/949/functionalInfrastructure/operationalPoints/cd06a631514209e57020713cf6137c512d1ce074,http://data.europa.eu/949/functionalInfrastructure/operationalPoints/BG81013,BG81013,CHIRPAN,42.2036,25.3397,http://data.europa.eu/949/concepts/op-types/rinf/20,20,http://publications.europa.eu/resource/authority/country/BGR,20,small station
http://data.europa.eu/949/functionalInfrastructure/operationalPoints/cf1095aa5766140a4a2bc362f6acfe45941cfd40,http://data.europa.eu/949/functionalInfrastructure/operationalPoints/BG27000,BG27000,MEZDRA,43.1421,23.7149,http://data.europa.eu/949/concepts/op-types/rinf/80,80,http://publications.europa.eu/resource/authority/country/BGR,80,junction
http://data.europa.eu/949/functionalInfrastructure/operationalPoints/d0407adce44bf0c38bbfabc9287df78cf546ea61,http://data.europa.eu/949/functionalInfrastructure/operationalPoints/BG81110,BG81110,PANAGYURISHTE,42.4922,24.1969,http://data.europa.eu/949/concepts/op-types/rinf/20,20,http://publications.europa.eu/resource/authority/country/BGR,20,small station
http://data.europa.eu/949/functionalInfrastructure/operationalPoints/d1029050e7b70f597b11af100984528b8efa5a9d,http://data.europa.eu/949/functionalInfrastructure/operationalPoints/BG51004,BG51004,DRAGICHEVO,42.6052,23.1327,http://data.europa.eu/949/concepts/op-types/rinf/20,20,http://publications.europa.eu/resource/authority/country/BGR,20,small station
http://data.europa.eu/949/functionalInfrastructure/operationalPoints/d1805d6cdbb9d8a112ebed8077e82606c1e4faf3,http://data.europa.eu/949/functionalInfrastructure/operationalPoints/BG72110,BG72110,BERKOVITSA,43.24,23.1399,http://data.europa.eu/949/concepts/op-types/rinf/20,20,http://publications.europa.eu/resource/authority/country/BGR,20,small station
http://data.europa.eu/949/functionalInfrastructure/operationalPoints/d1da5cc5ae6a9d4814522d7d02537d47e13f5fd0,http://data.europa.eu/949/functionalInfrastructure/operationalPoints/BG81203,BG81203,KALOYANOVO,42.3343,24.7555,http://data.europa.eu/949/concepts/op-types/rinf/20,20,http://publications.europa.eu/resource/authority/country/BGR,20,small station
http://data.europa.eu/949/functionalInfrastructure/operationalPoints/d30f1780dea86f1e8dd8c2a37c65dd026076de71,http://data.europa.eu/949/functionalInfrastructure/operationalPoints/BG32043,BG32043,KALOFER,42.5964,25.0042,http://data.europa.eu/949/concepts/op-types/rinf/20,20,http://publications.europa.eu/resource/authority/country/BGR,20,small station
http://data.europa.eu/949/functionalInfrastructure/operationalPoints/d40d7cc0bead4d21b75369b680112d6c780e40c8,http://data.europa.eu/949/functionalInfrastructure/operationalPoints/BG42012,BG42012,BJALA,43.469,25.6694,http://data.europa.eu/949/concepts/op-types/rinf/20,20,http://publications.europa.eu/resource/authority/country/BGR,20,small station
http://data.europa.eu/949/functionalInfrastructure/operationalPoints/d47aa0fb11568bf5f71b69cae489cb7ff777fedd,http://data.europa.eu/949/functionalInfrastructure/operationalPoints/BG42020,BG42020,BOROVO,43.4882,25.8098,http://data.europa.eu/949/concepts/op-types/rinf/20,20,http://publications.europa.eu/resource/authority/country/BGR,20,small station
http://data.europa.eu/949/functionalInfrastructure/operationalPoints/d67cdff76eab20c5d266b457efec075703ecfa68,http://data.europa.eu/949/functionalInfrastructure/operationalPoints/BG72030,BG72030,BRUSARTSI,43.6651,23.0754,http://data.europa.eu/949/concepts/op-types/rinf/10,10,http://publications.europa.eu/resource/authority/country/BGR,10,station
http://data.europa.eu/949/functionalInfrastructure/operationalPoints/d7016fde4d929ca950bc287dbe12e7678023503e,http://data.europa.eu/949/functionalInfrastructure/operationalPoints/BG42027,BG42027,DOLAPITE,43.7561,25.9077,http://data.europa.eu/949/concepts/op-types/rinf/20,20,http://publications.europa.eu/resource/authority/country/BGR,20,small station
http://data.europa.eu/949/functionalInfrastructure/operationalPoints/d7054062e3a0f3ac1e2babb605e947da347188cc,http://data.europa.eu/949/functionalInfrastructure/operationalPoints/BG27319,BG27319,RP LOVECH SEVER,43.1692,24.7297,http://data.europa.eu/949/concepts/op-types/rinf/20,20,http://publications.europa.eu/resource/authority/country/BGR,20,small station
http://data.europa.eu/949/functionalInfrastructure/operationalPoints/d8df4e0cd6e064182af9fa56552e7a6f46180786,http://data.europa.eu/949/functionalInfrastructure/operationalPoints/BG94003,BG94003,OBRAZTSOV CHIFLIK,43.7938,26.032,http://data.europa.eu/949/concepts/op-types/rinf/10,10,http://publications.europa.eu/resource/authority/country/BGR,10,station
http://data.europa.eu/949/functionalInfrastructure/operationalPoints/dace7b3db9610abd9c5773b28e4521c63ebde9e8,http://data.europa.eu/949/functionalInfrastructure/operationalPoints/BG43002,BG43002,RADUNTSI,42.678,25.5962,http://data.europa.eu/949/concepts/op-types/rinf/10,10,http://publications.europa.eu/resource/authority/country/BGR,10,station
http://data.europa.eu/949/functionalInfrastructure/operationalPoints/de1571177768dcad2ae56f555daca3514715a7df,http://data.europa.eu/949/functionalInfrastructure/operationalPoints/BG56050,BG56050,KRESNA,41.7099,23.1732,http://data.europa.eu/949/concepts/op-types/rinf/20,20,http://publications.europa.eu/resource/authority/country/BGR,20,small station
http://data.europa.eu/949/functionalInfrastructure/operationalPoints/dfeea7767d7c98951113ee6d946375e0a268d3d1,http://data.europa.eu/949/functionalInfrastructure/operationalPoints/BG44000,BG44000,PODKOVA,41.4107,25.3899,http://data.europa.eu/949/concepts/op-types/rinf/20,20,http://publications.europa.eu/resource/authority/country/BGR,20,small station
http://data.europa.eu/949/functionalInfrastructure/operationalPoints/e16b876bbc07866e0afaa6ed54b7755e2993c24f,http://data.europa.eu/949/functionalInfrastructure/operationalPoints/BG16052,BG16052,TODOR KABLESHKOV,42.1261,24.6389,http://data.europa.eu/949/concepts/op-types/rinf/10,10,http://publications.europa.eu/resource/authority/country/BGR,10,station
http://data.europa.eu/949/functionalInfrastructure/operationalPoints/e3c77c928f492d2cc4345cb453c1494d7c464b66,http://data.europa.eu/949/functionalInfrastructure/operationalPoints/BG29701,BG29701,DEVNIA,43.2177,27.5962,http://data.europa.eu/949/concepts/op-types/rinf/10,10,http://publications.europa.eu/resource/authority/country/BGR,10,station
http://data.europa.eu/949/functionalInfrastructure/operationalPoints/e3cc487686cb818e8bda86224c9a4673d3e20eb9,http://data.europa.eu/949/functionalInfrastructure/operationalPoints/BG24029,BG24029,HAN KRUM,43.2037,26.8907,http://data.europa.eu/949/concepts/op-types/rinf/10,10,http://publications.europa.eu/resource/authority/country/BGR,10,station
http://data.europa.eu/949/functionalInfrastructure/operationalPoints/e62a69abc0e67097424037c588a743a58777b763,http://data.europa.eu/949/functionalInfrastructure/operationalPoints/BG38030,BG38030,KOMUNARI,43.0067,27.2905,http://data.europa.eu/949/concepts/op-types/rinf/10,10,http://publications.europa.eu/resource/authority/country/BGR,10,station
http://data.europa.eu/949/functionalInfrastructure/operationalPoints/e695c5644071fd41a6e51a2c6ceae45f4e8f3a14,http://data.europa.eu/949/functionalInfrastructure/operationalPoints/BG56012,BG56012,DOLNI RAKOVETS,42.4679,22.9957,http://data.europa.eu/949/concepts/op-types/rinf/20,20,http://publications.europa.eu/resource/authority/country/BGR,20,small station
http://data.europa.eu/949/functionalInfrastructure/operationalPoints/e7902e835f9ffacb073e259db1e94e7a775084bc,http://data.europa.eu/949/functionalInfrastructure/operationalPoints/BG16050,BG16050,STAMBOLIJSKI,42.133,24.5364,http://data.europa.eu/949/concepts/op-types/rinf/10,10,http://publications.europa.eu/resource/authority/country/BGR,10,station
http://data.europa.eu/949/functionalInfrastructure/operationalPoints/e81111b3dab21f95b51d72da18b240b6a593949a,http://data.europa.eu/949/functionalInfrastructure/operationalPoints/BG32054,BG32054,DUNAVTCI,42.6592,25.3025,http://data.europa.eu/949/concepts/op-types/rinf/20,20,http://publications.europa.eu/resource/authority/country/BGR,20,small station
http://data.europa.eu/949/functionalInfrastructure/operationalPoints/e8ae003e7df64958e5998f5252d4b2533d580d40,http://data.europa.eu/949/functionalInfrastructure/operationalPoints/BG56052,BG56052,STRUMYANI,41.6411,23.1989,http://data.europa.eu/949/concepts/op-types/rinf/20,20,http://publications.europa.eu/resource/authority/country/BGR,20,small station
http://data.europa.eu/949/functionalInfrastructure/operationalPoints/ea1f890d817cce63f6378e9b8fa6a0bf1f57b9a8,http://data.europa.eu/949/functionalInfrastructure/operationalPoints/BG38009,BG38009,KARNOBAT,42.6679,26.9774,http://data.europa.eu/949/concepts/op-types/rinf/80,80,http://publications.europa.eu/resource/authority/country/BGR,80,junction
http://data.europa.eu/949/functionalInfrastructure/operationalPoints/ea203415b2306de628f862de066c98936140445a,http://data.europa.eu/949/functionalInfrastructure/operationalPoints/BG27410,BG27410,SVISHTOV,43.6231,25.3372,http://data.europa.eu/949/concepts/op-types/rinf/10,10,http://publications.europa.eu/resource/authority/country/BGR,10,station
http://data.europa.eu/949/functionalInfrastructure/operationalPoints/ec36045f343415662fed13067a55d2bcbb0de59d,http://data.europa.eu/949/functionalInfrastructure/operationalPoints/BG24000,BG24000,GORNA ORJAHOVICA,43.1398,25.682,http://data.europa.eu/949/concepts/op-types/rinf/10,10,http://publications.europa.eu/resource/authority/country/BGR,10,station
http://data.europa.eu/949/functionalInfrastructure/operationalPoints/ecbd23496521fba465faac16cb94d8c867b2488f,http://data.europa.eu/949/functionalInfrastructure/operationalPoints/BG34006,BG34006,TVARDICA,42.6953,25.8985,http://data.europa.eu/949/concepts/op-types/rinf/20,20,http://publications.europa.eu/resource/authority/country/BGR,20,small station
http://data.europa.eu/949/functionalInfrastructure/operationalPoints/ee5ad18937220b2e75e4c23e018d38201c6bbd3d,http://data.europa.eu/949/functionalInfrastructure/operationalPoints/BG27210,BG27210,SOMOVIT,43.6896,24.7721,http://data.europa.eu/949/concepts/op-types/rinf/20,20,http://publications.europa.eu/resource/authority/country/BGR,20,small station
http://data.europa.eu/949/functionalInfrastructure/operationalPoints/ef54004694149e0c8d70bf4283e07e841d906b00,http://data.europa.eu/949/functionalInfrastructure/operationalPoints/BG65010,BG65010,ZEMEN,42.481,22.7474,http://data.europa.eu/949/concepts/op-types/rinf/20,20,http://publications.europa.eu/resource/authority/country/BGR,20,small station
http://data.europa.eu/949/functionalInfrastructure/operationalPoints/f1f2f2f6a84e8c23ff32c899b9236450c40c4882,http://data.europa.eu/949/functionalInfrastructure/operationalPoints/BG81201,BG81201,TRUD,42.2302,24.7241,http://data.europa.eu/949/concepts/op-types/rinf/20,20,http://publications.europa.eu/resource/authority/country/BGR,20,small station
http://data.europa.eu/949/functionalInfrastructure/operationalPoints/f4345f0e5b6119738de2b2efac502df589d4715a,http://data.europa.eu/949/functionalInfrastructure/operationalPoints/BG24030,BG24030,SHUMEN,43.2714,26.9435,http://data.europa.eu/949/concepts/op-types/rinf/80,80,http://publications.europa.eu/resource/authority/country/BGR,80,junction
http://data.europa.eu/949/functionalInfrastructure/operationalPoints/f497bc11961dcad653a1f401af0c2057d6e8393b,http://data.europa.eu/949/functionalInfrastructure/operationalPoints/BG23022,BG23022,ZVERINO,43.0811,23.5713,http://data.europa.eu/949/concepts/op-types/rinf/20,20,http://publications.europa.eu/resource/authority/country/BGR,20,small station
http://data.europa.eu/949/functionalInfrastructure/operationalPoints/f4bac0aed88354a7a3fbc344ca3ae2c2a6e16896,http://data.europa.eu/949/functionalInfrastructure/operationalPoints/BG81202,BG81202,GRAF IGNATIEVO,42.284,24.7323,http://data.europa.eu/949/concepts/op-types/rinf/20,20,http://publications.europa.eu/resource/authority/country/BGR,20,small station
http://data.europa.eu/949/functionalInfrastructure/operationalPoints/f563bc4cdc7c6ebd39a121696d025bb74486b69a,http://data.europa.eu/949/functionalInfrastructure/operationalPoints/BG27030,BG27030,PLEVEN,43.4209,24.6145,http://data.europa.eu/949/concepts/op-types/rinf/10,10,http://publications.europa.eu/resource/authority/country/BGR,10,station
http://data.europa.eu/949/functionalInfrastructure/operationalPoints/f6903ce5bd076171d90319af4fcd268ad8889542,http://data.europa.eu/949/functionalInfrastructure/operationalPoints/BG14015,BG14015,LJUBIMEC,41.8515,26.0737,http://data.europa.eu/949/concepts/op-types/rinf/20,20,http://publications.europa.eu/resource/authority/country/BGR,20,small station
http://data.europa.eu/949/functionalInfrastructure/operationalPoints/f7e1d7b74db0059a4fb99bceba375225cfa71f73,http://data.europa.eu/949/functionalInfrastructure/operationalPoints/BG83019,BG83019,BURGAS RAZPREDELITELNA,42.5171,27.4241,http://data.europa.eu/949/concepts/op-types/rinf/40,40,http://publications.europa.eu/resource/authority/country/BGR,40,freight terminal
http://data.europa.eu/949/functionalInfrastructure/operationalPoints/fba6fdc6bb439282b141b01adf05764553b3e23d,http://data.europa.eu/949/functionalInfrastructure/operationalPoints/BG34000,BG34000,TULOVO,42.5721,25.5545,http://data.europa.eu/949/concepts/op-types/rinf/80,80,http://publications.europa.eu/resource/authority/country/BGR,80,junction
http://data.europa.eu/949/functionalInfrastructure/operationalPoints/fbd506469e8e45e895fed7092f5a10d486cdcc2c,http://data.europa.eu/949/functionalInfrastructure/operationalPoints/BG81103,BG81103,SAEDINENIE,42.26,24.5344,http://data.europa.eu/949/concepts/op-types/rinf/20,20,http://publications.europa.eu/resource/authority/country/BGR,20,small station
http://data.europa.eu/949/functionalInfrastructure/operationalPoints/fc0a351813d9d21430e0ef1d4da282ae80ce0c70,http://data.europa.eu/949/functionalInfrastructure/operationalPoints/BG56046,BG56046,PEYO YAVOROV,41.7496,23.1542,http://data.europa.eu/949/concepts/op-types/rinf/20,20,http://publications.europa.eu/resource/authority/country/BGR,20,small station
http://data.europa.eu/949/functionalInfrastructure/operationalPoints/fc4e889befd4239a7307c99e0c49e62da54cab90,http://data.europa.eu/949/functionalInfrastructure/operationalPoints/BG42025,BG42025,IVANOVO,43.6842,25.9555,http://data.europa.eu/949/concepts/op-types/rinf/20,20,http://publications.europa.eu/resource/authority/country/BGR,20,small station
http://data.europa.eu/949/functionalInfrastructure/operationalPoints/fd93e2658766ea3c2e376f3b1957bb63c47c19a2,http://data.europa.eu/949/functionalInfrastructure/operationalPoints/BG26001,BG26001,SOFIA SEVER,42.7265,23.3165,http://data.europa.eu/949/concepts/op-types/rinf/80,80,http://publications.europa.eu/resource/authority/country/BGR,80,junction
http://data.europa.eu/949/functionalInfrastructure/operationalPoints/ff057c9cf01674e9250e78f9368916a54ba89db3,http://data.europa.eu/949/functionalInfrastructure/operationalPoints/BG51002,BG51002,GORNA BANYA,42.6756,23.2425,http://data.europa.eu/949/concepts/op-types/rinf/20,20,http://publications.europa.eu/resource/authority/country/BGR,20,small station
http://data.europa.eu/949/functionalInfrastructure/operationalPoints/0079b667edae4a74429b33a5b0a3069abe43728f,http://data.europa.eu/949/functionalInfrastructure/operationalPoints/BG32024,BG32024,STRYAMA,42.6955,24.4213,http://data.europa.eu/949/concepts/op-types/rinf/20,20,http://publications.europa.eu/resource/authority/country/BGR,20,small station
http://data.europa.eu/949/functionalInfrastructure/operationalPoints/01038a77d3bb8832c64412bb687ee705034b9255,http://data.europa.eu/949/functionalInfrastructure/operationalPoints/BG27404,BG27404,MORAVA,43.453,25.2064,http://data.europa.eu/949/concepts/op-types/rinf/20,20,http://publications.europa.eu/resource/authority/country/BGR,20,small station
http://data.europa.eu/949/functionalInfrastructure/operationalPoints/04f88e4dcec5e9f343823f0989f5ab9d6d8e5a84,http://data.europa.eu/949/functionalInfrastructure/operationalPoints/BG23027,BG23027,MEZDRA YUG,43.1315,23.7041,http://data.europa.eu/949/concepts/op-types/rinf/80,80,http://publications.europa.eu/resource/authority/country/BGR,80,junction
http://data.europa.eu/949/functionalInfrastructure/operationalPoints/07a66b750ba518f1822455c27faac46b3410085b,http://data.europa.eu/949/functionalInfrastructure/operationalPoints/BG38026,BG38026,TARNAK,42.9367,27.2176,http://data.europa.eu/949/concepts/op-types/rinf/10,10,http://publications.europa.eu/resource/authority/country/BGR,10,station
http://data.europa.eu/949/functionalInfrastructure/operationalPoints/08eac35a70ffa56063e64f6b32ed6c59c0fe6146,http://data.europa.eu/949/functionalInfrastructure/operationalPoints/BG11010,BG11010,ALDOMIROVCI,42.8792,22.9876,http://data.europa.eu/949/concepts/op-types/rinf/20,20,http://publications.europa.eu/resource/authority/country/BGR,20,small station
http://data.europa.eu/949/functionalInfrastructure/operationalPoints/093c6dbab250ca429749a778561b6a9a642a767e,http://data.europa.eu/949/functionalInfrastructure/operationalPoints/BG38015,BG38015,PODVIS,42.8021,26.8757,http://data.europa.eu/949/concepts/op-types/rinf/10,10,http://publications.europa.eu/resource/authority/country/BGR,10,station
http://data.europa.eu/949/functionalInfrastructure/operationalPoints/107b13d9891378e5a1d9434f7ea18d4b5e0d705c,http://data.europa.eu/949/functionalInfrastructure/operationalPoints/BG72047,BG72047,RP VIDBOL,43.9133,22.8195,http://data.europa.eu/949/concepts/op-types/rinf/70,70,http://publications.europa.eu/resource/authority/country/BGR,70,passenger stop
http://data.europa.eu/949/functionalInfrastructure/operationalPoints/1094c0a7c7116f94cd1f6ad165e8aa28fa4dc254,http://data.europa.eu/949/functionalInfrastructure/operationalPoints/BG83017,BG83017,VLADIMIR PAVLOV,42.5011,27.4577,http://data.europa.eu/949/concepts/op-types/rinf/20,20,http://publications.europa.eu/resource/authority/country/BGR,20,small station
http://data.europa.eu/949/functionalInfrastructure/operationalPoints/10d618231543e8f560104038fd2c8c9f45d51c3d,http://data.europa.eu/949/functionalInfrastructure/operationalPoints/BG84012,BG84012,KERMEN,42.4981,26.2637,http://data.europa.eu/949/concepts/op-types/rinf/20,20,http://publications.europa.eu/resource/authority/country/BGR,20,small station
http://data.europa.eu/949/functionalInfrastructure/operationalPoints/11a2b4d61ceaaa368df0c6f9d616c920134d085a,http://data.europa.eu/949/functionalInfrastructure/operationalPoints/BG32040,BG32040,KARLOVO,42.6318,24.805,http://data.europa.eu/949/concepts/op-types/rinf/10,10,http://publications.europa.eu/resource/authority/country/BGR,10,station
http://data.europa.eu/949/functionalInfrastructure/operationalPoints/1dbcc3e9d32d1562185e51696bde4987389789d2,http://data.europa.eu/949/functionalInfrastructure/operationalPoints/BG18902,BG18902,PLOVDIV RAZPREDELITELNA,42.1272,24.7652,http://data.europa.eu/949/concepts/op-types/rinf/40,40,http://publications.europa.eu/resource/authority/country/BGR,40,freight terminal
http://data.europa.eu/949/functionalInfrastructure/operationalPoints/1f97230ea41f2d2162c48951ddae71fb8c4b9906,http://data.europa.eu/949/functionalInfrastructure/operationalPoints/BG34012,BG34012,GAVRAILOVO,42.6403,26.1715,http://data.europa.eu/949/concepts/op-types/rinf/20,20,http://publications.europa.eu/resource/authority/country/BGR,20,small station
http://data.europa.eu/949/functionalInfrastructure/operationalPoints/202467b0a8cc1f36d2f81e70ac4cb79321d33fc4,http://data.europa.eu/949/functionalInfrastructure/operationalPoints/BG34008,BG34008,SHIVACHEVO,42.6801,26.0269,http://data.europa.eu/949/concepts/op-types/rinf/20,20,http://publications.europa.eu/resource/authority/country/BGR,20,small station
http://data.europa.eu/949/functionalInfrastructure/operationalPoints/20b39c5f8d95e5abbdcd6383c7c78b4dd6ecec25,http://data.europa.eu/949/functionalInfrastructure/operationalPoints/BG84010,BG84010,NOVA ZAGORA,42.4858,26.0162,http://data.europa.eu/949/concepts/op-types/rinf/10,10,http://publications.europa.eu/resource/authority/country/BGR,10,station
http://data.europa.eu/949/functionalInfrastructure/operationalPoints/24e05d3ed41602ba3789b59682ea0cfd0a7b3da9,http://data.europa.eu/949/functionalInfrastructure/operationalPoints/BG83016,BG83016,DOLNO EZEROVO,42.5164,27.3607,http://data.europa.eu/949/concepts/op-types/rinf/20,20,http://publications.europa.eu/resource/authority/country/BGR,20,small station
http://data.europa.eu/949/functionalInfrastructure/operationalPoints/2725f034f6620351aba6c02dfcc8fdd9da159471,http://data.europa.eu/949/functionalInfrastructure/operationalPoints/BG61007,BG61007,RAZMENNA,42.7111,23.0284,http://data.europa.eu/949/concepts/op-types/rinf/80,80,http://publications.europa.eu/resource/authority/country/BGR,80,junction
http://data.europa.eu/949/functionalInfrastructure/operationalPoints/2924a9415f25c7e1422c8397b6e231c35d52330e,http://data.europa.eu/949/functionalInfrastructure/operationalPoints/BG99093,BG99093,KALOTINA STRELKA 2,42.97704,22.84921,http://data.europa.eu/949/concepts/op-types/rinf/20,20,http://publications.europa.eu/resource/authority/country/BGR,20,small station
http://data.europa.eu/949/functionalInfrastructure/operationalPoints/2b450543109ad251d931b27ea4ba209700c057b7,http://data.europa.eu/949/functionalInfrastructure/operationalPoints/BG11013,BG11013,PETARCH,42.8276,23.1218,http://data.europa.eu/949/concepts/op-types/rinf/20,20,http://publications.europa.eu/resource/authority/country/BGR,20,small station
http://data.europa.eu/949/functionalInfrastructure/operationalPoints/2eaea624d07e250f9b4549f70c5d1ed27116c5bb,http://data.europa.eu/949/functionalInfrastructure/operationalPoints/BG14010,BG14010,SIMEONOVGRAD,42.0252,25.844,http://data.europa.eu/949/concepts/op-types/rinf/10,10,http://publications.europa.eu/resource/authority/country/BGR,10,station
http://data.europa.eu/949/functionalInfrastructure/operationalPoints/2eff86a401c995765af4f1e7df9d4ecc11700530,http://data.europa.eu/949/functionalInfrastructure/operationalPoints/BG24031,BG24031,MATNITSA,43.283,27.0249,http://data.europa.eu/949/concepts/op-types/rinf/10,10,http://publications.europa.eu/resource/authority/country/BGR,10,station
http://data.europa.eu/949/functionalInfrastructure/operationalPoints/310851b14aa2ed85b47467fcd53573ee7b7d2332,http://data.europa.eu/949/functionalInfrastructure/operationalPoints/EU00208,EU00208,Border(Vidin-Golenti),44.003012,22.948364,http://data.europa.eu/949/concepts/op-types/rinf/90,90,http://publications.europa.eu/resource/authority/country/BGR,90,border point
http://data.europa.eu/949/functionalInfrastructure/operationalPoints/3335767cf9cfd4ae31710f47d7bfefd8f4612f11,http://data.europa.eu/949/functionalInfrastructure/operationalPoints/BG38016,BG38016,RP PRILEP,42.8226,26.9121,http://data.europa.eu/949/concepts/op-types/rinf/20,20,http://publications.europa.eu/resource/authority/country/BGR,20,small station
http://data.europa.eu/949/functionalInfrastructure/operationalPoints/33d029b2556e507891bed85f5d400ac54d0a8e32,http://data.europa.eu/949/functionalInfrastructure/operationalPoints/BG24014,BG24014,POPOVO,43.3328,26.233,http://data.europa.eu/949/concepts/op-types/rinf/10,10,http://publications.europa.eu/resource/authority/country/BGR,10,station
http://data.europa.eu/949/functionalInfrastructure/operationalPoints/33ed95b55ef15a3706e51b105af1e42e2d96e94a,http://data.europa.eu/949/functionalInfrastructure/operationalPoints/BG11701,BG11701,STANYANTSI,43.0463,22.9215,http://data.europa.eu/949/concepts/op-types/rinf/40,40,http://publications.europa.eu/resource/authority/country/BGR,40,freight terminal
http://data.europa.eu/949/functionalInfrastructure/operationalPoints/381161432218ba2d22cb5eac0f774264e10a784e,http://data.europa.eu/949/functionalInfrastructure/operationalPoints/BG29028,BG29028,EZEROVO,43.19748,27.76897,http://data.europa.eu/949/concepts/op-types/rinf/20,20,http://publications.europa.eu/resource/authority/country/BGR,20,small station
http://data.europa.eu/949/functionalInfrastructure/operationalPoints/38620a547ef877d5bba1b0e5fddefa81f5540b57,http://data.europa.eu/949/functionalInfrastructure/operationalPoints/BG99099,BG99099,POST 1,43.85279,26.02358,http://data.europa.eu/949/concepts/op-types/rinf/20,20,http://publications.europa.eu/resource/authority/country/BGR,20,small station
http://data.europa.eu/949/functionalInfrastructure/operationalPoints/3a583ce82b2c32061f3698cac0318def63f1ad49,http://data.europa.eu/949/functionalInfrastructure/operationalPoints/BG32025,BG32025,KLISURA,42.6906,24.4624,http://data.europa.eu/949/concepts/op-types/rinf/20,20,http://publications.europa.eu/resource/authority/country/BGR,20,small station
http://data.europa.eu/949/functionalInfrastructure/operationalPoints/3d98cf359abeddaa9224e12fa6b00f1cf5f28f14,http://data.europa.eu/949/functionalInfrastructure/operationalPoints/BG32019,BG32019,CHELOPECH,42.6982,24.0765,http://data.europa.eu/949/concepts/op-types/rinf/70,70,http://publications.europa.eu/resource/authority/country/BGR,70,passenger stop
http://data.europa.eu/949/functionalInfrastructure/operationalPoints/3fc352d190c0772e6b86b60fe6ca9e740cc4adae,http://data.europa.eu/949/functionalInfrastructure/operationalPoints/BG72015,BG72015,KRIVODOL,43.3669,23.4725,http://data.europa.eu/949/concepts/op-types/rinf/20,20,http://publications.europa.eu/resource/authority/country/BGR,20,small station
http://data.europa.eu/949/functionalInfrastructure/operationalPoints/47193b909043665481810638b57617fe92792ebf,http://data.europa.eu/949/functionalInfrastructure/operationalPoints/BG83505,BG83505,RP LOZOVO,42.5209,27.4032,http://data.europa.eu/949/concepts/op-types/rinf/80,80,http://publications.europa.eu/resource/authority/country/BGR,80,junction
http://data.europa.eu/949/functionalInfrastructure/operationalPoints/48a512191e4a779b945ecc414ba3371d3837719c,http://data.europa.eu/949/functionalInfrastructure/operationalPoints/BG81002,BG81002,SKUTARE,42.1885,24.8512,http://data.europa.eu/949/concepts/op-types/rinf/20,20,http://publications.europa.eu/resource/authority/country/BGR,20,small station
http://data.europa.eu/949/functionalInfrastructure/operationalPoints/4926e79a381b3d2923bcf1e90028770e838820ba,http://data.europa.eu/949/functionalInfrastructure/operationalPoints/BG29922,BG29922,RP RAZDELNA,43.1809,27.6177,http://data.europa.eu/949/concepts/op-types/rinf/80,80,http://publications.europa.eu/resource/authority/country/BGR,80,junction
http://data.europa.eu/949/functionalInfrastructure/operationalPoints/4e0b0a2acdcd2ed3744e932dc5806b8a81615dd1,http://data.europa.eu/949/functionalInfrastructure/operationalPoints/BG38024,BG38024,DASKOTNA,42.8858,27.1942,http://data.europa.eu/949/concepts/op-types/rinf/10,10,http://publications.europa.eu/resource/authority/country/BGR,10,station
http://data.europa.eu/949/functionalInfrastructure/operationalPoints/4e137d9ec5e4b1a42ce131858f534c6d6ff1966c,http://data.europa.eu/949/functionalInfrastructure/operationalPoints/BG11210,BG11210,BANKYA,42.7059,23.1511,http://data.europa.eu/949/concepts/op-types/rinf/70,70,http://publications.europa.eu/resource/authority/country/BGR,70,passenger stop
http://data.europa.eu/949/functionalInfrastructure/operationalPoints/50cef441cbab7f91e4fd8450306abeacacc02f54,http://data.europa.eu/949/functionalInfrastructure/operationalPoints/BG23900,BG23900,RP POST 4,42.7418,23.3171,http://data.europa.eu/949/concepts/op-types/rinf/80,80,http://publications.europa.eu/resource/authority/country/BGR,80,junction
http://data.europa.eu/949/functionalInfrastructure/operationalPoints/53c6e72f209e8cb84b0b1c2762cc4dc3e6c64c2b,http://data.europa.eu/949/functionalInfrastructure/operationalPoints/BG11002,BG11002,KALOTINA,42.9802,22.8516,http://data.europa.eu/949/concepts/op-types/rinf/20,20,http://publications.europa.eu/resource/authority/country/BGR,20,small station
http://data.europa.eu/949/functionalInfrastructure/operationalPoints/564031b65473712849385fa7d0f5582f2b1ad7ab,http://data.europa.eu/949/functionalInfrastructure/operationalPoints/BG42014,BG42014,MORUNICA,43.49,25.7556,http://data.europa.eu/949/concepts/op-types/rinf/20,20,http://publications.europa.eu/resource/authority/country/BGR,20,small station
http://data.europa.eu/949/functionalInfrastructure/operationalPoints/587e4830da7115dd1a5a97d66b2ead9139ffe467,http://data.europa.eu/949/functionalInfrastructure/operationalPoints/BG51003,BG51003,VLADAYA,42.62329,23.18521,http://data.europa.eu/949/concepts/op-types/rinf/20,20,http://publications.europa.eu/resource/authority/country/BGR,20,small station
http://data.europa.eu/949/functionalInfrastructure/operationalPoints/5b5515bad541d38f8d5759a1949058d867d78492,http://data.europa.eu/949/functionalInfrastructure/operationalPoints/BG29704,BG29704,SUVOROVO,43.3341,27.5851,http://data.europa.eu/949/concepts/op-types/rinf/20,20,http://publications.europa.eu/resource/authority/country/BGR,20,small station
http://data.europa.eu/949/functionalInfrastructure/operationalPoints/5c7d622552dda45dc26e159536d257dae2184f0e,http://data.europa.eu/949/functionalInfrastructure/operationalPoints/BG38033,BG38033,VELICHKOVO,43.0469,27.4404,http://data.europa.eu/949/concepts/op-types/rinf/10,10,http://publications.europa.eu/resource/authority/country/BGR,10,station
http://data.europa.eu/949/functionalInfrastructure/operationalPoints/5fa9cba2902b784a7cce800777ab09c25fafd22a,http://data.europa.eu/949/functionalInfrastructure/operationalPoints/BG16003,BG16003,PODUYANE,42.6888,23.3759,http://data.europa.eu/949/concepts/op-types/rinf/40,40,http://publications.europa.eu/resource/authority/country/BGR,40,freight terminal
http://data.europa.eu/949/functionalInfrastructure/operationalPoints/62b2ff24fb3283ffca4cbd7bd352a4c4ef79c7fd,http://data.europa.eu/949/functionalInfrastructure/operationalPoints/BG84020,BG84020,YAMBOL,42.4958,26.4914,http://data.europa.eu/949/concepts/op-types/rinf/10,10,http://publications.europa.eu/resource/authority/country/BGR,10,station
http://data.europa.eu/949/functionalInfrastructure/operationalPoints/62e50872b3414293759d2d1aefaad201c48b5660,http://data.europa.eu/949/functionalInfrastructure/operationalPoints/BG11006,BG11006,DRAGOMAN,42.922,22.9319,http://data.europa.eu/949/concepts/op-types/rinf/10,10,http://publications.europa.eu/resource/authority/country/BGR,10,station
http://data.europa.eu/949/functionalInfrastructure/operationalPoints/63704872be7167f21062c8a0ea9a57fff902ce10,http://data.europa.eu/949/functionalInfrastructure/operationalPoints/BG83003,BG83003,CHERNOGRAD,42.7229,27.0838,http://data.europa.eu/949/concepts/op-types/rinf/20,20,http://publications.europa.eu/resource/authority/country/BGR,20,small station
http://data.europa.eu/949/functionalInfrastructure/operationalPoints/682d60b5019240d0a2e8144b4ba2e9ca24a2bc57,http://data.europa.eu/949/functionalInfrastructure/operationalPoints/BG49001,BG49001,RP DUNAV,43.857,26.0191,http://data.europa.eu/949/concepts/op-types/rinf/80,80,http://publications.europa.eu/resource/authority/country/BGR,80,junction
http://data.europa.eu/949/functionalInfrastructure/operationalPoints/684e39ea79065a4b43ce9ff1eb0aaa11fe9566df,http://data.europa.eu/949/functionalInfrastructure/operationalPoints/BG38040,BG38040,YUNAK,43.0891,27.6134,http://data.europa.eu/949/concepts/op-types/rinf/10,10,http://publications.europa.eu/resource/authority/country/BGR,10,station
http://data.europa.eu/949/functionalInfrastructure/operationalPoints/690de9bb6b62a9a96a7f092c63d174e8acb4cc8e,http://data.europa.eu/949/functionalInfrastructure/operationalPoints/BG81003,BG81003,MANOLE,42.1852,24.9234,http://data.europa.eu/949/concepts/op-types/rinf/20,20,http://publications.europa.eu/resource/authority/country/BGR,20,small station
http://data.europa.eu/949/functionalInfrastructure/operationalPoints/7398532812e30cf0bebf87639d19aaa799e79993,http://data.europa.eu/949/functionalInfrastructure/operationalPoints/BG18901,BG18901,TRAKIJA,42.1332,24.8008,http://data.europa.eu/949/concepts/op-types/rinf/20,20,http://publications.europa.eu/resource/authority/country/BGR,20,small station
http://data.europa.eu/949/functionalInfrastructure/operationalPoints/73a4dd89ced2d8a69c741393a92f4353f2942c62,http://data.europa.eu/949/functionalInfrastructure/operationalPoints/BG16001,BG16001,PODUJANE-PATNICHESKA,42.698,23.3545,http://data.europa.eu/949/concepts/op-types/rinf/10,10,http://publications.europa.eu/resource/authority/country/BGR,10,station
http://data.europa.eu/949/functionalInfrastructure/operationalPoints/75502d1841c9fb46add798ff2df559a590647814,http://data.europa.eu/949/functionalInfrastructure/operationalPoints/BG16020,BG16020,VAKAREL,42.5565,23.7075,http://data.europa.eu/949/concepts/op-types/rinf/10,10,http://publications.europa.eu/resource/authority/country/BGR,10,station
http://data.europa.eu/949/functionalInfrastructure/operationalPoints/773d18bef41cb3abe5fe8fa682ba1af166ec8f38,http://data.europa.eu/949/functionalInfrastructure/operationalPoints/BG43004,BG43004,KRASTEC,42.7698,25.552,http://data.europa.eu/949/concepts/op-types/rinf/10,10,http://publications.europa.eu/resource/authority/country/BGR,10,station
http://data.europa.eu/949/functionalInfrastructure/operationalPoints/774d3c9c3a6584b2fa2bb337c483361c10ded23c,http://data.europa.eu/949/functionalInfrastructure/operationalPoints/BG38020,BG38020,ZAVET,42.8416,27.039,http://data.europa.eu/949/concepts/op-types/rinf/10,10,http://publications.europa.eu/resource/authority/country/BGR,10,station
http://data.europa.eu/949/functionalInfrastructure/operationalPoints/7c0d49dfb8d619deb3b56662392b8c45694b524e,http://data.europa.eu/949/functionalInfrastructure/operationalPoints/BG32015,BG32015,MAKOTSEVO,42.6898,23.8035,http://data.europa.eu/949/concepts/op-types/rinf/20,20,http://publications.europa.eu/resource/authority/country/BGR,20,small station
http://data.europa.eu/949/functionalInfrastructure/operationalPoints/7fcf21e9bbb96e194eb92c0fc8cf78f973ffe1bc,http://data.europa.eu/949/functionalInfrastructure/operationalPoints/BG72044,BG72044,SRATSIMIR,43.8207,22.7568,http://data.europa.eu/949/concepts/op-types/rinf/20,20,http://publications.europa.eu/resource/authority/country/BGR,20,small station
http://data.europa.eu/949/functionalInfrastructure/operationalPoints/867d6c3b28dec1eb2b6df9b59957f2e264f4ac51,http://data.europa.eu/949/functionalInfrastructure/operationalPoints/BG65002,BG65002,RP ALEKSANDAR DIMITROV,42.4588,22.9062,http://data.europa.eu/949/concepts/op-types/rinf/120,120,http://publications.europa.eu/resource/authority/country/BGR,120,switch
http://data.europa.eu/949/functionalInfrastructure/operationalPoints/87f5574244d46fa83fd814f289af1e1c0b7e1995,http://data.europa.eu/949/functionalInfrastructure/operationalPoints/BG42901,BG42901,RP AKATSIYA,43.176,25.6667,http://data.europa.eu/949/concepts/op-types/rinf/80,80,http://publications.europa.eu/resource/authority/country/BGR,80,junction
http://data.europa.eu/949/functionalInfrastructure/operationalPoints/88c9348e425112e018ffd76d619f6dea0208c8e8,http://data.europa.eu/949/functionalInfrastructure/operationalPoints/BG44444,BG44444,RUSE ZAPAD POST 3,43.8201,25.9368,http://data.europa.eu/949/concepts/op-types/rinf/120,120,http://publications.europa.eu/resource/authority/country/BGR,120,switch
http://data.europa.eu/949/functionalInfrastructure/operationalPoints/88d79026ffd35163daa4e3cc525814984b94c7ca,http://data.europa.eu/949/functionalInfrastructure/operationalPoints/EU00211,EU00211,Border(Kalotina Zapad-Dimitrovgrad),42.99824,22.83536,http://data.europa.eu/949/concepts/op-types/rinf/90,90,http://publications.europa.eu/resource/authority/country/BGR,90,border point
http://data.europa.eu/949/functionalInfrastructure/operationalPoints/8d77658c602f984e862e9f3f5ba66b32982e1585,http://data.europa.eu/949/functionalInfrastructure/operationalPoints/BG43025,BG43025,RP SOKOLOVO,43.0208,25.5316,http://data.europa.eu/949/concepts/op-types/rinf/20,20,http://publications.europa.eu/resource/authority/country/BGR,20,small station
http://data.europa.eu/949/functionalInfrastructure/operationalPoints/90092c802d40085e94512f03103e70c52b2e910d,http://data.europa.eu/949/functionalInfrastructure/operationalPoints/BG81010,BG81010,ORIZOVO,42.2046,25.1754,http://data.europa.eu/949/concepts/op-types/rinf/20,20,http://publications.europa.eu/resource/authority/country/BGR,20,small station
http://data.europa.eu/949/functionalInfrastructure/operationalPoints/943f638d3988bb11cf328d56a848d88bd16e9f7b,http://data.europa.eu/949/functionalInfrastructure/operationalPoints/BG16911,BG16911,SOFIA TOVARNA,42.7028,23.3404,http://data.europa.eu/949/concepts/op-types/rinf/40,40,http://publications.europa.eu/resource/authority/country/BGR,40,freight terminal
http://data.europa.eu/949/functionalInfrastructure/operationalPoints/9acd2c7db0f72a3431158c2c1eb366bc406ef0a3,http://data.europa.eu/949/functionalInfrastructure/operationalPoints/BG29716,BG29716,KARDAM,43.753,28.1146,http://data.europa.eu/949/concepts/op-types/rinf/20,20,http://publications.europa.eu/resource/authority/country/BGR,20,small station
http://data.europa.eu/949/functionalInfrastructure/operationalPoints/9b4048201f694f9ad3fcd486d7e6f936a298cb1e,http://data.europa.eu/949/functionalInfrastructure/operationalPoints/BG56020,BG56020,RP GALABNIK,42.4132,23.0851,http://data.europa.eu/949/concepts/op-types/rinf/20,20,http://publications.europa.eu/resource/authority/country/BGR,20,small station
http://data.europa.eu/949/functionalInfrastructure/operationalPoints/a06a3bc1e436c1a61fbdda82db4ff76b24ee534d,http://data.europa.eu/949/functionalInfrastructure/operationalPoints/BG81220,BG81220,HISAR,42.5053,24.7008,http://data.europa.eu/949/concepts/op-types/rinf/20,20,http://publications.europa.eu/resource/authority/country/BGR,20,small station
http://data.europa.eu/949/functionalInfrastructure/operationalPoints/a1ce73a137d0bb95212684cdcacc677834473492,http://data.europa.eu/949/functionalInfrastructure/operationalPoints/EU00212,EU00212,Border (Svilengrad-Kapikule),41.72183,26.34738,http://data.europa.eu/949/concepts/op-types/rinf/90,90,http://publications.europa.eu/resource/authority/country/BGR,90,border point
http://data.europa.eu/949/functionalInfrastructure/operationalPoints/a250d15d16d69d06a946b229700a1e8cd266f031,http://data.europa.eu/949/functionalInfrastructure/operationalPoints/BG72002,BG72002,RUSKA BIALA,43.1616,23.6417,http://data.europa.eu/949/concepts/op-types/rinf/80,80,http://publications.europa.eu/resource/authority/country/BGR,80,junction
http://data.europa.eu/949/functionalInfrastructure/operationalPoints/a2feeb330fcf3f4ac21ab3085d64441aa6d1c677,http://data.europa.eu/949/functionalInfrastructure/operationalPoints/BG94026,BG94026,PLISKA,43.3446,27.0948,http://data.europa.eu/949/concepts/op-types/rinf/10,10,http://publications.europa.eu/resource/authority/country/BGR,10,station
http://data.europa.eu/949/functionalInfrastructure/operationalPoints/a45a44db2ea247a1106dde09703fb1b6f6865da0,http://data.europa.eu/949/functionalInfrastructure/operationalPoints/BG38027,BG38027,RP STRUYA,42.9565,27.27,http://data.europa.eu/949/concepts/op-types/rinf/20,20,http://publications.europa.eu/resource/authority/country/BGR,20,small station
http://data.europa.eu/949/functionalInfrastructure/operationalPoints/a82e838ac8f5dd2853e5b28bd8c0c54e17a17c86,http://data.europa.eu/949/functionalInfrastructure/operationalPoints/BG94005,BG94005,JASTREBOVO,43.748,26.1255,http://data.europa.eu/949/concepts/op-types/rinf/10,10,http://publications.europa.eu/resource/authority/country/BGR,10,station
http://data.europa.eu/949/functionalInfrastructure/operationalPoints/a890f1a803ba87292bd158259d8e41d8799d5610,http://data.europa.eu/949/functionalInfrastructure/operationalPoints/BG18010,BG18010,PARVOMAJ,42.1003,25.224,http://data.europa.eu/949/concepts/op-types/rinf/10,10,http://publications.europa.eu/resource/authority/country/BGR,10,station
http://data.europa.eu/949/functionalInfrastructure/operationalPoints/a8baffa74c22c467e326b488124059c645c84c74,http://data.europa.eu/949/functionalInfrastructure/operationalPoints/BG11012,BG11012,SLIVNICA,42.8495,23.056,http://data.europa.eu/949/concepts/op-types/rinf/10,10,http://publications.europa.eu/resource/authority/country/BGR,10,station
http://data.europa.eu/949/functionalInfrastructure/operationalPoints/a921d7c528149428647e5e67c69a089d60c40f7f,http://data.europa.eu/949/functionalInfrastructure/operationalPoints/BG72052,BG72052,RP KAPITANOVTSI,44.0165,22.8929,http://data.europa.eu/949/concepts/op-types/rinf/20,20,http://publications.europa.eu/resource/authority/country/BGR,20,small station
http://data.europa.eu/949/functionalInfrastructure/operationalPoints/ac3b9bd067a396c8e4d0cf629379b608e2c6bc5c,http://data.europa.eu/949/functionalInfrastructure/operationalPoints/BG16909,BG16909,OBEDINENA,42.7519,23.5295,http://data.europa.eu/949/concepts/op-types/rinf/130,130,http://publications.europa.eu/resource/authority/country/BGR,130,private siding
http://data.europa.eu/949/functionalInfrastructure/operationalPoints/add58bbfd3b1535cdfee219e5c39ba4370d34cf0,http://data.europa.eu/949/functionalInfrastructure/operationalPoints/BG29022,BG29022,RAZDELNA,43.169,27.6242,http://data.europa.eu/949/concepts/op-types/rinf/80,80,http://publications.europa.eu/resource/authority/country/BGR,80,junction
