uri,uri_canonical,id,name,lat,lon,op_type,op_type_label,country,op_type_code,op_type_name
http://data.europa.eu/949/functionalInfrastructure/operationalPoints/03e8524c16e2b7e1fa53d4d46011252353d194af,http://data.europa.eu/949/functionalInfrastructure/operationalPoints/PT53140,PT53140,Alcains,39.92,-7.4361,http://data.europa.eu/949/concepts/op-types/rinf/20,20,http://publications.europa.eu/resource/authority/country/PRT,20,small station
http://data.europa.eu/949/functionalInfrastructure/operationalPoints/0627e2b71d279bb1afd148501bb399a7450737a9,http://data.europa.eu/949/functionalInfrastructure/operationalPoints/PT09423,PT09423,Godim,41.1664,-7.7976,http://data.europa.eu/949/concepts/op-types/rinf/20,20,http://publications.europa.eu/resource/authority/country/PRT,20,small station
http://data.europa.eu/949/functionalInfrastructure/operationalPoints/06365c79903c1db0efe9bad22431fe95bf78c051,http://data.europa.eu/949/functionalInfrastructure/operationalPoints/PT63404,PT63404,Martingança,39.6872,-8.9458,http://data.europa.eu/949/concepts/op-types/rinf/20,20,http://publications.europa.eu/resource/authority/country/PRT,20,small station
http://data.europa.eu/949/functionalInfrastructure/operationalPoints/0b29d452162b5987c779f85daea2fdedd88d56d7,http://data.europa.eu/949/functionalInfrastructure/operationalPoints/PT30007,PT30007,Lisboa Santa Apolónia,38.7137,-9.123,http://data.europa.eu/949/concepts/op-types/rinf/10,10,http://publications.europa.eu/resource/authority/country/PRT,10,station
http://data.europa.eu/949/functionalInfrastructure/operationalPoints/0e38eb21c7dcca11d47378cad70b9d57f1a311df,http://data.europa.eu/949/functionalInfrastructure/operationalPoints/PT34009,PT34009,Entroncamento,39.4617,-8.4738,http://data.europa.eu/949/concepts/op-types/rinf/10,10,http://publications.europa.eu/resource/authority/country/PRT,10,station
http://data.europa.eu/949/functionalInfrastructure/operationalPoints/0f5f65c2047999a901fd75e3f8c5e555f6f36844,http://data.europa.eu/949/functionalInfrastructure/operationalPoints/PT49460,PT49460,Vilar Formoso,40.6061,-6.8289,http://data.europa.eu/949/concepts/op-types/rinf/10,10,http://publications.europa.eu/resource/authority/country/PRT,10,station
http://data.europa.eu/949/functionalInfrastructure/operationalPoints/129f15be4c68d880cb95873e81ab81eb5c6e5eda,http://data.europa.eu/949/functionalInfrastructure/operationalPoints/PT32003,PT32003,Setil,39.1135,-8.7779,http://data.europa.eu/949/concepts/op-types/rinf/10,10,http://publications.europa.eu/resource/authority/country/PRT,10,station
http://data.europa.eu/949/functionalInfrastructure/operationalPoints/15e6ddbffff5d794a8308af2b06cbd1e0b1de4f7,http://data.europa.eu/949/functionalInfrastructure/operationalPoints/PT46672,PT46672,Nelas,40.5301,-7.8499,http://data.europa.eu/949/concepts/op-types/rinf/20,20,http://publications.europa.eu/resource/authority/country/PRT,20,small station
http://data.europa.eu/949/functionalInfrastructure/operationalPoints/17aac0dd811ce3852e47b220fac851b164f1e7ad,http://data.europa.eu/949/functionalInfrastructure/operationalPoints/PT32185,PT32185,Santarém,39.2421,-8.6752,http://data.europa.eu/949/concepts/op-types/rinf/20,20,http://publications.europa.eu/resource/authority/country/PRT,20,small station
http://data.europa.eu/949/functionalInfrastructure/operationalPoints/1a45c349e5b22f995ec9f5dae83ee818a3b466bf,http://data.europa.eu/949/functionalInfrastructure/operationalPoints/PT52803,PT52803,Sarnadas,39.7564,-7.6238,http://data.europa.eu/949/concepts/op-types/rinf/20,20,http://publications.europa.eu/resource/authority/country/PRT,20,small station
http://data.europa.eu/949/functionalInfrastructure/operationalPoints/1c7178b0969fd72ab1180c96b45c2a96a86f5912,http://data.europa.eu/949/functionalInfrastructure/operationalPoints/PT52068,PT52068,Alferrarede,39.4737,-8.1869,http://data.europa.eu/949/concepts/op-types/rinf/20,20,http://publications.europa.eu/resource/authority/country/PRT,20,small station
http://data.europa.eu/949/functionalInfrastructure/operationalPoints/1d2a03c52d80fbe7b0ec8745093ea5295b925e23,http://data.europa.eu/949/functionalInfrastructure/operationalPoints/PT74278,PT74278,Vila Nova da Baronia,38.2938,-8.0351,http://data.europa.eu/949/concepts/op-types/rinf/20,20,http://publications.europa.eu/resource/authority/country/PRT,20,small station
http://data.europa.eu/949/functionalInfrastructure/operationalPoints/1e10e04089a6c3dbded21aaf498ed81592ed2be7,http://data.europa.eu/949/functionalInfrastructure/operationalPoints/PT67025,PT67025,Alcântara-Terra,38.7074,-9.1733,http://data.europa.eu/949/concepts/op-types/rinf/20,20,http://publications.europa.eu/resource/authority/country/PRT,20,small station
http://data.europa.eu/949/functionalInfrastructure/operationalPoints/1e2e1c9273dff496091bb85af4ded4a80e4f0ed3,http://data.europa.eu/949/functionalInfrastructure/operationalPoints/PT62703,PT62703,Bombarral,39.2651,-9.1534,http://data.europa.eu/949/concepts/op-types/rinf/20,20,http://publications.europa.eu/resource/authority/country/PRT,20,small station
http://data.europa.eu/949/functionalInfrastructure/operationalPoints/1e8c54548c892a0c4de41d940d30d18a0b74d91b,http://data.europa.eu/949/functionalInfrastructure/operationalPoints/PT51243,PT51243,Tramagal,39.4604,-8.248,http://data.europa.eu/949/concepts/op-types/rinf/20,20,http://publications.europa.eu/resource/authority/country/PRT,20,small station
http://data.europa.eu/949/functionalInfrastructure/operationalPoints/20de304baf1cf8098335203e0da5bc3707bb0e41,http://data.europa.eu/949/functionalInfrastructure/operationalPoints/PT31880,PT31880,Azambuja - GM,39.0463,-8.9115,http://data.europa.eu/949/concepts/op-types/rinf/40,40,http://publications.europa.eu/resource/authority/country/PRT,40,freight terminal
http://data.europa.eu/949/functionalInfrastructure/operationalPoints/24b85c90fa7937ca5aae68e414607f648310cf70,http://data.europa.eu/949/functionalInfrastructure/operationalPoints/PT38034,PT38034,Plataforma de Cacia,40.6602,-8.6173,http://data.europa.eu/949/concepts/op-types/rinf/40,40,http://publications.europa.eu/resource/authority/country/PRT,40,freight terminal
http://data.europa.eu/949/functionalInfrastructure/operationalPoints/27c5c0e6e445491c17746558006a2d4b96ae23b8,http://data.europa.eu/949/functionalInfrastructure/operationalPoints/PT37002,PT37002,Pampilhosa,40.3381,-8.4311,http://data.europa.eu/949/concepts/op-types/rinf/10,10,http://publications.europa.eu/resource/authority/country/PRT,10,station
http://data.europa.eu/949/functionalInfrastructure/operationalPoints/2ddba994b392cddc3e4142eeadb07cdfc1240c27,http://data.europa.eu/949/functionalInfrastructure/operationalPoints/PT68155,PT68155,Setúbal-Mar,38.5201,-8.8791,http://data.europa.eu/949/concepts/op-types/rinf/10,10,http://publications.europa.eu/resource/authority/country/PRT,10,station
http://data.europa.eu/949/functionalInfrastructure/operationalPoints/3591998f051a9cfc0a9ab0eadb8ddecaa63f9715,http://data.europa.eu/949/functionalInfrastructure/operationalPoints/PT36004,PT36004,Coimbra B,40.2247,-8.4405,http://data.europa.eu/949/concepts/op-types/rinf/10,10,http://publications.europa.eu/resource/authority/country/PRT,10,station
http://data.europa.eu/949/functionalInfrastructure/operationalPoints/38ad5fba0df109652fa500e18167326dcfc42919,http://data.europa.eu/949/functionalInfrastructure/operationalPoints/PT99325,PT99325,Raquete,37.9729,-8.772,http://data.europa.eu/949/concepts/op-types/rinf/40,40,http://publications.europa.eu/resource/authority/country/PRT,40,freight terminal
http://data.europa.eu/949/functionalInfrastructure/operationalPoints/3a1c1feaabda89234ee843022a7055e61f3b27fc,http://data.europa.eu/949/functionalInfrastructure/operationalPoints/PT48546,PT48546,Vila Franca das Naves,40.7247,-7.2581,http://data.europa.eu/949/concepts/op-types/rinf/20,20,http://publications.europa.eu/resource/authority/country/PRT,20,small station
http://data.europa.eu/949/functionalInfrastructure/operationalPoints/3b1f9b1031c59f2cbb69084174da07f1a4cf07e6,http://data.europa.eu/949/functionalInfrastructure/operationalPoints/PT02006,PT02006,Porto Campanhã,41.1487,-8.5848,http://data.europa.eu/949/concepts/op-types/rinf/10,10,http://publications.europa.eu/resource/authority/country/PRT,10,station
http://data.europa.eu/949/functionalInfrastructure/operationalPoints/3b81751090d3d22a806de2deb0f46c40a23ad735,http://data.europa.eu/949/functionalInfrastructure/operationalPoints/PT34801,PT34801,Soure,40.0549,-8.6394,http://data.europa.eu/949/concepts/op-types/rinf/20,20,http://publications.europa.eu/resource/authority/country/PRT,20,small station
http://data.europa.eu/949/functionalInfrastructure/operationalPoints/3c23937223b7403016f00730356a60959548b8d6,http://data.europa.eu/949/functionalInfrastructure/operationalPoints/PT33001,PT33001,Azambuja,39.0681,-8.8669,http://data.europa.eu/949/concepts/op-types/rinf/10,10,http://publications.europa.eu/resource/authority/country/PRT,10,station
http://data.europa.eu/949/functionalInfrastructure/operationalPoints/3d4a65c0a16123ae5a6311b853af9534af754a6c,http://data.europa.eu/949/functionalInfrastructure/operationalPoints/PT38406,PT38406,Esmoriz,40.9628,-8.6355,http://data.europa.eu/949/concepts/op-types/rinf/20,20,http://publications.europa.eu/resource/authority/country/PRT,20,small station
http://data.europa.eu/949/functionalInfrastructure/operationalPoints/3f940528302b457d4a421887aaafeb83e69768ee,http://data.europa.eu/949/functionalInfrastructure/operationalPoints/PT57000,PT57000,Portalegre,39.1989,-7.4611,http://data.europa.eu/949/concepts/op-types/rinf/20,20,http://publications.europa.eu/resource/authority/country/PRT,20,small station
http://data.europa.eu/949/functionalInfrastructure/operationalPoints/42bd74a4b4657a06f990105e38704cedfc55b855,http://data.europa.eu/949/functionalInfrastructure/operationalPoints/PT51128,PT51128,Praia do Ribatejo,39.4672,-8.3476,http://data.europa.eu/949/concepts/op-types/rinf/20,20,http://publications.europa.eu/resource/authority/country/PRT,20,small station
http://data.europa.eu/949/functionalInfrastructure/operationalPoints/45a77ba27ab0b5d5176f7310efeda5fa555c0d38,http://data.europa.eu/949/functionalInfrastructure/operationalPoints/PT03004,PT03004,Contumil,41.1687,-8.5748,http://data.europa.eu/949/concepts/op-types/rinf/10,10,http://publications.europa.eu/resource/authority/country/PRT,10,station
http://data.europa.eu/949/functionalInfrastructure/operationalPoints/4cef09f55de91740fe0329a2fac1baefde29e692,http://data.europa.eu/949/functionalInfrastructure/operationalPoints/PT62471,PT62471,Torres Vedras,39.0927,-9.2544,http://data.europa.eu/949/concepts/op-types/rinf/20,20,http://publications.europa.eu/resource/authority/country/PRT,20,small station
http://data.europa.eu/949/functionalInfrastructure/operationalPoints/4d67b32c09057e08d4a789f983f06c6c8bbf0d3f,http://data.europa.eu/949/functionalInfrastructure/operationalPoints/PT95109,PT95109,Moita,38.6448,-8.996,http://data.europa.eu/949/concepts/op-types/rinf/20,20,http://publications.europa.eu/resource/authority/country/PRT,20,small station
http://data.europa.eu/949/functionalInfrastructure/operationalPoints/4db6173edece61e34111ec125d41a68802683b4a,http://data.europa.eu/949/functionalInfrastructure/operationalPoints/PT48009,PT48009,Mangualde,40.5866,-7.7602,http://data.europa.eu/949/concepts/op-types/rinf/10,10,http://publications.europa.eu/resource/authority/country/PRT,10,station
http://data.europa.eu/949/functionalInfrastructure/operationalPoints/4dd9dad01a34f4bc2e1dea670c48a31d5ff25f8f,http://data.europa.eu/949/functionalInfrastructure/operationalPoints/PT46599,PT46599,Canas Felgueira,40.4909,-7.9066,http://data.europa.eu/949/concepts/op-types/rinf/20,20,http://publications.europa.eu/resource/authority/country/PRT,20,small station
http://data.europa.eu/949/functionalInfrastructure/operationalPoints/4f56a7463be5537736abb00cb98c60ce45afbb38,http://data.europa.eu/949/functionalInfrastructure/operationalPoints/PT78667,PT78667,Terminal de Loulé,37.1052,-8.0616,http://data.europa.eu/949/concepts/op-types/rinf/40,40,http://publications.europa.eu/resource/authority/country/PRT,40,freight terminal
http://data.europa.eu/949/functionalInfrastructure/operationalPoints/5223e52f7377ddbde49db5b5a9049c6ecdee04e0,http://data.europa.eu/949/functionalInfrastructure/operationalPoints/PT92338,PT92338,Alcácer do Sal,38.3729,-8.525,http://data.europa.eu/949/concepts/op-types/rinf/20,20,http://publications.europa.eu/resource/authority/country/PRT,20,small station
http://data.europa.eu/949/functionalInfrastructure/operationalPoints/5dcd4b3344234ff51aca64270b9fdf6677cf6098,http://data.europa.eu/949/functionalInfrastructure/operationalPoints/PT39040,PT39040,Granja,41.0384,-8.6471,http://data.europa.eu/949/concepts/op-types/rinf/20,20,http://publications.europa.eu/resource/authority/country/PRT,20,small station
http://data.europa.eu/949/functionalInfrastructure/operationalPoints/622f82672536856e86fc6c1c38ee7e7928ed8e10,http://data.europa.eu/949/functionalInfrastructure/operationalPoints/PT71126,PT71126,Pegões,38.6623,-8.6191,http://data.europa.eu/949/concepts/op-types/rinf/20,20,http://publications.europa.eu/resource/authority/country/PRT,20,small station
http://data.europa.eu/949/functionalInfrastructure/operationalPoints/64b6c1691a92dec70e76f1f67b65f74b1851ee58,http://data.europa.eu/949/functionalInfrastructure/operationalPoints/PT80655,PT80655,Vidigal,38.7023,-8.4785,http://data.europa.eu/949/concepts/op-types/rinf/10,10,http://publications.europa.eu/resource/authority/country/PRT,10,station
http://data.europa.eu/949/functionalInfrastructure/operationalPoints/66793b5eab83459ff8250c2b2db31922a66d9058,http://data.europa.eu/949/functionalInfrastructure/operationalPoints/PT57497,PT57497,Elvas,38.8955,-7.1423,http://data.europa.eu/949/concepts/op-types/rinf/20,20,http://publications.europa.eu/resource/authority/country/PRT,20,small station
http://data.europa.eu/949/functionalInfrastructure/operationalPoints/684abbad25bed2542982595f3d5209ba90cb32b8,http://data.europa.eu/949/functionalInfrastructure/operationalPoints/PT34645,PT34645,Pombal,39.9165,-8.6301,http://data.europa.eu/949/concepts/op-types/rinf/20,20,http://publications.europa.eu/resource/authority/country/PRT,20,small station
http://data.europa.eu/949/functionalInfrastructure/operationalPoints/6c7562bba4e712b5073090fca050035c0d7705e4,http://data.europa.eu/949/functionalInfrastructure/operationalPoints/PT63131,PT63131,São Martinho do Porto,39.5082,-9.1332,http://data.europa.eu/949/concepts/op-types/rinf/20,20,http://publications.europa.eu/resource/authority/country/PRT,20,small station
http://data.europa.eu/949/functionalInfrastructure/operationalPoints/6eb5e2f8ed0d43027a12b0bc956d81c00f6b28e0,http://data.europa.eu/949/functionalInfrastructure/operationalPoints/PT46482,PT46482,Carregal do Sal,40.4332,-8.0075,http://data.europa.eu/949/concepts/op-types/rinf/20,20,http://publications.europa.eu/resource/authority/country/PRT,20,small station
http://data.europa.eu/949/functionalInfrastructure/operationalPoints/7057a8f10ff678d2b8d2ecea624204fa13d7c6ea,http://data.europa.eu/949/functionalInfrastructure/operationalPoints/PT06122,PT06122,Barcelos,41.5366,-8.609,http://data.europa.eu/949/concepts/op-types/rinf/20,20,http://publications.europa.eu/resource/authority/country/PRT,20,small station
http://data.europa.eu/949/functionalInfrastructure/operationalPoints/717703a79a29f4e31114f634d592248e041d084b,http://data.europa.eu/949/functionalInfrastructure/operationalPoints/PT53009,PT53009,Castelo Branco,39.8181,-7.4907,http://data.europa.eu/949/concepts/op-types/rinf/20,20,http://publications.europa.eu/resource/authority/country/PRT,20,small station
http://data.europa.eu/949/functionalInfrastructure/operationalPoints/7372c1df3c0ad00014d2b2715970a60761d9317f,http://data.europa.eu/949/functionalInfrastructure/operationalPoints/PT63560,PT63560,Leiria,39.7566,-8.8279,http://data.europa.eu/949/concepts/op-types/rinf/10,10,http://publications.europa.eu/resource/authority/country/PRT,10,station
http://data.europa.eu/949/functionalInfrastructure/operationalPoints/74f3fa2da9e20fa7a5c120bec625f7f96e393b8c,http://data.europa.eu/949/functionalInfrastructure/operationalPoints/PT12005,PT12005,Pocinho,41.1303,-7.1235,http://data.europa.eu/949/concepts/op-types/rinf/20,20,http://publications.europa.eu/resource/authority/country/PRT,20,small station
http://data.europa.eu/949/functionalInfrastructure/operationalPoints/75c6c67e98da821bb9ca96f22f470fc6680a107d,http://data.europa.eu/949/functionalInfrastructure/operationalPoints/PT10009,PT10009,Régua,41.1586,-7.7836,http://data.europa.eu/949/concepts/op-types/rinf/10,10,http://publications.europa.eu/resource/authority/country/PRT,10,station
http://data.europa.eu/949/functionalInfrastructure/operationalPoints/767d8bf90e7f5d91bfddf8ccbf6bcf60f8582c6a,http://data.europa.eu/949/functionalInfrastructure/operationalPoints/PT63263,PT63263,Valado,39.5845,-9.0177,http://data.europa.eu/949/concepts/op-types/rinf/20,20,http://publications.europa.eu/resource/authority/country/PRT,20,small station
http://data.europa.eu/949/functionalInfrastructure/operationalPoints/76d3d559bdebfff7848b703f8f5719046a112af0,http://data.europa.eu/949/functionalInfrastructure/operationalPoints/PT76158,PT76158,Ourique,37.7457,-8.2267,http://data.europa.eu/949/concepts/op-types/rinf/10,10,http://publications.europa.eu/resource/authority/country/PRT,10,station
http://data.europa.eu/949/functionalInfrastructure/operationalPoints/7f8a8dd6f6b9974d0dba55fe4ea2c995205ec93b,http://data.europa.eu/949/functionalInfrastructure/operationalPoints/PT68007,PT68007,Pinhal Novo,38.6302,-8.9153,http://data.europa.eu/949/concepts/op-types/rinf/10,10,http://publications.europa.eu/resource/authority/country/PRT,10,station
http://data.europa.eu/949/functionalInfrastructure/operationalPoints/7fea2a9e9ad999b389a140c5148eb9c0b926ecd7,http://data.europa.eu/949/functionalInfrastructure/operationalPoints/PT48249,PT48249,Fornos de Algodres,40.6103,-7.527,http://data.europa.eu/949/concepts/op-types/rinf/20,20,http://publications.europa.eu/resource/authority/country/PRT,20,small station
http://data.europa.eu/949/functionalInfrastructure/operationalPoints/8038a588b756b9ef54f69860e055f8791c3d6400,http://data.europa.eu/949/functionalInfrastructure/operationalPoints/PT56002,PT56002,Torre das Vargens,39.3096,-7.9085,http://data.europa.eu/949/concepts/op-types/rinf/20,20,http://publications.europa.eu/resource/authority/country/PRT,20,small station
http://data.europa.eu/949/functionalInfrastructure/operationalPoints/813c90817d5a2c25b7ba46a0e12633dc42e6b096,http://data.europa.eu/949/functionalInfrastructure/operationalPoints/PT55293,PT55293,Ponte de Sôr,39.2655,-8.013,http://data.europa.eu/949/concepts/op-types/rinf/20,20,http://publications.europa.eu/resource/authority/country/PRT,20,small station
http://data.europa.eu/949/functionalInfrastructure/operationalPoints/813e14cebadfea501719537195553d0a01fa1d55,http://data.europa.eu/949/functionalInfrastructure/operationalPoints/PT62091,PT62091,Sabugo,38.8305,-9.3,http://data.europa.eu/949/concepts/op-types/rinf/20,20,http://publications.europa.eu/resource/authority/country/PRT,20,small station
http://data.europa.eu/949/functionalInfrastructure/operationalPoints/8c0246f86d54b7612a873e30041a17176ec13902,http://data.europa.eu/949/functionalInfrastructure/operationalPoints/PT21154,PT21154,Leixões,41.1901,-8.6848,http://data.europa.eu/949/concepts/op-types/rinf/20,20,http://publications.europa.eu/resource/authority/country/PRT,20,small station
http://data.europa.eu/949/functionalInfrastructure/operationalPoints/8fafde791dd1e9ae6b3e5dc2ae54138ba223000a,http://data.europa.eu/949/functionalInfrastructure/operationalPoints/PT31237,PT31237,Alhandra,38.924,-9.0113,http://data.europa.eu/949/concepts/op-types/rinf/10,10,http://publications.europa.eu/resource/authority/country/PRT,10,station
http://data.europa.eu/949/functionalInfrastructure/operationalPoints/964adacb522d91c0644121e2b28c544f95793440,http://data.europa.eu/949/functionalInfrastructure/operationalPoints/PT31187,PT31187,Alverca,38.8905,-9.0332,http://data.europa.eu/949/concepts/op-types/rinf/10,10,http://publications.europa.eu/resource/authority/country/PRT,10,station
http://data.europa.eu/949/functionalInfrastructure/operationalPoints/98bdce5b371cb694d4908f180c03fc5761b6cc91,http://data.europa.eu/949/functionalInfrastructure/operationalPoints/PT72009,PT72009,Vendas Novas,38.6794,-8.4544,http://data.europa.eu/949/concepts/op-types/rinf/10,10,http://publications.europa.eu/resource/authority/country/PRT,10,station
http://data.europa.eu/949/functionalInfrastructure/operationalPoints/9aabe13724d0cea0e97985c45adc4366d78695bc,http://data.europa.eu/949/functionalInfrastructure/operationalPoints/PT37143,PT37143,Mogofores,40.4504,-8.4594,http://data.europa.eu/949/concepts/op-types/rinf/20,20,http://publications.europa.eu/resource/authority/country/PRT,20,small station
http://data.europa.eu/949/functionalInfrastructure/operationalPoints/9b1dd2b2eff1aa48603449ee7857c551cc3eebaa,http://data.europa.eu/949/functionalInfrastructure/operationalPoints/PT52001,PT52001,Abrantes,39.4402,-8.1943,http://data.europa.eu/949/concepts/op-types/rinf/10,10,http://publications.europa.eu/resource/authority/country/PRT,10,station
http://data.europa.eu/949/functionalInfrastructure/operationalPoints/9db8bd008d2f5d175a04be2ce047d40554134f45,http://data.europa.eu/949/functionalInfrastructure/operationalPoints/PT46524,PT46524,Oliveirinha Cabanas,40.4503,-7.9633,http://data.europa.eu/949/concepts/op-types/rinf/20,20,http://publications.europa.eu/resource/authority/country/PRT,20,small station
http://data.europa.eu/949/functionalInfrastructure/operationalPoints/9eb362ad575825ce4bf2e795ebffb8b03bbd2d6c,http://data.europa.eu/949/functionalInfrastructure/operationalPoints/PT71001,PT71001,Poceirão,38.6344,-8.7434,http://data.europa.eu/949/concepts/op-types/rinf/10,10,http://publications.europa.eu/resource/authority/country/PRT,10,station
http://data.europa.eu/949/functionalInfrastructure/operationalPoints/9ffb5395e3424851e037b1fc2a73f882f3554ef1,http://data.europa.eu/949/functionalInfrastructure/operationalPoints/PT64113,PT64113,Figueira da Foz,40.1484,-8.8473,http://data.europa.eu/949/concepts/op-types/rinf/10,10,http://publications.europa.eu/resource/authority/country/PRT,10,station
http://data.europa.eu/949/functionalInfrastructure/operationalPoints/a18bf9c4eaf79ebbbf2822a558f9668b9b59a88f,http://data.europa.eu/949/functionalInfrastructure/operationalPoints/PT46367,PT46367,Santa Comba Dão,40.3905,-8.1244,http://data.europa.eu/949/concepts/op-types/rinf/20,20,http://publications.europa.eu/resource/authority/country/PRT,20,small station
http://data.europa.eu/949/functionalInfrastructure/operationalPoints/a40fb8bcb6ef8b23b4633902eba59eae6e7b995b,http://data.europa.eu/949/functionalInfrastructure/operationalPoints/PT68080,PT68080,Palmela,38.5769,-8.8739,http://data.europa.eu/949/concepts/op-types/rinf/20,20,http://publications.europa.eu/resource/authority/country/PRT,20,small station
http://data.europa.eu/949/functionalInfrastructure/operationalPoints/a46953ed6a84ced6e2d083c05ddec6ea64297bec,http://data.europa.eu/949/functionalInfrastructure/operationalPoints/PT93005,PT93005,Ermidas - Sado,38.0028,-8.4139,http://data.europa.eu/949/concepts/op-types/rinf/10,10,http://publications.europa.eu/resource/authority/country/PRT,10,station
http://data.europa.eu/949/functionalInfrastructure/operationalPoints/a6d6733c21b007e53c265a5c3a43aa9564e69197,http://data.europa.eu/949/functionalInfrastructure/operationalPoints/PT80325,PT80325,Coruche,38.9503,-8.5409,http://data.europa.eu/949/concepts/op-types/rinf/20,20,http://publications.europa.eu/resource/authority/country/PRT,20,small station
http://data.europa.eu/949/functionalInfrastructure/operationalPoints/a78589c1ce47b9a513d2e754e6d62e405c3c4a88,http://data.europa.eu/949/functionalInfrastructure/operationalPoints/PT75002,PT75002,Beja,38.0184,-7.8585,http://data.europa.eu/949/concepts/op-types/rinf/20,20,http://publications.europa.eu/resource/authority/country/PRT,20,small station
http://data.europa.eu/949/functionalInfrastructure/operationalPoints/a8266182ea6ce9951233b09ce75bbd2a3380c6ad,http://data.europa.eu/949/functionalInfrastructure/operationalPoints/PT35006,PT35006,Alfarelos,40.1647,-8.6347,http://data.europa.eu/949/concepts/op-types/rinf/10,10,http://publications.europa.eu/resource/authority/country/PRT,10,station
http://data.europa.eu/949/functionalInfrastructure/operationalPoints/b05f3db888a461ba4ffe995db51f23c2a0326e05,http://data.europa.eu/949/functionalInfrastructure/operationalPoints/PT17095,PT17095,Penalva,38.5897,-8.9957,http://data.europa.eu/949/concepts/op-types/rinf/20,20,http://publications.europa.eu/resource/authority/country/PRT,20,small station
http://data.europa.eu/949/functionalInfrastructure/operationalPoints/b17e53f7eb7d002942be6cb03f4e4464063992bc,http://data.europa.eu/949/functionalInfrastructure/operationalPoints/PT38299,PT38299,Ovar,40.864,-8.6166,http://data.europa.eu/949/concepts/op-types/rinf/20,20,http://publications.europa.eu/resource/authority/country/PRT,20,small station
http://data.europa.eu/949/functionalInfrastructure/operationalPoints/b6915056f2cc2cfdc58e6868b6ff53dbdc7edac5,http://data.europa.eu/949/functionalInfrastructure/operationalPoints/PT83006,PT83006,Évora,38.5605,-7.9072,http://data.europa.eu/949/concepts/op-types/rinf/20,20,http://publications.europa.eu/resource/authority/country/PRT,20,small station
http://data.europa.eu/949/functionalInfrastructure/operationalPoints/b8542db31703de9ba8f03841757a77f677ec5c3d,http://data.europa.eu/949/functionalInfrastructure/operationalPoints/PT39164,PT39164,Gaia,41.1296,-8.6204,http://data.europa.eu/949/concepts/op-types/rinf/10,10,http://publications.europa.eu/resource/authority/country/PRT,10,station
http://data.europa.eu/949/functionalInfrastructure/operationalPoints/be231599c2e301617b3d8b976f779a9a7c96da91,http://data.europa.eu/949/functionalInfrastructure/operationalPoints/PT48165,PT48165,Gouveia,40.5733,-7.602,http://data.europa.eu/949/concepts/op-types/rinf/20,20,http://publications.europa.eu/resource/authority/country/PRT,20,small station
http://data.europa.eu/949/functionalInfrastructure/operationalPoints/be904bd604687a9788b0920cac2f93e539f03cfb,http://data.europa.eu/949/functionalInfrastructure/operationalPoints/PT74476,PT74476,Cuba,38.1631,-7.8948,http://data.europa.eu/949/concepts/op-types/rinf/20,20,http://publications.europa.eu/resource/authority/country/PRT,20,small station
http://data.europa.eu/949/functionalInfrastructure/operationalPoints/bebd0e27ba56169b8590c6d6543d62d23827b421,http://data.europa.eu/949/functionalInfrastructure/operationalPoints/PT31120,PT31120,Terminal Mercadorias Bobadela,38.8169,-9.0889,http://data.europa.eu/949/concepts/op-types/rinf/40,40,http://publications.europa.eu/resource/authority/country/PRT,40,freight terminal
http://data.europa.eu/949/functionalInfrastructure/operationalPoints/bf937065d4912b5bd9511d7d83a93d5f9e346975,http://data.europa.eu/949/functionalInfrastructure/operationalPoints/PT31310,PT31310,Castanheira do Ribatejo,38.9879,-8.966,http://data.europa.eu/949/concepts/op-types/rinf/10,10,http://publications.europa.eu/resource/authority/country/PRT,10,station
http://data.europa.eu/949/functionalInfrastructure/operationalPoints/c70fdd703a0257acc9dfbf460f415b662b246540,http://data.europa.eu/949/functionalInfrastructure/operationalPoints/PT11007,PT11007,Tua,41.2074,-7.4201,http://data.europa.eu/949/concepts/op-types/rinf/20,20,http://publications.europa.eu/resource/authority/country/PRT,20,small station
http://data.europa.eu/949/functionalInfrastructure/operationalPoints/cb98f7191f046a7d291a23dafc9e1929e5cb851f,http://data.europa.eu/949/functionalInfrastructure/operationalPoints/PT38158,PT38158,Estarreja,40.7511,-8.5754,http://data.europa.eu/949/concepts/op-types/rinf/20,20,http://publications.europa.eu/resource/authority/country/PRT,20,small station
http://data.europa.eu/949/functionalInfrastructure/operationalPoints/cd54e232c09df0ba0d5bbccf3d147ec02ed1b670,http://data.europa.eu/949/functionalInfrastructure/operationalPoints/PT32284,PT32284,Vale de Figueira,39.3138,-8.6299,http://data.europa.eu/949/concepts/op-types/rinf/20,20,http://publications.europa.eu/resource/authority/country/PRT,20,small station
http://data.europa.eu/949/functionalInfrastructure/operationalPoints/cfb74061fb15a4a35f33f1f5fca32259d99f2c0d,http://data.europa.eu/949/functionalInfrastructure/operationalPoints/PT49007,PT49007,Guarda,40.5524,-7.2398,http://data.europa.eu/949/concepts/op-types/rinf/10,10,http://publications.europa.eu/resource/authority/country/PRT,10,station
http://data.europa.eu/949/functionalInfrastructure/operationalPoints/d1d63c0c283301758adb6512b64a12fea5d03798,http://data.europa.eu/949/functionalInfrastructure/operationalPoints/PT06007,PT06007,Nine,41.4554,-8.5451,http://data.europa.eu/949/concepts/op-types/rinf/10,10,http://publications.europa.eu/resource/authority/country/PRT,10,station
http://data.europa.eu/949/functionalInfrastructure/operationalPoints/d376fea3a2e52a90a90c8b81a2b67d8f36583ddf,http://data.europa.eu/949/functionalInfrastructure/operationalPoints/PT72199,PT72199,Torre da Gadanha,38.5829,-8.2875,http://data.europa.eu/949/concepts/op-types/rinf/20,20,http://publications.europa.eu/resource/authority/country/PRT,20,small station
http://data.europa.eu/949/functionalInfrastructure/operationalPoints/d461c5f07fc1ed162e0b1cebbd0bbcb4fdd9b9d2,http://data.europa.eu/949/functionalInfrastructure/operationalPoints/PT09001,PT09001,Marco de Canaveses,41.181,-8.1369,http://data.europa.eu/949/concepts/op-types/rinf/20,20,http://publications.europa.eu/resource/authority/country/PRT,20,small station
http://data.europa.eu/949/functionalInfrastructure/operationalPoints/d475b1db9ba201b90dccf3826d4125c0efce458a,http://data.europa.eu/949/functionalInfrastructure/operationalPoints/PT91272,PT91272,Praias Sado Mercadorias,38.5129,-8.8404,http://data.europa.eu/949/concepts/op-types/rinf/40,40,http://publications.europa.eu/resource/authority/country/PRT,40,freight terminal
http://data.europa.eu/949/functionalInfrastructure/operationalPoints/d4f88e9cc723bfbdd023a0470a033605f79545ce,http://data.europa.eu/949/functionalInfrastructure/operationalPoints/PT62380,PT62380,Dois Portos,39.0426,-9.1847,http://data.europa.eu/949/concepts/op-types/rinf/20,20,http://publications.europa.eu/resource/authority/country/PRT,20,small station
http://data.europa.eu/949/functionalInfrastructure/operationalPoints/daca4669a702e26c92adeecb3e4cfc620e1dfaa3,http://data.europa.eu/949/functionalInfrastructure/operationalPoints/PT63008,PT63008,Caldas da Rainha,39.4065,-9.1402,http://data.europa.eu/949/concepts/op-types/rinf/10,10,http://publications.europa.eu/resource/authority/country/PRT,10,station
http://data.europa.eu/949/functionalInfrastructure/operationalPoints/dc74d41b7bec9f5b6be2863241750c190c293862,http://data.europa.eu/949/functionalInfrastructure/operationalPoints/PT62612,PT62612,Outeiro,39.1913,-9.1772,http://data.europa.eu/949/concepts/op-types/rinf/20,20,http://publications.europa.eu/resource/authority/country/PRT,20,small station
http://data.europa.eu/949/functionalInfrastructure/operationalPoints/ddd951ad387cf395c5428d723cb6ed848b77f197,http://data.europa.eu/949/functionalInfrastructure/operationalPoints/PT64006,PT64006,Amieira,40.1042,-8.7521,http://data.europa.eu/949/concepts/op-types/rinf/10,10,http://publications.europa.eu/resource/authority/country/PRT,10,station
http://data.europa.eu/949/functionalInfrastructure/operationalPoints/df183337241c8477c1a3b8eec6645385c803c006,http://data.europa.eu/949/functionalInfrastructure/operationalPoints/PT77099,PT77099,Amoreiras-Odemira,37.69,-8.4144,http://data.europa.eu/949/concepts/op-types/rinf/20,20,http://publications.europa.eu/resource/authority/country/PRT,20,small station
http://data.europa.eu/949/functionalInfrastructure/operationalPoints/e0c886fd6e42f07bdbe07cfdbe8adbb85e0bc56a,http://data.europa.eu/949/functionalInfrastructure/operationalPoints/PT62547,PT62547,Ramalhal,39.1395,-9.216,http://data.europa.eu/949/concepts/op-types/rinf/20,20,http://publications.europa.eu/resource/authority/country/PRT,20,small station
http://data.europa.eu/949/functionalInfrastructure/operationalPoints/e13edb598440e618db6f980e6c361903053f3925,http://data.europa.eu/949/functionalInfrastructure/operationalPoints/PT09258,PT09258,Ermida,41.1243,-7.9509,http://data.europa.eu/949/concepts/op-types/rinf/20,20,http://publications.europa.eu/resource/authority/country/PRT,20,small station
http://data.europa.eu/949/functionalInfrastructure/operationalPoints/e4f98cb096c4bb8eaadefdc98cd0360ca239422e,http://data.europa.eu/949/functionalInfrastructure/operationalPoints/PT48405,PT48405,Celorico da Beira,40.6651,-7.3825,http://data.europa.eu/949/concepts/op-types/rinf/20,20,http://publications.europa.eu/resource/authority/country/PRT,20,small station
http://data.europa.eu/949/functionalInfrastructure/operationalPoints/e5a6a9af304947e46d4b4c41f5ef1323960e0c68,http://data.europa.eu/949/functionalInfrastructure/operationalPoints/PT21071,PT21071,Leça do Balio,41.2084,-8.6296,http://data.europa.eu/949/concepts/op-types/rinf/20,20,http://publications.europa.eu/resource/authority/country/PRT,20,small station
http://data.europa.eu/949/functionalInfrastructure/operationalPoints/e67a38b6160b6812354856dac3d9c90ef9d407be,http://data.europa.eu/949/functionalInfrastructure/operationalPoints/PT46243,PT46243,Mortágua,40.3908,-8.2411,http://data.europa.eu/949/concepts/op-types/rinf/20,20,http://publications.europa.eu/resource/authority/country/PRT,20,small station
http://data.europa.eu/949/functionalInfrastructure/operationalPoints/e9b446e4e32f07f9b659371c1e2da086247b67e0,http://data.europa.eu/949/functionalInfrastructure/operationalPoints/PT32466,PT32466,Riachos - Torres Novas - Golegã,39.4321,-8.5045,http://data.europa.eu/949/concepts/op-types/rinf/20,20,http://publications.europa.eu/resource/authority/country/PRT,20,small station
http://data.europa.eu/949/functionalInfrastructure/operationalPoints/f1206c9c5d0fac63da587ec2b5ecc6c573eeb799,http://data.europa.eu/949/functionalInfrastructure/operationalPoints/PT62224,PT62224,Malveira,38.9288,-9.2574,http://data.europa.eu/949/concepts/op-types/rinf/20,20,http://publications.europa.eu/resource/authority/country/PRT,20,small station
http://data.europa.eu/949/functionalInfrastructure/operationalPoints/f17267aa5848e0996987722399b197debe386e83,http://data.europa.eu/949/functionalInfrastructure/operationalPoints/PT77008,PT77008,Funcheira,37.7272,-8.338,http://data.europa.eu/949/concepts/op-types/rinf/10,10,http://publications.europa.eu/resource/authority/country/PRT,10,station
http://data.europa.eu/949/functionalInfrastructure/operationalPoints/f341e66687fcda1f489e46cd5ca43d8843a0be10,http://data.europa.eu/949/functionalInfrastructure/operationalPoints/PT49205,PT49205,Cerdeira,40.5114,-7.0479,http://data.europa.eu/949/concepts/op-types/rinf/20,20,http://publications.europa.eu/resource/authority/country/PRT,20,small station
http://data.europa.eu/949/functionalInfrastructure/operationalPoints/f37f62bd69dbaecb2ac9d4ea12617098fa215144,http://data.europa.eu/949/functionalInfrastructure/operationalPoints/PT63685,PT63685,Monte Real,39.856,-8.8477,http://data.europa.eu/949/concepts/op-types/rinf/20,20,http://publications.europa.eu/resource/authority/country/PRT,20,small station
http://data.europa.eu/949/functionalInfrastructure/operationalPoints/f468107eb7d51ae86ccc6b9eeed7f877e0326a3e,http://data.europa.eu/949/functionalInfrastructure/operationalPoints/PT74005,PT74005,Casa Branca,38.4982,-8.1582,http://data.europa.eu/949/concepts/op-types/rinf/10,10,http://publications.europa.eu/resource/authority/country/PRT,10,station
http://data.europa.eu/949/functionalInfrastructure/operationalPoints/f47e0b4b716f001d4cfd65ee128ecf5324319e56,http://data.europa.eu/949/functionalInfrastructure/operationalPoints/PT51185,PT51185,Santa Margarida,39.4477,-8.2965,http://data.europa.eu/949/concepts/op-types/rinf/20,20,http://publications.europa.eu/resource/authority/country/PRT,20,small station
http://data.europa.eu/949/functionalInfrastructure/operationalPoints/fab41bcf514c959ea3c054bb9aae1a149fbd4e8a,http://data.europa.eu/949/functionalInfrastructure/operationalPoints/PT63875,PT63875,Louriçal,40.0163,-8.8154,http://data.europa.eu/949/concepts/op-types/rinf/10,10,http://publications.europa.eu/resource/authority/country/PRT,10,station
http://data.europa.eu/949/functionalInfrastructure/operationalPoints/0060b9e21fd739475100bfc90470c7e47f032789,http://data.europa.eu/949/functionalInfrastructure/operationalPoints/PT30759,PT30759,Armazém 21,38.7331,-9.1039,http://data.europa.eu/949/concepts/op-types/rinf/130,130,http://publications.europa.eu/resource/authority/country/PRT,130,private siding
http://data.europa.eu/949/functionalInfrastructure/operationalPoints/01044cc2381d3c6cc2be2cab0274a72a376a3df9,http://data.europa.eu/949/functionalInfrastructure/operationalPoints/PT74013,PT74013,Ramal Ferrovias (Inserção),38.4978,-8.1562,http://data.europa.eu/949/concepts/op-types/rinf/80,80,http://publications.europa.eu/resource/authority/country/PRT,80,junction
http://data.europa.eu/949/functionalInfrastructure/operationalPoints/01110f1d37d98f702812e8ad005af06cc4414a11,http://data.europa.eu/949/functionalInfrastructure/operationalPoints/PT71118,PT71118,Ramal Pegões - Neopul (Inserção),38.6617,-8.625,http://data.europa.eu/949/concepts/op-types/rinf/80,80,http://publications.europa.eu/resource/authority/country/PRT,80,junction
http://data.europa.eu/949/functionalInfrastructure/operationalPoints/016ea007278d91fe668ea034b2d04d51f37b85e0,http://data.europa.eu/949/functionalInfrastructure/operationalPoints/PT68130,PT68130,Praça do Quebedo,38.5249,-8.8865,http://data.europa.eu/949/concepts/op-types/rinf/70,70,http://publications.europa.eu/resource/authority/country/PRT,70,passenger stop
http://data.europa.eu/949/functionalInfrastructure/operationalPoints/017397c3cc0e632fccdbd3628d27ff7cd2281326,http://data.europa.eu/949/functionalInfrastructure/operationalPoints/PT29108,PT29108,Aveleda,41.5201,-8.4684,http://data.europa.eu/949/concepts/op-types/rinf/70,70,http://publications.europa.eu/resource/authority/country/PRT,70,passenger stop
http://data.europa.eu/949/functionalInfrastructure/operationalPoints/0187ce60a47729943dea468e36bc40f1b9fed61f,http://data.europa.eu/949/functionalInfrastructure/operationalPoints/PT91207,PT91207,Agulha 7,38.5132,-8.8428,http://data.europa.eu/949/concepts/op-types/rinf/130,130,http://publications.europa.eu/resource/authority/country/PRT,130,private siding
http://data.europa.eu/949/functionalInfrastructure/operationalPoints/023fe7312bc2381b09b3962b16af5e2459966aa2,http://data.europa.eu/949/functionalInfrastructure/operationalPoints/PT92460,PT92460,Ramal Somincor (Inserção lado Vale do Guizo),38.2651,-8.5267,http://data.europa.eu/949/concepts/op-types/rinf/80,80,http://publications.europa.eu/resource/authority/country/PRT,80,junction
http://data.europa.eu/949/functionalInfrastructure/operationalPoints/02442feb258eeead7356ac5d3c5e241b7c7dabb3,http://data.europa.eu/949/functionalInfrastructure/operationalPoints/PT99093,PT99093,Ramal Terminal XXI (Inserção),37.9346,-8.8213,http://data.europa.eu/949/concepts/op-types/rinf/80,80,http://publications.europa.eu/resource/authority/country/PRT,80,junction
http://data.europa.eu/949/functionalInfrastructure/operationalPoints/024f67d8f355c2662668cb825d9b4607d4ac7911,http://data.europa.eu/949/functionalInfrastructure/operationalPoints/PT09100,PT09100,Pala,41.1036,-8.091,http://data.europa.eu/949/concepts/op-types/rinf/70,70,http://publications.europa.eu/resource/authority/country/PRT,70,passenger stop
http://data.europa.eu/949/functionalInfrastructure/operationalPoints/04a2420a3adf1a5512feafbcc2fef4b566b8e403,http://data.europa.eu/949/functionalInfrastructure/operationalPoints/PT78253,PT78253,Almancil,37.0952,-8.0234,http://data.europa.eu/949/concepts/op-types/rinf/70,70,http://publications.europa.eu/resource/authority/country/PRT,70,passenger stop
http://data.europa.eu/949/functionalInfrastructure/operationalPoints/050e0055e26fa2f515a1dda18e0e8155eb9d1e77,http://data.europa.eu/949/functionalInfrastructure/operationalPoints/PT90183,PT90183,Silves,37.1756,-8.4405,http://data.europa.eu/949/concepts/op-types/rinf/20,20,http://publications.europa.eu/resource/authority/country/PRT,20,small station
http://data.europa.eu/949/functionalInfrastructure/operationalPoints/056a097871b07702ab3e082ac01c583d572fa267,http://data.europa.eu/949/functionalInfrastructure/operationalPoints/PT95018,PT95018,Ramal Barreiro - Quimigal,38.6612,-9.07,http://data.europa.eu/949/concepts/op-types/rinf/130,130,http://publications.europa.eu/resource/authority/country/PRT,130,private siding
http://data.europa.eu/949/functionalInfrastructure/operationalPoints/067438f61aad18634ad882e0cd0672d2e396442e,http://data.europa.eu/949/functionalInfrastructure/operationalPoints/PT21709,PT21709,Ramal Leça do Balio Petroquímica,41.2144,-8.6405,http://data.europa.eu/949/concepts/op-types/rinf/130,130,http://publications.europa.eu/resource/authority/country/PRT,130,private siding
http://data.europa.eu/949/functionalInfrastructure/operationalPoints/06a6f7f8af3a59e2210ac373bc3e1c28872cbf25,http://data.europa.eu/949/functionalInfrastructure/operationalPoints/PT11064,PT11064,Alegria,41.1765,-7.3778,http://data.europa.eu/949/concepts/op-types/rinf/70,70,http://publications.europa.eu/resource/authority/country/PRT,70,passenger stop
http://data.europa.eu/949/functionalInfrastructure/operationalPoints/071435a70ea0a87cf1066b9d4188878896fa1f95,http://data.europa.eu/949/functionalInfrastructure/operationalPoints/PT85308,PT85308,Ramal Petrogal (Extremo),37.9655,-8.8142,http://data.europa.eu/949/concepts/op-types/rinf/130,130,http://publications.europa.eu/resource/authority/country/PRT,130,private siding
http://data.europa.eu/949/functionalInfrastructure/operationalPoints/0798ddaa76a08d09c7ffd7aebb17edbb82634568,http://data.europa.eu/949/functionalInfrastructure/operationalPoints/PT85068,PT85068,Ramal Asfaltos (Inserção),37.9673,-8.791,http://data.europa.eu/949/concepts/op-types/rinf/80,80,http://publications.europa.eu/resource/authority/country/PRT,80,junction
http://data.europa.eu/949/functionalInfrastructure/operationalPoints/08a72bd5e24ecde264e66009abb75b7c58c10748,http://data.europa.eu/949/functionalInfrastructure/operationalPoints/PT31799,PT31799,Ramal Cimpor 2 (Inserção),38.9184,-9.014,http://data.europa.eu/949/concepts/op-types/rinf/80,80,http://publications.europa.eu/resource/authority/country/PRT,80,junction
http://data.europa.eu/949/functionalInfrastructure/operationalPoints/08f8dc0f6ecf917d5c01a4c3a6c9137d0015f9ee,http://data.europa.eu/949/functionalInfrastructure/operationalPoints/PT11197,PT11197,Vesúvio,41.1414,-7.2617,http://data.europa.eu/949/concepts/op-types/rinf/70,70,http://publications.europa.eu/resource/authority/country/PRT,70,passenger stop
http://data.europa.eu/949/functionalInfrastructure/operationalPoints/09e357236d45462410c84647c2cfc30d905f347e,http://data.europa.eu/949/functionalInfrastructure/operationalPoints/PT61002,PT61002,Agualva-Cacém,38.7664,-9.2984,http://data.europa.eu/949/concepts/op-types/rinf/10,10,http://publications.europa.eu/resource/authority/country/PRT,10,station
http://data.europa.eu/949/functionalInfrastructure/operationalPoints/0a4bd3453319663dafa838c2bd78916c4006f3c1,http://data.europa.eu/949/functionalInfrastructure/operationalPoints/PT82305,PT82305,Pedreira do Sul - Monte das Flores (Inserção lado Évora),38.5257,-7.9447,http://data.europa.eu/949/concepts/op-types/rinf/80,80,http://publications.europa.eu/resource/authority/country/PRT,80,junction
http://data.europa.eu/949/functionalInfrastructure/operationalPoints/0adcd21f3400b1cacedeb5a1e43cf01b4aa3f06e,http://data.europa.eu/949/functionalInfrastructure/operationalPoints/PT90241,PT90241,Estômbar-Lagoa,37.1434,-8.4855,http://data.europa.eu/949/concepts/op-types/rinf/20,20,http://publications.europa.eu/resource/authority/country/PRT,20,small station
http://data.europa.eu/949/functionalInfrastructure/operationalPoints/0b940520e14391de6e647ccf7d99db50f1bbc291,http://data.europa.eu/949/functionalInfrastructure/operationalPoints/PT96016,PT96016,Bifurcação do Poceirão - Ascendente,38.6338,-8.7688,http://data.europa.eu/949/concepts/op-types/rinf/80,80,http://publications.europa.eu/resource/authority/country/PRT,80,junction
http://data.europa.eu/949/functionalInfrastructure/operationalPoints/0bc5dde0a2f58203d25bc6dc88e73ee81073610c,http://data.europa.eu/949/functionalInfrastructure/operationalPoints/PT77461,PT77461,Pereiras,37.4365,-8.4463,http://data.europa.eu/949/concepts/op-types/rinf/70,70,http://publications.europa.eu/resource/authority/country/PRT,70,passenger stop
http://data.europa.eu/949/functionalInfrastructure/operationalPoints/0e636350b5bb0b8d17dafc2917a0068d7cac9e2d,http://data.europa.eu/949/functionalInfrastructure/operationalPoints/PT68122,PT68122,Setúbal,38.5305,-8.885,http://data.europa.eu/949/concepts/op-types/rinf/20,20,http://publications.europa.eu/resource/authority/country/PRT,20,small station
http://data.europa.eu/949/functionalInfrastructure/operationalPoints/0eb696b4a0339f6f96ff9f1e6035d17fcc5dc9ae,http://data.europa.eu/949/functionalInfrastructure/operationalPoints/PT52845,PT52845,Retaxo,39.7697,-7.5912,http://data.europa.eu/949/concepts/op-types/rinf/70,70,http://publications.europa.eu/resource/authority/country/PRT,70,passenger stop
http://data.europa.eu/949/functionalInfrastructure/operationalPoints/0eedb037d30987ea3308ca76824613337435da45,http://data.europa.eu/949/functionalInfrastructure/operationalPoints/PT62901,PT62901,Ramal Ramalhal - Valouro (Inserção lado Torres Vedras),39.1393,-9.2163,http://data.europa.eu/949/concepts/op-types/rinf/80,80,http://publications.europa.eu/resource/authority/country/PRT,80,junction
http://data.europa.eu/949/functionalInfrastructure/operationalPoints/0f12da8e352a83f0386655b17fa9cdb0b4c16bc7,http://data.europa.eu/949/functionalInfrastructure/operationalPoints/PT08201,PT08201,Parada,41.1602,-8.3713,http://data.europa.eu/949/concepts/op-types/rinf/70,70,http://publications.europa.eu/resource/authority/country/PRT,70,passenger stop
http://data.europa.eu/949/functionalInfrastructure/operationalPoints/0fea7bb2a0c88c933c137bd2ef24b6e0c151196f,http://data.europa.eu/949/functionalInfrastructure/operationalPoints/PT73379,PT73379,Conceição,37.1444,-7.6056,http://data.europa.eu/949/concepts/op-types/rinf/70,70,http://publications.europa.eu/resource/authority/country/PRT,70,passenger stop
http://data.europa.eu/949/functionalInfrastructure/operationalPoints/106f766efefc647843416bb37902be14f8967b09,http://data.europa.eu/949/functionalInfrastructure/operationalPoints/PT68700,PT68700,Ramal Palmela - Megaço (Inserção),38.5784,-8.8741,http://data.europa.eu/949/concepts/op-types/rinf/80,80,http://publications.europa.eu/resource/authority/country/PRT,80,junction
http://data.europa.eu/949/functionalInfrastructure/operationalPoints/1083141589f93b981bc29d95938da57dba78cd13,http://data.europa.eu/949/functionalInfrastructure/operationalPoints/PT98004,PT98004,Ramal do Pego (Inserção),39.4676,-8.083,http://data.europa.eu/949/concepts/op-types/rinf/80,80,http://publications.europa.eu/resource/authority/country/PRT,80,junction
http://data.europa.eu/949/functionalInfrastructure/operationalPoints/11a6ce87e4694a621c518dfb1c71694fbba77e22,http://data.europa.eu/949/functionalInfrastructure/operationalPoints/PT91553,PT91553,Praias Sado-Sapec/Praias Sado-Portucel (Agulha),38.5087,-8.8315,http://data.europa.eu/949/concepts/op-types/rinf/80,80,http://publications.europa.eu/resource/authority/country/PRT,80,junction
http://data.europa.eu/949/functionalInfrastructure/operationalPoints/13326b410a0e98ca4d29838c3eae25acc19eb8e4,http://data.europa.eu/949/functionalInfrastructure/operationalPoints/PT69229,PT69229,São Pedro do Estoril,38.6954,-9.3719,http://data.europa.eu/949/concepts/op-types/rinf/20,20,http://publications.europa.eu/resource/authority/country/PRT,20,small station
http://data.europa.eu/949/functionalInfrastructure/operationalPoints/13b35b7153372f24a502ce281b23b60c32997c1a,http://data.europa.eu/949/functionalInfrastructure/operationalPoints/PT29132,PT29132,Ferreiros,41.5308,-8.4415,http://data.europa.eu/949/concepts/op-types/rinf/70,70,http://publications.europa.eu/resource/authority/country/PRT,70,passenger stop
http://data.europa.eu/949/functionalInfrastructure/operationalPoints/14b3489e4fa1d61c0489f2bddb35f835613062a1,http://data.europa.eu/949/functionalInfrastructure/operationalPoints/PT28217,PT28217,Pereirinhas,41.3774,-8.3241,http://data.europa.eu/949/concepts/op-types/rinf/70,70,http://publications.europa.eu/resource/authority/country/PRT,70,passenger stop
http://data.europa.eu/949/functionalInfrastructure/operationalPoints/15dde528923671b8294690680c20e4f874d28759,http://data.europa.eu/949/functionalInfrastructure/operationalPoints/PT52142,PT52142,Mouriscas,39.4754,-8.0965,http://data.europa.eu/949/concepts/op-types/rinf/20,20,http://publications.europa.eu/resource/authority/country/PRT,20,small station
http://data.europa.eu/949/functionalInfrastructure/operationalPoints/165e03e8030c5f36b6e4275f6a334275d132ed8a,http://data.europa.eu/949/functionalInfrastructure/operationalPoints/PT10165,PT10165,Ferrão,41.1619,-7.6113,http://data.europa.eu/949/concepts/op-types/rinf/70,70,http://publications.europa.eu/resource/authority/country/PRT,70,passenger stop
http://data.europa.eu/949/functionalInfrastructure/operationalPoints/16bf32c5cd0e4819ac995d8472cef2ebc7958f8c,http://data.europa.eu/949/functionalInfrastructure/operationalPoints/PT79319,PT79319,Minas Neves Corvo,37.5769,-7.9815,http://data.europa.eu/949/concepts/op-types/rinf/20,20,http://publications.europa.eu/resource/authority/country/PRT,20,small station
http://data.europa.eu/949/functionalInfrastructure/operationalPoints/16c8f8d6a3018b22b9f8373d9d0baa34a642df57,http://data.europa.eu/949/functionalInfrastructure/operationalPoints/PT17186,PT17186,Fogueteiro,38.6099,-9.1016,http://data.europa.eu/949/concepts/op-types/rinf/20,20,http://publications.europa.eu/resource/authority/country/PRT,20,small station
http://data.europa.eu/949/functionalInfrastructure/operationalPoints/16d51b0919de08a1b52c5bb0ec11c35930e6a889,http://data.europa.eu/949/functionalInfrastructure/operationalPoints/PT62331,PT62331,Zibreira,39.006,-9.1835,http://data.europa.eu/949/concepts/op-types/rinf/70,70,http://publications.europa.eu/resource/authority/country/PRT,70,passenger stop
http://data.europa.eu/949/functionalInfrastructure/operationalPoints/16ee0816dbf58c06a3e850c1e1568d71ccbeb7ee,http://data.europa.eu/949/functionalInfrastructure/operationalPoints/PT63610,PT63610,Regueira de Pontes,39.7976,-8.8372,http://data.europa.eu/949/concepts/op-types/rinf/70,70,http://publications.europa.eu/resource/authority/country/PRT,70,passenger stop
http://data.europa.eu/949/functionalInfrastructure/operationalPoints/172e53f64bd7ddb57ec13b774b0dd20291ee5ea2,http://data.europa.eu/949/functionalInfrastructure/operationalPoints/PT65029,PT65029,Montemor,40.1602,-8.6541,http://data.europa.eu/949/concepts/op-types/rinf/70,70,http://publications.europa.eu/resource/authority/country/PRT,70,passenger stop
http://data.europa.eu/949/functionalInfrastructure/operationalPoints/175e932588f8b0195881a765cf89767ea271351a,http://data.europa.eu/949/functionalInfrastructure/operationalPoints/PT64055,PT64055,Lares,40.1295,-8.7874,http://data.europa.eu/949/concepts/op-types/rinf/70,70,http://publications.europa.eu/resource/authority/country/PRT,70,passenger stop
http://data.europa.eu/949/functionalInfrastructure/operationalPoints/177e122922238461614f6514bfa2dc06f47b777c,http://data.europa.eu/949/functionalInfrastructure/operationalPoints/PT61051,PT61051,Mercês,38.7923,-9.3297,http://data.europa.eu/949/concepts/op-types/rinf/20,20,http://publications.europa.eu/resource/authority/country/PRT,20,small station
http://data.europa.eu/949/functionalInfrastructure/operationalPoints/192a87e738d560725bde680193f6421438ace7fa,http://data.europa.eu/949/functionalInfrastructure/operationalPoints/PT38653,PT38653,Ramal Estarreja Amoníaco (Inserção lado Estarreja),40.7764,-8.5784,http://data.europa.eu/949/concepts/op-types/rinf/80,80,http://publications.europa.eu/resource/authority/country/PRT,80,junction
http://data.europa.eu/949/functionalInfrastructure/operationalPoints/1990b32af6edbf42f01e7b333104636c1bfca145,http://data.europa.eu/949/functionalInfrastructure/operationalPoints/PT81000,PT81000,Ramal da Siderurgia Nacional (Inserção),38.5866,-9.0547,http://data.europa.eu/949/concepts/op-types/rinf/80,80,http://publications.europa.eu/resource/authority/country/PRT,80,junction
http://data.europa.eu/949/functionalInfrastructure/operationalPoints/1a0eb1738833fe3dd5a484d4e8c3eac7b0a6b120,http://data.europa.eu/949/functionalInfrastructure/operationalPoints/PT40154,PT40154,Tomar,39.5988,-8.4129,http://data.europa.eu/949/concepts/op-types/rinf/10,10,http://publications.europa.eu/resource/authority/country/PRT,10,station
http://data.europa.eu/949/functionalInfrastructure/operationalPoints/1a11e6e9f1aa1a4223d0531614026007d48a5aaf,http://data.europa.eu/949/functionalInfrastructure/operationalPoints/PT22020,PT22020,Ramal Lidador (Inserção - lado Ermesinde),41.209,-8.5708,http://data.europa.eu/949/concepts/op-types/rinf/80,80,http://publications.europa.eu/resource/authority/country/PRT,80,junction
http://data.europa.eu/949/functionalInfrastructure/operationalPoints/1a250918d1c108c4db806d6359652290103b9261,http://data.europa.eu/949/functionalInfrastructure/operationalPoints/PT30601,PT30601,Ramal da Sotagus (Inserção lado Matinha),38.7251,-9.1111,http://data.europa.eu/949/concepts/op-types/rinf/80,80,http://publications.europa.eu/resource/authority/country/PRT,80,junction
http://data.europa.eu/949/functionalInfrastructure/operationalPoints/1a92347b7770562ee3fee69065ce71794cd65497,http://data.europa.eu/949/functionalInfrastructure/operationalPoints/PT64071,PT64071,Ramal Porto da Figueira da Foz (Inserção),40.1427,-8.8165,http://data.europa.eu/949/concepts/op-types/rinf/80,80,http://publications.europa.eu/resource/authority/country/PRT,80,junction
http://data.europa.eu/949/functionalInfrastructure/operationalPoints/1a97c75f4032bcba2c594480cd170c61b28f6eeb,http://data.europa.eu/949/functionalInfrastructure/operationalPoints/PT68205,PT68205,Palmela - Slem,38.5816,-8.8752,http://data.europa.eu/949/concepts/op-types/rinf/130,130,http://publications.europa.eu/resource/authority/country/PRT,130,private siding
http://data.europa.eu/949/functionalInfrastructure/operationalPoints/1b095b0946182515842b6ade2f78e4d6cefc1908,http://data.europa.eu/949/functionalInfrastructure/operationalPoints/PT68098,PT68098,Palmela - A,38.5719,-8.8728,http://data.europa.eu/949/concepts/op-types/rinf/70,70,http://publications.europa.eu/resource/authority/country/PRT,70,passenger stop
http://data.europa.eu/949/functionalInfrastructure/operationalPoints/1ba619d20f05c9c632dfec5d05237c354bd01b89,http://data.europa.eu/949/functionalInfrastructure/operationalPoints/PT03020,PT03020,Agulha de inserção na Linha do Minho,41.1677,-8.576,http://data.europa.eu/949/concepts/op-types/rinf/80,80,http://publications.europa.eu/resource/authority/country/PRT,80,junction
http://data.europa.eu/949/functionalInfrastructure/operationalPoints/1ba953c7aaffca6ee09c334d0ae1adeb04f024e9,http://data.europa.eu/949/functionalInfrastructure/operationalPoints/PT73239,PT73239,Livramento,37.0737,-7.7313,http://data.europa.eu/949/concepts/op-types/rinf/70,70,http://publications.europa.eu/resource/authority/country/PRT,70,passenger stop
http://data.europa.eu/949/functionalInfrastructure/operationalPoints/1bcbaf371a71850e0cd4e2ec4b29237f1a7d7734,http://data.europa.eu/949/functionalInfrastructure/operationalPoints/PT53264,PT53264,Soalheira,40.0269,-7.4553,http://data.europa.eu/949/concepts/op-types/rinf/70,70,http://publications.europa.eu/resource/authority/country/PRT,70,passenger stop
http://data.europa.eu/949/functionalInfrastructure/operationalPoints/1c73a2e17b316ce8178a514795825954db3a3bbc,http://data.europa.eu/949/functionalInfrastructure/operationalPoints/PT21147,PT21147,Triagem de Leixões,41.1976,-8.681,http://data.europa.eu/949/concepts/op-types/rinf/80,80,http://publications.europa.eu/resource/authority/country/PRT,80,junction
http://data.europa.eu/949/functionalInfrastructure/operationalPoints/1d070e0cc10bdab268e0337247d61f1c9b7c88a7,http://data.europa.eu/949/functionalInfrastructure/operationalPoints/PT08557,PT08557,Terminal S. Martinho do Campo,41.1623,-8.4585,http://data.europa.eu/949/concepts/op-types/rinf/130,130,http://publications.europa.eu/resource/authority/country/PRT,130,private siding
http://data.europa.eu/949/functionalInfrastructure/operationalPoints/1d1afee105c9e1550256022204680883f56439d4,http://data.europa.eu/949/functionalInfrastructure/operationalPoints/PT39222,PT39222,Francelos Norte,41.0883,-8.6408,http://data.europa.eu/949/concepts/op-types/rinf/10,10,http://publications.europa.eu/resource/authority/country/PRT,10,station
http://data.europa.eu/949/functionalInfrastructure/operationalPoints/1dfdd5dbcee8da8f9b44326a2cb4a07519915fb3,http://data.europa.eu/949/functionalInfrastructure/operationalPoints/PT95612,PT95612,Oficinas EMEF Barreiro,38.6584,-9.0751,http://data.europa.eu/949/concepts/op-types/rinf/130,130,http://publications.europa.eu/resource/authority/country/PRT,130,private siding
http://data.europa.eu/949/functionalInfrastructure/operationalPoints/1e4338d277cccc0e09cce0d208554361d00f8826,http://data.europa.eu/949/functionalInfrastructure/operationalPoints/PT65052,PT65052,Marujal,40.1403,-8.6763,http://data.europa.eu/949/concepts/op-types/rinf/70,70,http://publications.europa.eu/resource/authority/country/PRT,70,passenger stop
http://data.europa.eu/949/functionalInfrastructure/operationalPoints/1f964fbb1bd606350548a235da5f79c8c87f3599,http://data.europa.eu/949/functionalInfrastructure/operationalPoints/PT23010,PT23010,Terminal Mercadorias de Tadim,41.5135,-8.4777,http://data.europa.eu/949/concepts/op-types/rinf/130,130,http://publications.europa.eu/resource/authority/country/PRT,130,private siding
http://data.europa.eu/949/functionalInfrastructure/operationalPoints/1fbbe9771d434bff8b18f0cae3a0803963e7b795,http://data.europa.eu/949/functionalInfrastructure/operationalPoints/PT21048,PT21048,São Mamede de Infesta,41.1903,-8.6134,http://data.europa.eu/949/concepts/op-types/rinf/20,20,http://publications.europa.eu/resource/authority/country/PRT,20,small station
http://data.europa.eu/949/functionalInfrastructure/operationalPoints/1fdcaa6e027691c67120a899e8f79ed12edacd11,http://data.europa.eu/949/functionalInfrastructure/operationalPoints/PT52902,PT52902,Sarnadas - Patrimat,39.7893,-7.5583,http://data.europa.eu/949/concepts/op-types/rinf/130,130,http://publications.europa.eu/resource/authority/country/PRT,130,private siding
http://data.europa.eu/949/functionalInfrastructure/operationalPoints/20515bcfb5710bc720e3789d8c95fbd1e434444b,http://data.europa.eu/949/functionalInfrastructure/operationalPoints/PT54338,PT54338,Benespera,40.4349,-7.2684,http://data.europa.eu/949/concepts/op-types/rinf/70,70,http://publications.europa.eu/resource/authority/country/PRT,70,passenger stop
http://data.europa.eu/949/functionalInfrastructure/operationalPoints/22badf61552a30330d20cc9373dcc8bd3a6a90de,http://data.europa.eu/949/functionalInfrastructure/operationalPoints/PT29066,PT29066,Arentim,41.4904,-8.5083,http://data.europa.eu/949/concepts/op-types/rinf/20,20,http://publications.europa.eu/resource/authority/country/PRT,20,small station
http://data.europa.eu/949/functionalInfrastructure/operationalPoints/2323c434a7297fff54864ff7f17f43fbd97090a1,http://data.europa.eu/949/functionalInfrastructure/operationalPoints/PT08102,PT08102,S. Martinho do Campo,41.1702,-8.4683,http://data.europa.eu/949/concepts/op-types/rinf/70,70,http://publications.europa.eu/resource/authority/country/PRT,70,passenger stop
http://data.europa.eu/949/functionalInfrastructure/operationalPoints/25cd9fdf7c30ea376c4026ec00701e93430d2f9b,http://data.europa.eu/949/functionalInfrastructure/operationalPoints/PT82214,PT82214,Monte das Flores,38.5231,-7.9472,http://data.europa.eu/949/concepts/op-types/rinf/20,20,http://publications.europa.eu/resource/authority/country/PRT,20,small station
http://data.europa.eu/949/functionalInfrastructure/operationalPoints/27d05abb28b8f8dbcf748084a5c92e583697b53c,http://data.europa.eu/949/functionalInfrastructure/operationalPoints/PT99408,PT99408,Raquete Mercadorias,37.9667,-8.7796,http://data.europa.eu/949/concepts/op-types/rinf/130,130,http://publications.europa.eu/resource/authority/country/PRT,130,private siding
http://data.europa.eu/949/functionalInfrastructure/operationalPoints/27d7de43e11041f37e9277ecac7c8cf8d7b98cee,http://data.europa.eu/949/functionalInfrastructure/operationalPoints/PT68668,PT68668,Ramal Sado - Sapec (Inserção),38.5129,-8.8442,http://data.europa.eu/949/concepts/op-types/rinf/80,80,http://publications.europa.eu/resource/authority/country/PRT,80,junction
http://data.europa.eu/949/functionalInfrastructure/operationalPoints/27ecb3f41124e42b0e9f39b9bacff137398c4378,http://data.europa.eu/949/functionalInfrastructure/operationalPoints/PT38042,PT38042,"PK 0,000 do Ramal do Porto de Aveiro",40.6564,-8.6225,http://data.europa.eu/949/concepts/op-types/rinf/80,80,http://publications.europa.eu/resource/authority/country/PRT,80,junction
http://data.europa.eu/949/functionalInfrastructure/operationalPoints/288e34527c07a95e8c54e148b447c44dcd474da8,http://data.europa.eu/949/functionalInfrastructure/operationalPoints/PT38497,PT38497,Porto de Aveiro (Inicio),40.6481,-8.7054,http://data.europa.eu/949/concepts/op-types/rinf/130,130,http://publications.europa.eu/resource/authority/country/PRT,130,private siding
http://data.europa.eu/949/functionalInfrastructure/operationalPoints/28bdb5d46cb050d6c19a4ed9e07276c5cba078c6,http://data.europa.eu/949/functionalInfrastructure/operationalPoints/PT40105,PT40105,Santa Cita,39.5529,-8.3931,http://data.europa.eu/949/concepts/op-types/rinf/20,20,http://publications.europa.eu/resource/authority/country/PRT,20,small station
http://data.europa.eu/949/functionalInfrastructure/operationalPoints/2a564f5d78c6e0fe2bad163412a8a040ddd60c8a,http://data.europa.eu/949/functionalInfrastructure/operationalPoints/PT52654,PT52654,Ródão - Portucel,39.6625,-7.6697,http://data.europa.eu/949/concepts/op-types/rinf/130,130,http://publications.europa.eu/resource/authority/country/PRT,130,private siding
http://data.europa.eu/949/functionalInfrastructure/operationalPoints/2a8fc1b118cdc2b5194dab7234a734ec3c680bb2,http://data.europa.eu/949/functionalInfrastructure/operationalPoints/PT68049,PT68049,Venda do Alcaide,38.6057,-8.8882,http://data.europa.eu/949/concepts/op-types/rinf/70,70,http://publications.europa.eu/resource/authority/country/PRT,70,passenger stop
http://data.europa.eu/949/functionalInfrastructure/operationalPoints/2aae96a07a3734d9e6a9cc1853743d84793f518c,http://data.europa.eu/949/functionalInfrastructure/operationalPoints/PT38612,PT38612,Porto de Aveiro (Extremo),40.6489,-8.7327,http://data.europa.eu/949/concepts/op-types/rinf/130,130,http://publications.europa.eu/resource/authority/country/PRT,130,private siding
http://data.europa.eu/949/functionalInfrastructure/operationalPoints/2ab6977a385be6783e903a1bb9d364f83176de41,http://data.europa.eu/949/functionalInfrastructure/operationalPoints/PT69500,PT69500,Ramal Liscont (Inserção),38.6997,-9.1789,http://data.europa.eu/949/concepts/op-types/rinf/80,80,http://publications.europa.eu/resource/authority/country/PRT,80,junction
http://data.europa.eu/949/functionalInfrastructure/operationalPoints/2c789ebd9e8a6db2d34b4ed534363d651168a1be,http://data.europa.eu/949/functionalInfrastructure/operationalPoints/PT08060,PT08060,Suzão,41.1973,-8.5028,http://data.europa.eu/949/concepts/op-types/rinf/70,70,http://publications.europa.eu/resource/authority/country/PRT,70,passenger stop
http://data.europa.eu/949/functionalInfrastructure/operationalPoints/2c79b05b3596d918fc2a1543897e37451d00ee60,http://data.europa.eu/949/functionalInfrastructure/operationalPoints/PT85084,PT85084,Ramal Petrogal (Início) R. Petrogal Asfaltos (Extremo),37.9659,-8.8006,http://data.europa.eu/949/concepts/op-types/rinf/80,80,http://publications.europa.eu/resource/authority/country/PRT,80,junction
http://data.europa.eu/949/functionalInfrastructure/operationalPoints/2decd5357a2c58ac4f3ce082274fdaa309742397,http://data.europa.eu/949/functionalInfrastructure/operationalPoints/PT19000,PT19000,Ramal do Louriçal (Inserção),40.0148,-8.8148,http://data.europa.eu/949/concepts/op-types/rinf/80,80,http://publications.europa.eu/resource/authority/country/PRT,80,junction
http://data.europa.eu/949/functionalInfrastructure/operationalPoints/2e8da5e3c11f12423c1b4221e8c8ef441f43357c,http://data.europa.eu/949/functionalInfrastructure/operationalPoints/PT31906,PT31906,Ramal Cimpor 3 (Inserção),38.9181,-9.0142,http://data.europa.eu/949/concepts/op-types/rinf/80,80,http://publications.europa.eu/resource/authority/country/PRT,80,junction
http://data.europa.eu/949/functionalInfrastructure/operationalPoints/2edb43e14fa0a8d91082bbd1583fdce20b3c92b8,http://data.europa.eu/949/functionalInfrastructure/operationalPoints/PT08243,PT08243,Irivo,41.1816,-8.342,http://data.europa.eu/949/concepts/op-types/rinf/20,20,http://publications.europa.eu/resource/authority/country/PRT,20,small station
http://data.europa.eu/949/functionalInfrastructure/operationalPoints/2f1d9a2872678a47a4c626c742169d17fe88b96d,http://data.europa.eu/949/functionalInfrastructure/operationalPoints/PT52282,PT52282,Belver,39.492,-7.9587,http://data.europa.eu/949/concepts/op-types/rinf/20,20,http://publications.europa.eu/resource/authority/country/PRT,20,small station
http://data.europa.eu/949/functionalInfrastructure/operationalPoints/3278e4efcbf9699902f380f5740a18b67c6c329c,http://data.europa.eu/949/functionalInfrastructure/operationalPoints/PT90274,PT90274,Ferragudo,37.1388,-8.519,http://data.europa.eu/949/concepts/op-types/rinf/70,70,http://publications.europa.eu/resource/authority/country/PRT,70,passenger stop
http://data.europa.eu/949/functionalInfrastructure/operationalPoints/3288020b76898711cb135d5caa61d6e5b4ec0b39,http://data.europa.eu/949/functionalInfrastructure/operationalPoints/PT60087,PT60087,Amadora,38.7598,-9.236,http://data.europa.eu/949/concepts/op-types/rinf/20,20,http://publications.europa.eu/resource/authority/country/PRT,20,small station
http://data.europa.eu/949/functionalInfrastructure/operationalPoints/3314c77d08cfde6ab92a7f0fabb1e537d1d30de6,http://data.europa.eu/949/functionalInfrastructure/operationalPoints/PT08235,PT08235,Irivo Mercadorias,41.1854,-8.3404,http://data.europa.eu/949/concepts/op-types/rinf/130,130,http://publications.europa.eu/resource/authority/country/PRT,130,private siding
http://data.europa.eu/949/functionalInfrastructure/operationalPoints/33c9c01fb7c1023291690f1371b8507b64cc878e,http://data.europa.eu/949/functionalInfrastructure/operationalPoints/PT24000,PT24000,Guimarães,41.4351,-8.2939,http://data.europa.eu/949/concepts/op-types/rinf/20,20,http://publications.europa.eu/resource/authority/country/PRT,20,small station
http://data.europa.eu/949/functionalInfrastructure/operationalPoints/342372e3b7ddb59940228d3e77bacdac9133f907,http://data.europa.eu/949/functionalInfrastructure/operationalPoints/PT53561,PT53561,Terminal de Mercadorias do Fundão (Inserção),40.158,-7.4931,http://data.europa.eu/949/concepts/op-types/rinf/80,80,http://publications.europa.eu/resource/authority/country/PRT,80,junction
http://data.europa.eu/949/functionalInfrastructure/operationalPoints/345f8437992f970635f3d94193f8b9a94ef64310,http://data.europa.eu/949/functionalInfrastructure/operationalPoints/PT69260,PT69260,Cascais,38.7008,-9.4182,http://data.europa.eu/949/concepts/op-types/rinf/10,10,http://publications.europa.eu/resource/authority/country/PRT,10,station
http://data.europa.eu/949/functionalInfrastructure/operationalPoints/34c654bf470599cbdecc1f187bf586a72bdb14ae,http://data.europa.eu/949/functionalInfrastructure/operationalPoints/PT09191,PT09191,Aregos,41.1064,-8.0074,http://data.europa.eu/949/concepts/op-types/rinf/20,20,http://publications.europa.eu/resource/authority/country/PRT,20,small station
http://data.europa.eu/949/functionalInfrastructure/operationalPoints/34e713bf40201ed1fbf497b31d3ad9c7a42ae5c5,http://data.europa.eu/949/functionalInfrastructure/operationalPoints/PT78105,PT78105,Patã,37.1135,-8.1874,http://data.europa.eu/949/concepts/op-types/rinf/70,70,http://publications.europa.eu/resource/authority/country/PRT,70,passenger stop
http://data.europa.eu/949/functionalInfrastructure/operationalPoints/350fba3889debe1b7db11c175c9a9c3905d883ec,http://data.europa.eu/949/functionalInfrastructure/operationalPoints/PT08151,PT08151,Trancoso,41.1612,-8.4189,http://data.europa.eu/949/concepts/op-types/rinf/70,70,http://publications.europa.eu/resource/authority/country/PRT,70,passenger stop
http://data.europa.eu/949/functionalInfrastructure/operationalPoints/35258f7cdb9572799307a9962084a3e6c43a5b0f,http://data.europa.eu/949/functionalInfrastructure/operationalPoints/PT21600,PT21600,Desvio Oficinas Custóias,41.2141,-8.6598,http://data.europa.eu/949/concepts/op-types/rinf/130,130,http://publications.europa.eu/resource/authority/country/PRT,130,private siding
http://data.europa.eu/949/functionalInfrastructure/operationalPoints/3620a58456f6d0d6c29c4df14a62e94c5d43e3ab,http://data.europa.eu/949/functionalInfrastructure/operationalPoints/PT91702,PT91702,Praias Sado - EDP,38.5092,-8.8416,http://data.europa.eu/949/concepts/op-types/rinf/130,130,http://publications.europa.eu/resource/authority/country/PRT,130,private siding
http://data.europa.eu/949/functionalInfrastructure/operationalPoints/36bca8ab353a0c4349646518714b6a20ce830ec5,http://data.europa.eu/949/functionalInfrastructure/operationalPoints/PT69187,PT69187,Carcavelos,38.6878,-9.3374,http://data.europa.eu/949/concepts/op-types/rinf/20,20,http://publications.europa.eu/resource/authority/country/PRT,20,small station
http://data.europa.eu/949/functionalInfrastructure/operationalPoints/37e777c7c320cd51c6200a8953697418093e8c3c,http://data.europa.eu/949/functionalInfrastructure/operationalPoints/PT40063,PT40063,Curvaceiras,39.5478,-8.4299,http://data.europa.eu/949/concepts/op-types/rinf/70,70,http://publications.europa.eu/resource/authority/country/PRT,70,passenger stop
http://data.europa.eu/949/functionalInfrastructure/operationalPoints/38cb0cedf13444d17b863210c9a55561090c00d2,http://data.europa.eu/949/functionalInfrastructure/operationalPoints/PT40113,PT40113,Carvalhos de Figueiredo,39.5711,-8.3953,http://data.europa.eu/949/concepts/op-types/rinf/70,70,http://publications.europa.eu/resource/authority/country/PRT,70,passenger stop
http://data.europa.eu/949/functionalInfrastructure/operationalPoints/39d44107bd1b7ed4eb108504d809d5a3a166ca0a,http://data.europa.eu/949/functionalInfrastructure/operationalPoints/PT61085,PT61085,Algueirão-Parque,38.8002,-9.3572,http://data.europa.eu/949/concepts/op-types/rinf/60,60,http://publications.europa.eu/resource/authority/country/PRT,60,train technical services
http://data.europa.eu/949/functionalInfrastructure/operationalPoints/3b16eb5692dff71818bfc8e21c21360ade69ed80,http://data.europa.eu/949/functionalInfrastructure/operationalPoints/PT31740,PT31740,Ramal Cimpor 1 (Inserção),38.916,-9.0154,http://data.europa.eu/949/concepts/op-types/rinf/80,80,http://publications.europa.eu/resource/authority/country/PRT,80,junction
http://data.europa.eu/949/functionalInfrastructure/operationalPoints/3b4629148c951235002c80018388792393376331,http://data.europa.eu/949/functionalInfrastructure/operationalPoints/PT96008,PT96008,Bifurcação do Poceirão - Descendente,38.6336,-8.7751,http://data.europa.eu/949/concepts/op-types/rinf/80,80,http://publications.europa.eu/resource/authority/country/PRT,80,junction
http://data.europa.eu/949/functionalInfrastructure/operationalPoints/3b5e34e55b9915cafe0944c131eed593c5d85ecc,http://data.europa.eu/949/functionalInfrastructure/operationalPoints/PT62042,PT62042,Mira Sintra - Meleças,38.7899,-9.3127,http://data.europa.eu/949/concepts/op-types/rinf/10,10,http://publications.europa.eu/resource/authority/country/PRT,10,station
http://data.europa.eu/949/functionalInfrastructure/operationalPoints/3c9f76b78cf8010a9e69f395125fb9c08e43a9eb,http://data.europa.eu/949/functionalInfrastructure/operationalPoints/PT94425,PT94425,Metalsines,37.9753,-8.7974,http://data.europa.eu/949/concepts/op-types/rinf/130,130,http://publications.europa.eu/resource/authority/country/PRT,130,private siding
http://data.europa.eu/949/functionalInfrastructure/operationalPoints/3cb35b9e4aefcd1d6e08150d7f3acce188dabbdf,http://data.europa.eu/949/functionalInfrastructure/operationalPoints/PT08250,PT08250,Oleiros,41.1936,-8.3374,http://data.europa.eu/949/concepts/op-types/rinf/70,70,http://publications.europa.eu/resource/authority/country/PRT,70,passenger stop
http://data.europa.eu/949/functionalInfrastructure/operationalPoints/3cd3c2348dd6b1b7d1e63ebe5916534c8c351279,http://data.europa.eu/949/functionalInfrastructure/operationalPoints/PT95604,PT95604,Oficinas EMEF Barreiro (Inserção),38.6558,-9.0782,http://data.europa.eu/949/concepts/op-types/rinf/80,80,http://publications.europa.eu/resource/authority/country/PRT,80,junction
http://data.europa.eu/949/functionalInfrastructure/operationalPoints/3d04cc6e3bb5557e95ebd0b52e31e1e20a5895a7,http://data.europa.eu/949/functionalInfrastructure/operationalPoints/EU00123,EU00123,Valença Fronteira,42.0363,-8.64676,http://data.europa.eu/949/concepts/op-types/rinf/90,90,http://publications.europa.eu/resource/authority/country/PRT,90,border point
http://data.europa.eu/949/functionalInfrastructure/operationalPoints/3e912e5783c22e9ce326d2b57b5488183216bdbd,http://data.europa.eu/949/functionalInfrastructure/operationalPoints/PT30858,PT30858,Silapor,38.7356,-9.1025,http://data.europa.eu/949/concepts/op-types/rinf/130,130,http://publications.europa.eu/resource/authority/country/PRT,130,private siding
http://data.europa.eu/949/functionalInfrastructure/operationalPoints/3fafc4bd545ed6dcf818ffca9fdfc2e336fd868e,http://data.europa.eu/949/functionalInfrastructure/operationalPoints/PT91017,PT91017,Praias Sado - Sapec,38.5016,-8.832,http://data.europa.eu/949/concepts/op-types/rinf/130,130,http://publications.europa.eu/resource/authority/country/PRT,130,private siding
http://data.europa.eu/949/functionalInfrastructure/operationalPoints/4077ad485cd8e0889f609d3be9843e02613f88ec,http://data.europa.eu/949/functionalInfrastructure/operationalPoints/PT68650,PT68650,Porto Setúbal - Auto,38.5173,-8.8728,http://data.europa.eu/949/concepts/op-types/rinf/130,130,http://publications.europa.eu/resource/authority/country/PRT,130,private siding
http://data.europa.eu/949/functionalInfrastructure/operationalPoints/4104f7dbc80639f449b568c199741fe9f422aeb4,http://data.europa.eu/949/functionalInfrastructure/operationalPoints/PT93096,PT93096,Alvalade,37.9369,-8.3832,http://data.europa.eu/949/concepts/op-types/rinf/70,70,http://publications.europa.eu/resource/authority/country/PRT,70,passenger stop
http://data.europa.eu/949/functionalInfrastructure/operationalPoints/412266b441978f5c054ed36dc8db8b45af8b78c6,http://data.europa.eu/949/functionalInfrastructure/operationalPoints/PT39099,PT39099,Francelos Sul,41.0759,-8.6488,http://data.europa.eu/949/concepts/op-types/rinf/10,10,http://publications.europa.eu/resource/authority/country/PRT,10,station
http://data.europa.eu/949/functionalInfrastructure/operationalPoints/4331f88b6e590ef29e505e013780d89075056343,http://data.europa.eu/949/functionalInfrastructure/operationalPoints/PT63040,PT63040,Campo-Serra,39.4354,-9.1498,http://data.europa.eu/949/concepts/op-types/rinf/70,70,http://publications.europa.eu/resource/authority/country/PRT,70,passenger stop
http://data.europa.eu/949/functionalInfrastructure/operationalPoints/4339c7b26f81d04591db73893638ed13e38ef04b,http://data.europa.eu/949/functionalInfrastructure/operationalPoints/PT73205,PT73205,Fuseta,37.0604,-7.752,http://data.europa.eu/949/concepts/op-types/rinf/20,20,http://publications.europa.eu/resource/authority/country/PRT,20,small station
http://data.europa.eu/949/functionalInfrastructure/operationalPoints/43e81c48339997d6b27550159458962f608455f4,http://data.europa.eu/949/functionalInfrastructure/operationalPoints/PT29074,PT29074,Ruílhe,41.4976,-8.4963,http://data.europa.eu/949/concepts/op-types/rinf/20,20,http://publications.europa.eu/resource/authority/country/PRT,20,small station
http://data.europa.eu/949/functionalInfrastructure/operationalPoints/454784bcfe81cf916ba25817c653edb2e806f372,http://data.europa.eu/949/functionalInfrastructure/operationalPoints/PT53520,PT53520,Donas,40.1326,-7.4736,http://data.europa.eu/949/concepts/op-types/rinf/70,70,http://publications.europa.eu/resource/authority/country/PRT,70,passenger stop
http://data.europa.eu/949/functionalInfrastructure/operationalPoints/45d9673095973e352f28e5f2b5f455c2a29a1c2d,http://data.europa.eu/949/functionalInfrastructure/operationalPoints/PT62786,PT62786,São Mamede,39.322,-9.1794,http://data.europa.eu/949/concepts/op-types/rinf/70,70,http://publications.europa.eu/resource/authority/country/PRT,70,passenger stop
http://data.europa.eu/949/functionalInfrastructure/operationalPoints/461a79d70c34ac88f3a93182b913ecc910eb3c62,http://data.europa.eu/949/functionalInfrastructure/operationalPoints/PT09357,PT09357,Rede,41.1607,-7.8658,http://data.europa.eu/949/concepts/op-types/rinf/20,20,http://publications.europa.eu/resource/authority/country/PRT,20,small station
http://data.europa.eu/949/functionalInfrastructure/operationalPoints/46c33c6f7e1f54e9b1fc371af122e107e3cfa620,http://data.europa.eu/949/functionalInfrastructure/operationalPoints/PT19067,PT19067,Celbi,40.0489,-8.8735,http://data.europa.eu/949/concepts/op-types/rinf/130,130,http://publications.europa.eu/resource/authority/country/PRT,130,private siding
http://data.europa.eu/949/functionalInfrastructure/operationalPoints/4a76b6e1e90ab57da5fbafe12af0062ea6f8ee26,http://data.europa.eu/949/functionalInfrastructure/operationalPoints/PT12104,PT12104,Ramal Pocinho - Quimigal,41.131,-7.1183,http://data.europa.eu/949/concepts/op-types/rinf/130,130,http://publications.europa.eu/resource/authority/country/PRT,130,private siding
http://data.europa.eu/949/functionalInfrastructure/operationalPoints/4affd807ae96664afffed614030a7ccee6515e0f,http://data.europa.eu/949/functionalInfrastructure/operationalPoints/PT28266,PT28266,Nespereira,41.4032,-8.3196,http://data.europa.eu/949/concepts/op-types/rinf/70,70,http://publications.europa.eu/resource/authority/country/PRT,70,passenger stop
http://data.europa.eu/949/functionalInfrastructure/operationalPoints/4d40db035da4bd3f73e18546a90e0642e9d3d40e,http://data.europa.eu/949/functionalInfrastructure/operationalPoints/PT76141,PT76141,Pk Início (troço Ourique/Funcheira),37.7486,-8.2228,http://data.europa.eu/949/concepts/op-types/rinf/80,80,http://publications.europa.eu/resource/authority/country/PRT,80,junction
http://data.europa.eu/949/functionalInfrastructure/operationalPoints/4e27d0ed772e2d02dad9a0639ac067decb4a62cf,http://data.europa.eu/949/functionalInfrastructure/operationalPoints/PT63735,PT63735,Monte Redondo,39.9003,-8.8344,http://data.europa.eu/949/concepts/op-types/rinf/70,70,http://publications.europa.eu/resource/authority/country/PRT,70,passenger stop
http://data.europa.eu/949/functionalInfrastructure/operationalPoints/4e615a203143032a0d522b8e0cf71c532ffce2ef,http://data.europa.eu/949/functionalInfrastructure/operationalPoints/PT17277,PT17277,Autoeuropa,38.5879,-8.9886,http://data.europa.eu/949/concepts/op-types/rinf/130,130,http://publications.europa.eu/resource/authority/country/PRT,130,private siding
http://data.europa.eu/949/functionalInfrastructure/operationalPoints/4fd07d05d4825583862ecd548dbf87472f0f2ad7,http://data.europa.eu/949/functionalInfrastructure/operationalPoints/PT62422,PT62422,Runa,39.073,-9.2098,http://data.europa.eu/949/concepts/op-types/rinf/70,70,http://publications.europa.eu/resource/authority/country/PRT,70,passenger stop
http://data.europa.eu/949/functionalInfrastructure/operationalPoints/4fdeea39df68cc01711ee6643ffb3236ec1b69ef,http://data.europa.eu/949/functionalInfrastructure/operationalPoints/PT94607,PT94607,Ramal Petroquimica (Inserção),37.9736,-8.8008,http://data.europa.eu/949/concepts/op-types/rinf/80,80,http://publications.europa.eu/resource/authority/country/PRT,80,junction
http://data.europa.eu/949/functionalInfrastructure/operationalPoints/504249bae91863f9f638cdaf34381254e763e72a,http://data.europa.eu/949/functionalInfrastructure/operationalPoints/PT73452,PT73452,Cacela,37.1764,-7.5381,http://data.europa.eu/949/concepts/op-types/rinf/20,20,http://publications.europa.eu/resource/authority/country/PRT,20,small station
http://data.europa.eu/949/functionalInfrastructure/operationalPoints/504525f7463380b58342a19724269ca6c32fbd27,http://data.europa.eu/949/functionalInfrastructure/operationalPoints/PT17236,PT17236,Coina,38.5846,-9.0515,http://data.europa.eu/949/concepts/op-types/rinf/20,20,http://publications.europa.eu/resource/authority/country/PRT,20,small station
http://data.europa.eu/949/functionalInfrastructure/operationalPoints/515fe993f681d901b2f7d2e8006e65be7ec6b4dc,http://data.europa.eu/949/functionalInfrastructure/operationalPoints/PT63313,PT63313,Fanhais,39.6255,-8.9992,http://data.europa.eu/949/concepts/op-types/rinf/70,70,http://publications.europa.eu/resource/authority/country/PRT,70,passenger stop
http://data.europa.eu/949/functionalInfrastructure/operationalPoints/516dae7b8b93dc2d26b019fe062bf79dc2d125a2,http://data.europa.eu/949/functionalInfrastructure/operationalPoints/PT45039,PT45039,PK de Início do Ramal da Figueira da Foz,40.3502,-8.4469,http://data.europa.eu/949/concepts/op-types/rinf/130,130,http://publications.europa.eu/resource/authority/country/PRT,130,private siding
http://data.europa.eu/949/functionalInfrastructure/operationalPoints/516fa1f5f1bf492f2b58a64f1da27a5ea070dc5e,http://data.europa.eu/949/functionalInfrastructure/operationalPoints/PT62836,PT62836,Óbidos,39.3649,-9.1591,http://data.europa.eu/949/concepts/op-types/rinf/70,70,http://publications.europa.eu/resource/authority/country/PRT,70,passenger stop
http://data.europa.eu/949/functionalInfrastructure/operationalPoints/51dc8dcb5f5cd99a17c0cbe0ba2c810f70a1f0ad,http://data.europa.eu/949/functionalInfrastructure/operationalPoints/PT32672,PT32672,Terminal de Mercadorias MSC (Inserção),39.4496,-8.4866,http://data.europa.eu/949/concepts/op-types/rinf/80,80,http://publications.europa.eu/resource/authority/country/PRT,80,junction
http://data.europa.eu/949/functionalInfrastructure/operationalPoints/52669ec1baccbc5eb8af23fb1ed6d9258fd503d9,http://data.europa.eu/949/functionalInfrastructure/operationalPoints/PT53546,PT53546,Fundão,40.1414,-7.4964,http://data.europa.eu/949/concepts/op-types/rinf/20,20,http://publications.europa.eu/resource/authority/country/PRT,20,small station
http://data.europa.eu/949/functionalInfrastructure/operationalPoints/534dd72477e3d20fc39bd5ceefd02eac4a3e8bf9,http://data.europa.eu/949/functionalInfrastructure/operationalPoints/PT40030,PT40030,Carrascal-Delongo,39.5486,-8.4628,http://data.europa.eu/949/concepts/op-types/rinf/70,70,http://publications.europa.eu/resource/authority/country/PRT,70,passenger stop
http://data.europa.eu/949/functionalInfrastructure/operationalPoints/544d650de8c79ddafa16bd656951a58931e2b6bf,http://data.europa.eu/949/functionalInfrastructure/operationalPoints/PT91025,PT91025,Praias Sado - Portucel,38.4981,-8.8082,http://data.europa.eu/949/concepts/op-types/rinf/130,130,http://publications.europa.eu/resource/authority/country/PRT,130,private siding
http://data.europa.eu/949/functionalInfrastructure/operationalPoints/54c5a111aca1e73c269e89640ba7104070bc79d7,http://data.europa.eu/949/functionalInfrastructure/operationalPoints/PT85076,PT85076,Petrogal - Asfaltos,37.9668,-8.7949,http://data.europa.eu/949/concepts/op-types/rinf/130,130,http://publications.europa.eu/resource/authority/country/PRT,130,private siding
http://data.europa.eu/949/functionalInfrastructure/operationalPoints/54df4c901257cf82e1ba1f0d710a504be93a7c15,http://data.europa.eu/949/functionalInfrastructure/operationalPoints/PT95026,PT95026,Barreiro-A,38.6598,-9.0716,http://data.europa.eu/949/concepts/op-types/rinf/70,70,http://publications.europa.eu/resource/authority/country/PRT,70,passenger stop
http://data.europa.eu/949/functionalInfrastructure/operationalPoints/54e7fa6dbb051c1fe5c5b028ebc666eec4dad5d2,http://data.europa.eu/949/functionalInfrastructure/operationalPoints/PT78295,PT78295,Parque das Cidades,37.0802,-7.9849,http://data.europa.eu/949/concepts/op-types/rinf/20,20,http://publications.europa.eu/resource/authority/country/PRT,20,small station
http://data.europa.eu/949/functionalInfrastructure/operationalPoints/58b6f1169ef2d7c874ff07b77bb37899753ae503,http://data.europa.eu/949/functionalInfrastructure/operationalPoints/PT63974,PT63974,Bicanho,40.0856,-8.7434,http://data.europa.eu/949/concepts/op-types/rinf/70,70,http://publications.europa.eu/resource/authority/country/PRT,70,passenger stop
http://data.europa.eu/949/functionalInfrastructure/operationalPoints/58c625886e90ce5a198f807d2ffbbe6cf5b9a5d4,http://data.europa.eu/949/functionalInfrastructure/operationalPoints/PT60038,PT60038,Santa Cruz/Damaia,38.7469,-9.2132,http://data.europa.eu/949/concepts/op-types/rinf/70,70,http://publications.europa.eu/resource/authority/country/PRT,70,passenger stop
http://data.europa.eu/949/functionalInfrastructure/operationalPoints/594d968e22cffc473bc5629868193c6142b83466,http://data.europa.eu/949/functionalInfrastructure/operationalPoints/PT99358,PT99358,Ramal Raquete (Inserção),37.9799,-8.7746,http://data.europa.eu/949/concepts/op-types/rinf/80,80,http://publications.europa.eu/resource/authority/country/PRT,80,junction
http://data.europa.eu/949/functionalInfrastructure/operationalPoints/5a3bab704d898927336b0ba91477f0815978b878,http://data.europa.eu/949/functionalInfrastructure/operationalPoints/PT07005,PT07005,Valença,42.0247,-8.6394,http://data.europa.eu/949/concepts/op-types/rinf/20,20,http://publications.europa.eu/resource/authority/country/PRT,20,small station
http://data.europa.eu/949/functionalInfrastructure/operationalPoints/5aa44b4780310af11abc13fdb91589607c1aed94,http://data.europa.eu/949/functionalInfrastructure/operationalPoints/PT62190,PT62190,Alcainça-Moinhos,38.9162,-9.2831,http://data.europa.eu/949/concepts/op-types/rinf/70,70,http://publications.europa.eu/resource/authority/country/PRT,70,passenger stop
http://data.europa.eu/949/functionalInfrastructure/operationalPoints/5af0ff8f5d13556ff0ae7cc9a91293eab69a7ca4,http://data.europa.eu/949/functionalInfrastructure/operationalPoints/PT29124,PT29124,Terminal de Mercadoriad de Tadim (Inserção),41.511,-8.4806,http://data.europa.eu/949/concepts/op-types/rinf/80,80,http://publications.europa.eu/resource/authority/country/PRT,80,junction
http://data.europa.eu/949/functionalInfrastructure/operationalPoints/5b1fbc5daadad53ff21714e8eea83873be4594bc,http://data.europa.eu/949/functionalInfrastructure/operationalPoints/PT61044,PT61044,Rio de Mouro,38.7847,-9.3223,http://data.europa.eu/949/concepts/op-types/rinf/70,70,http://publications.europa.eu/resource/authority/country/PRT,70,passenger stop
http://data.europa.eu/949/functionalInfrastructure/operationalPoints/5ba2a32f1e1b7bb2b064cbaeb82c97081eeca24e,http://data.europa.eu/949/functionalInfrastructure/operationalPoints/PT53702,PT53702,Terminal de Mercadorias do Fundão (Inicio),40.1637,-7.493,http://data.europa.eu/949/concepts/op-types/rinf/80,80,http://publications.europa.eu/resource/authority/country/PRT,80,junction
http://data.europa.eu/949/functionalInfrastructure/operationalPoints/5e872dcb87b1d7154ab9726bee8eda937dd4048f,http://data.europa.eu/949/functionalInfrastructure/operationalPoints/PT77735,PT77735,Messines-Alte,37.2554,-8.2905,http://data.europa.eu/949/concepts/op-types/rinf/20,20,http://publications.europa.eu/resource/authority/country/PRT,20,small station
http://data.europa.eu/949/functionalInfrastructure/operationalPoints/5e9b2242dad5699236b56c7314a4439878089880,http://data.europa.eu/949/functionalInfrastructure/operationalPoints/PT32474,PT32474,MEDWAY TERMINALS – Entroncamento(Inserção Sul),39.4339,-8.5028,http://data.europa.eu/949/concepts/op-types/rinf/80,80,http://publications.europa.eu/resource/authority/country/PRT,80,junction
http://data.europa.eu/949/functionalInfrastructure/operationalPoints/5eba289e989c5b69214387a3cb08fc24221d76ac,http://data.europa.eu/949/functionalInfrastructure/operationalPoints/PT91504,PT91504,Ramal de Praias Sado - EDP (Inserção),38.511,-8.8359,http://data.europa.eu/949/concepts/op-types/rinf/80,80,http://publications.europa.eu/resource/authority/country/PRT,80,junction
http://data.europa.eu/949/functionalInfrastructure/operationalPoints/5ed5cb63b99e32d6fa8219d3480655f05b62c435,http://data.europa.eu/949/functionalInfrastructure/operationalPoints/PT30502,PT30502,Ramal da Sotagus (Inserção lado Sta Apolónia),38.7221,-9.1137,http://data.europa.eu/949/concepts/op-types/rinf/80,80,http://publications.europa.eu/resource/authority/country/PRT,80,junction
http://data.europa.eu/949/functionalInfrastructure/operationalPoints/5ed928e149bacd8a89ea08ac523c0386b929ec56,http://data.europa.eu/949/functionalInfrastructure/operationalPoints/PT77388,PT77388,Santa Clara-Sabóia,37.4958,-8.4814,http://data.europa.eu/949/concepts/op-types/rinf/20,20,http://publications.europa.eu/resource/authority/country/PRT,20,small station
http://data.europa.eu/949/functionalInfrastructure/operationalPoints/5fa3f631b143d3b5c20d11433777f8e4499cece9,http://data.europa.eu/949/functionalInfrastructure/operationalPoints/PT31823,PT31823,Ramal Iberol 3 (Inserção lado Alhandra),38.9229,-9.0118,http://data.europa.eu/949/concepts/op-types/rinf/80,80,http://publications.europa.eu/resource/authority/country/PRT,80,junction
http://data.europa.eu/949/functionalInfrastructure/operationalPoints/60b5fb3434e3d695577613313eb714d0e28e21dd,http://data.europa.eu/949/functionalInfrastructure/operationalPoints/PT69120,PT69120,Caxias,38.6987,-9.2744,http://data.europa.eu/949/concepts/op-types/rinf/20,20,http://publications.europa.eu/resource/authority/country/PRT,20,small station
http://data.europa.eu/949/functionalInfrastructure/operationalPoints/60da22dd5e68cb9a27c692d09a2317ac64321edf,http://data.europa.eu/949/functionalInfrastructure/operationalPoints/PT09050,PT09050,Juncal,41.1407,-8.1194,http://data.europa.eu/949/concepts/op-types/rinf/20,20,http://publications.europa.eu/resource/authority/country/PRT,20,small station
http://data.europa.eu/949/functionalInfrastructure/operationalPoints/632f3951687e237f963db45464beec1c0200b85c,http://data.europa.eu/949/functionalInfrastructure/operationalPoints/PT63107,PT63107,Salir do Porto,39.4924,-9.1472,http://data.europa.eu/949/concepts/op-types/rinf/70,70,http://publications.europa.eu/resource/authority/country/PRT,70,passenger stop
http://data.europa.eu/949/functionalInfrastructure/operationalPoints/63ffd58a812afbeb44446c8aff605a79aae23a11,http://data.europa.eu/949/functionalInfrastructure/operationalPoints/PT95059,PT95059,Baixa da Banheira,38.6596,-9.0443,http://data.europa.eu/949/concepts/op-types/rinf/70,70,http://publications.europa.eu/resource/authority/country/PRT,70,passenger stop
http://data.europa.eu/949/functionalInfrastructure/operationalPoints/65f8e09e2bb04704f9b9477d9f6c7ea12ac9908a,http://data.europa.eu/949/functionalInfrastructure/operationalPoints/PT63347,PT63347,Ramal Pataias - Secil (Inserção),39.6534,-8.9861,http://data.europa.eu/949/concepts/op-types/rinf/80,80,http://publications.europa.eu/resource/authority/country/PRT,80,junction
http://data.europa.eu/949/functionalInfrastructure/operationalPoints/66295ef8c0a63367801ee50995b3380b21d8eb4e,http://data.europa.eu/949/functionalInfrastructure/operationalPoints/PT45021,PT45021,Ramal da Pampilhosa - Valouro (Inserção),40.3472,-8.4442,http://data.europa.eu/949/concepts/op-types/rinf/80,80,http://publications.europa.eu/resource/authority/country/PRT,80,junction
http://data.europa.eu/949/functionalInfrastructure/operationalPoints/663ac55d2fcc6587542ee9c2d9f7064ebc9b7cc8,http://data.europa.eu/949/functionalInfrastructure/operationalPoints/PT04135,PT04135,Agulha de inserção na Linha do Minho,41.2213,-8.553,http://data.europa.eu/949/concepts/op-types/rinf/80,80,http://publications.europa.eu/resource/authority/country/PRT,80,junction
http://data.europa.eu/949/functionalInfrastructure/operationalPoints/663e86964a64b94929e384d00013aed97d53b24e,http://data.europa.eu/949/functionalInfrastructure/operationalPoints/PT18416,PT18416,Carvalha,41.9799,-8.7025,http://data.europa.eu/949/concepts/op-types/rinf/70,70,http://publications.europa.eu/resource/authority/country/PRT,70,passenger stop
http://data.europa.eu/949/functionalInfrastructure/operationalPoints/66c5fca67fd0c6d12958206d1b74d6e8bc156bc4,http://data.europa.eu/949/functionalInfrastructure/operationalPoints/PT90381,PT90381,Mexilhoeira Grande,37.1542,-8.6096,http://data.europa.eu/949/concepts/op-types/rinf/20,20,http://publications.europa.eu/resource/authority/country/PRT,20,small station
http://data.europa.eu/949/functionalInfrastructure/operationalPoints/679eaca0ce504d96f53c6c30a7e1a40750d1ad38,http://data.europa.eu/949/functionalInfrastructure/operationalPoints/PT65151,PT65151,Bifurcação de Verride,40.122,-8.7587,http://data.europa.eu/949/concepts/op-types/rinf/80,80,http://publications.europa.eu/resource/authority/country/PRT,80,junction
http://data.europa.eu/949/functionalInfrastructure/operationalPoints/6872544fe51c139b614f1ef966225121eaf7c0c0,http://data.europa.eu/949/functionalInfrastructure/operationalPoints/PT74351,PT74351,Alvito,38.2327,-8.0,http://data.europa.eu/949/concepts/op-types/rinf/70,70,http://publications.europa.eu/resource/authority/country/PRT,70,passenger stop
http://data.europa.eu/949/functionalInfrastructure/operationalPoints/68acce9638bed8c7e5e7ecb60755f0ce0ab7326d,http://data.europa.eu/949/functionalInfrastructure/operationalPoints/PT52738,PT52738,Tojeirinha,39.7168,-7.6818,http://data.europa.eu/949/concepts/op-types/rinf/70,70,http://publications.europa.eu/resource/authority/country/PRT,70,passenger stop
http://data.europa.eu/949/functionalInfrastructure/operationalPoints/696c35b6d2f69dbec9c7167f92e3880f996dcd55,http://data.europa.eu/949/functionalInfrastructure/operationalPoints/PT53314,PT53314,Castelo Novo,40.0644,-7.4607,http://data.europa.eu/949/concepts/op-types/rinf/20,20,http://publications.europa.eu/resource/authority/country/PRT,20,small station
http://data.europa.eu/949/functionalInfrastructure/operationalPoints/6977ac0646b8e61ad838102660eda14a02cad86d,http://data.europa.eu/949/functionalInfrastructure/operationalPoints/PT32482,PT32482,MEDWAY TERMINALS – Entroncamento (Inserção Norte),39.4407,-8.4957,http://data.europa.eu/949/concepts/op-types/rinf/80,80,http://publications.europa.eu/resource/authority/country/PRT,80,junction
http://data.europa.eu/949/functionalInfrastructure/operationalPoints/69abc5a2fc4a570ede278a7d57d9137a84dbdae3,http://data.europa.eu/949/functionalInfrastructure/operationalPoints/PT53355,PT53355,Alpedrinha,40.0952,-7.462,http://data.europa.eu/949/concepts/op-types/rinf/70,70,http://publications.europa.eu/resource/authority/country/PRT,70,passenger stop
http://data.europa.eu/949/functionalInfrastructure/operationalPoints/69e1f18328b61fc181717ea0b78806558f28bc1e,http://data.europa.eu/949/functionalInfrastructure/operationalPoints/PT62802,PT62802,Dagorda - Peniche,39.3444,-9.1724,http://data.europa.eu/949/concepts/op-types/rinf/70,70,http://publications.europa.eu/resource/authority/country/PRT,70,passenger stop
http://data.europa.eu/949/functionalInfrastructure/operationalPoints/6a6d975409f72091c8b9037b9e9467948a335e55,http://data.europa.eu/949/functionalInfrastructure/operationalPoints/PT31815,PT31815,Ramal Iberol 3 (Inserção lado Alverca),38.919,-9.0139,http://data.europa.eu/949/concepts/op-types/rinf/80,80,http://publications.europa.eu/resource/authority/country/PRT,80,junction
http://data.europa.eu/949/functionalInfrastructure/operationalPoints/6aaa94bfa35205d15695c701301135f00e045c93,http://data.europa.eu/949/functionalInfrastructure/operationalPoints/PT68502,PT68502,Ramal Porto Setúbal - Auto (Inserção),38.514,-8.8628,http://data.europa.eu/949/concepts/op-types/rinf/80,80,http://publications.europa.eu/resource/authority/country/PRT,80,junction
http://data.europa.eu/949/functionalInfrastructure/operationalPoints/6b9bff97aa7f9fa37b0c52675f9f65da05865f4e,http://data.europa.eu/949/functionalInfrastructure/operationalPoints/PT62299,PT62299,Sapataria,38.9688,-9.1994,http://data.europa.eu/949/concepts/op-types/rinf/70,70,http://publications.europa.eu/resource/authority/country/PRT,70,passenger stop
http://data.europa.eu/949/functionalInfrastructure/operationalPoints/6bf29bd5138db4b7f1e84cb6f88bb8b29e1d3431,http://data.europa.eu/949/functionalInfrastructure/operationalPoints/PT28233,PT28233,Vizela,41.3791,-8.3124,http://data.europa.eu/949/concepts/op-types/rinf/20,20,http://publications.europa.eu/resource/authority/country/PRT,20,small station
http://data.europa.eu/949/functionalInfrastructure/operationalPoints/6d2552f58f52caab9a0fa6e2ec779fe48d284de7,http://data.europa.eu/949/functionalInfrastructure/operationalPoints/PT82503,PT82503,Pedreira do Sul - Monte das Flores (Ins. lado C. Branca),38.518,-7.9521,http://data.europa.eu/949/concepts/op-types/rinf/80,80,http://publications.europa.eu/resource/authority/country/PRT,80,junction
http://data.europa.eu/949/functionalInfrastructure/operationalPoints/6d7477ee5801f4706a077e05a9a6919059f76b1c,http://data.europa.eu/949/functionalInfrastructure/operationalPoints/PT69252,PT69252,Monte Estoril,38.7036,-9.4065,http://data.europa.eu/949/concepts/op-types/rinf/70,70,http://publications.europa.eu/resource/authority/country/PRT,70,passenger stop
http://data.europa.eu/949/functionalInfrastructure/operationalPoints/6e126da1ac8bfad4b749d1838f3c151fcb055e85,http://data.europa.eu/949/functionalInfrastructure/operationalPoints/PT95620,PT95620,Ramal Barreiro Terra (Inserção),38.6572,-9.0762,http://data.europa.eu/949/concepts/op-types/rinf/80,80,http://publications.europa.eu/resource/authority/country/PRT,80,junction
http://data.europa.eu/949/functionalInfrastructure/operationalPoints/6ebaadc144ba6d7b74d33809136d0cc8c26c970f,http://data.europa.eu/949/functionalInfrastructure/operationalPoints/PT52415,PT52415,Barca da Amieira -Envendos,39.526,-7.835,http://data.europa.eu/949/concepts/op-types/rinf/20,20,http://publications.europa.eu/resource/authority/country/PRT,20,small station
http://data.europa.eu/949/functionalInfrastructure/operationalPoints/6ed6418a4dfc1ebc24211ded2ef4d997a407789c,http://data.europa.eu/949/functionalInfrastructure/operationalPoints/PT73502,PT73502,Castro Marim,37.1968,-7.4839,http://data.europa.eu/949/concepts/op-types/rinf/70,70,http://publications.europa.eu/resource/authority/country/PRT,70,passenger stop
http://data.europa.eu/949/functionalInfrastructure/operationalPoints/6f97283ba7156c76339933e9d1f57e690f7d5525,http://data.europa.eu/949/functionalInfrastructure/operationalPoints/PT90092,PT90092,Alcantarilha,37.1699,-8.3486,http://data.europa.eu/949/concepts/op-types/rinf/20,20,http://publications.europa.eu/resource/authority/country/PRT,20,small station
