uri,uri_canonical,id,name,lat,lon,op_type,op_type_label,country,op_type_code,op_type_name
http://data.europa.eu/949/functionalInfrastructure/operationalPoints/070a729f6df21c118d63f244e760bb08ab730eed,http://data.europa.eu/949/functionalInfrastructure/operationalPoints/DK00848,DK00848,Herlev,55.7189,12.4432,http://data.europa.eu/949/concepts/op-types/rinf/10,10,http://publications.europa.eu/resource/authority/country/DNK,10,station
http://data.europa.eu/949/functionalInfrastructure/operationalPoints/0908d2da0bd6fb67a428290694506b137711f593,http://data.europa.eu/949/functionalInfrastructure/operationalPoints/DK00773,DK00773,Hirtshals,57.5918,9.9631,http://data.europa.eu/949/concepts/op-types/rinf/10,10,http://publications.europa.eu/resource/authority/country/DNK,10,station
http://data.europa.eu/949/functionalInfrastructure/operationalPoints/178ff165b7ff375bbbd0825d133b33eea3d5f785,http://data.europa.eu/949/functionalInfrastructure/operationalPoints/DK00901,DK00901,Solrød Strand,55.5333,12.2182,http://data.europa.eu/949/concepts/op-types/rinf/10,10,http://publications.europa.eu/resource/authority/country/DNK,10,station
http://data.europa.eu/949/functionalInfrastructure/operationalPoints/25595cca7e6c812d24a093d0fb145e8cca20841a,http://data.europa.eu/949/functionalInfrastructure/operationalPoints/DK00855,DK00855,Ballerup,55.7296,12.3586,http://data.europa.eu/949/concepts/op-types/rinf/10,10,http://publications.europa.eu/resource/authority/country/DNK,10,station
http://data.europa.eu/949/functionalInfrastructure/operationalPoints/2949fae716e3f8418f9b6a8ce03fb612911d56de,http://data.europa.eu/949/functionalInfrastructure/operationalPoints/DK00688,DK00688,Nakskov,54.8336,11.1371,http://data.europa.eu/949/concepts/op-types/rinf/10,10,http://publications.europa.eu/resource/authority/country/DNK,10,station
http://data.europa.eu/949/functionalInfrastructure/operationalPoints/549d1b76fd4cf95bd7c1624a1dfd18e07d6ab3e1,http://data.europa.eu/949/functionalInfrastructure/operationalPoints/DK00710,DK00710,Nørre Nebel,55.7773,8.2901,http://data.europa.eu/949/concepts/op-types/rinf/10,10,http://publications.europa.eu/resource/authority/country/DNK,10,station
http://data.europa.eu/949/functionalInfrastructure/operationalPoints/789011a22ee99682b89a989c87b93e9466bd8545,http://data.europa.eu/949/functionalInfrastructure/operationalPoints/DK00908,DK00908,Køge,55.4578,12.1865,http://data.europa.eu/949/concepts/op-types/rinf/10,10,http://publications.europa.eu/resource/authority/country/DNK,10,station
http://data.europa.eu/949/functionalInfrastructure/operationalPoints/7ec3cbcd55e46214c47d541a921d86027da49a14,http://data.europa.eu/949/functionalInfrastructure/operationalPoints/DK00767,DK00767,Hjørring,57.4564,9.9854,http://data.europa.eu/949/concepts/op-types/rinf/10,10,http://publications.europa.eu/resource/authority/country/DNK,10,station
http://data.europa.eu/949/functionalInfrastructure/operationalPoints/84d41b5d7f1f7f42ef5e84ec1ec0c7db16dba937,http://data.europa.eu/949/functionalInfrastructure/operationalPoints/DK00865,DK00865,Frederikssund,55.832,12.0689,http://data.europa.eu/949/concepts/op-types/rinf/10,10,http://publications.europa.eu/resource/authority/country/DNK,10,station
http://data.europa.eu/949/functionalInfrastructure/operationalPoints/973b67d1afc58e66539ef99202b1d1dc697e90c6,http://data.europa.eu/949/functionalInfrastructure/operationalPoints/DK00633,DK00633,Havrebjerg,55.451,11.3078,http://data.europa.eu/949/concepts/op-types/rinf/10,10,http://publications.europa.eu/resource/authority/country/DNK,10,station
http://data.europa.eu/949/functionalInfrastructure/operationalPoints/9e21e79fc2a49bc2219f88e65432a2cebd7cc8cd,http://data.europa.eu/949/functionalInfrastructure/operationalPoints/DK00869,DK00869,Buddinge,55.7474,12.4927,http://data.europa.eu/949/concepts/op-types/rinf/10,10,http://publications.europa.eu/resource/authority/country/DNK,10,station
http://data.europa.eu/949/functionalInfrastructure/operationalPoints/abbc65c46dbdf5f9ce220af2255296a12213244e,http://data.europa.eu/949/functionalInfrastructure/operationalPoints/DK00886,DK00886,Åmarken,55.6392,12.4993,http://data.europa.eu/949/concepts/op-types/rinf/10,10,http://publications.europa.eu/resource/authority/country/DNK,10,station
http://data.europa.eu/949/functionalInfrastructure/operationalPoints/acd21d22712920e60d64a18e9f3888b7b783a7ce,http://data.europa.eu/949/functionalInfrastructure/operationalPoints/DK00897,DK00897,Hundige,55.5981,12.3345,http://data.europa.eu/949/concepts/op-types/rinf/10,10,http://publications.europa.eu/resource/authority/country/DNK,10,station
http://data.europa.eu/949/functionalInfrastructure/operationalPoints/c39a9e052062b4293968899d81285aef35f4a622,http://data.europa.eu/949/functionalInfrastructure/operationalPoints/DK00912,DK00912,Klampenborg,55.7765,12.5883,http://data.europa.eu/949/concepts/op-types/rinf/10,10,http://publications.europa.eu/resource/authority/country/DNK,10,station
http://data.europa.eu/949/functionalInfrastructure/operationalPoints/c5fe3b9905c9709033499f21c727c7902ee5ad91,http://data.europa.eu/949/functionalInfrastructure/operationalPoints/DK00926,DK00926,Lersøen,55.7076,12.5435,http://data.europa.eu/949/concepts/op-types/rinf/80,80,http://publications.europa.eu/resource/authority/country/DNK,80,junction
http://data.europa.eu/949/functionalInfrastructure/operationalPoints/ca7e7ffc9982484bdc951366f4c42a31246d2f7f,http://data.europa.eu/949/functionalInfrastructure/operationalPoints/DK00881,DK00881,Farum,55.8111,12.3747,http://data.europa.eu/949/concepts/op-types/rinf/10,10,http://publications.europa.eu/resource/authority/country/DNK,10,station
http://data.europa.eu/949/functionalInfrastructure/operationalPoints/f546b6fa109d4123e70df3ee53993e38143309d5,http://data.europa.eu/949/functionalInfrastructure/operationalPoints/DK00636,DK00636,Høng,55.5071,11.2858,http://data.europa.eu/949/concepts/op-types/rinf/10,10,http://publications.europa.eu/resource/authority/country/DNK,10,station
http://data.europa.eu/949/functionalInfrastructure/operationalPoints/052f16d46dc17f3d470c678bf0ce9a296bab4803,http://data.europa.eu/949/functionalInfrastructure/operationalPoints/DK00261,DK00261,Randers,56.4617,10.022,http://data.europa.eu/949/concepts/op-types/rinf/10,10,http://publications.europa.eu/resource/authority/country/DNK,10,station
http://data.europa.eu/949/functionalInfrastructure/operationalPoints/0f0bb57ad6bb085605681a317288afa15d7c5af1,http://data.europa.eu/949/functionalInfrastructure/operationalPoints/DK00436,DK00436,Fasterholt,56.0121,9.1119,http://data.europa.eu/949/concepts/op-types/rinf/80,80,http://publications.europa.eu/resource/authority/country/DNK,80,junction
http://data.europa.eu/949/functionalInfrastructure/operationalPoints/19be6d75bc34a28cdadaa954e22e35476095331d,http://data.europa.eu/949/functionalInfrastructure/operationalPoints/DK00263,DK00263,Fårup,56.5464,9.8453,http://data.europa.eu/949/concepts/op-types/rinf/80,80,http://publications.europa.eu/resource/authority/country/DNK,80,junction
http://data.europa.eu/949/functionalInfrastructure/operationalPoints/1f4140da307ad8d30b7258c5b7e84968ba21ee80,http://data.europa.eu/949/functionalInfrastructure/operationalPoints/DK00384,DK00384,Lem,56.0251,8.3859,http://data.europa.eu/949/concepts/op-types/rinf/10,10,http://publications.europa.eu/resource/authority/country/DNK,10,station
http://data.europa.eu/949/functionalInfrastructure/operationalPoints/22d469702e67f9301c6725f39c2c1918f2a7b741,http://data.europa.eu/949/functionalInfrastructure/operationalPoints/DK00236,DK00236,Hedensted,55.7677,9.6988,http://data.europa.eu/949/concepts/op-types/rinf/10,10,http://publications.europa.eu/resource/authority/country/DNK,10,station
http://data.europa.eu/949/functionalInfrastructure/operationalPoints/2343f4fcc70bff8666a4349a7b0e1a9717535b95,http://data.europa.eu/949/functionalInfrastructure/operationalPoints/DK00314,DK00314,Rødekro,55.0692,9.3328,http://data.europa.eu/949/concepts/op-types/rinf/10,10,http://publications.europa.eu/resource/authority/country/DNK,10,station
http://data.europa.eu/949/functionalInfrastructure/operationalPoints/2884c0eb7ad3fb51ed6db4bdbcc2efdb30b3f6b3,http://data.europa.eu/949/functionalInfrastructure/operationalPoints/DK00284,DK00284,Brønderslev,57.2702,9.9426,http://data.europa.eu/949/concepts/op-types/rinf/10,10,http://publications.europa.eu/resource/authority/country/DNK,10,station
http://data.europa.eu/949/functionalInfrastructure/operationalPoints/2927fd3af079b036823bede4792545a0949754a2,http://data.europa.eu/949/functionalInfrastructure/operationalPoints/DK00395,DK00395,Holstebro,56.3654,8.6205,http://data.europa.eu/949/concepts/op-types/rinf/10,10,http://publications.europa.eu/resource/authority/country/DNK,10,station
http://data.europa.eu/949/functionalInfrastructure/operationalPoints/2f334323be202b758ea4fb3b173d9bb30417544c,http://data.europa.eu/949/functionalInfrastructure/operationalPoints/DK00399,DK00399,Struer,56.4918,8.6007,http://data.europa.eu/949/concepts/op-types/rinf/10,10,http://publications.europa.eu/resource/authority/country/DNK,10,station
http://data.europa.eu/949/functionalInfrastructure/operationalPoints/307068ce59b27a22b7a9c06ed416c3cffcfefee3,http://data.europa.eu/949/functionalInfrastructure/operationalPoints/DK00312,DK00312,Vojens,55.2484,9.3051,http://data.europa.eu/949/concepts/op-types/rinf/10,10,http://publications.europa.eu/resource/authority/country/DNK,10,station
http://data.europa.eu/949/functionalInfrastructure/operationalPoints/33eb0d757bbd9c8d86b433d4ee246f32829ccabb,http://data.europa.eu/949/functionalInfrastructure/operationalPoints/DK00846,DK00846,Vanløse,55.687,12.4922,http://data.europa.eu/949/concepts/op-types/rinf/10,10,http://publications.europa.eu/resource/authority/country/DNK,10,station
http://data.europa.eu/949/functionalInfrastructure/operationalPoints/383155fa365de147df44d7e319506adda75677be,http://data.europa.eu/949/functionalInfrastructure/operationalPoints/DK00841,DK00841,Hillerød,55.9273,12.3113,http://data.europa.eu/949/concepts/op-types/rinf/10,10,http://publications.europa.eu/resource/authority/country/DNK,10,station
http://data.europa.eu/949/functionalInfrastructure/operationalPoints/3c0db1dbfa790cda250a01b16a7b55af7507d9c4,http://data.europa.eu/949/functionalInfrastructure/operationalPoints/DK00476,DK00476,Silkeborg,56.164,9.5442,http://data.europa.eu/949/concepts/op-types/rinf/10,10,http://publications.europa.eu/resource/authority/country/DNK,10,station
http://data.europa.eu/949/functionalInfrastructure/operationalPoints/3c7276fd4f657a6e1c4e4096eb042d9548721605,http://data.europa.eu/949/functionalInfrastructure/operationalPoints/DK00814,DK00814,Høje Taastrup,55.649,12.2697,http://data.europa.eu/949/concepts/op-types/rinf/10,10,http://publications.europa.eu/resource/authority/country/DNK,10,station
http://data.europa.eu/949/functionalInfrastructure/operationalPoints/3de7f6b75a3baea672fc57b61dfd9cc87b9a45ed,http://data.europa.eu/949/functionalInfrastructure/operationalPoints/DK00513,DK00513,Ryomgård,56.3801,10.5006,http://data.europa.eu/949/concepts/op-types/rinf/10,10,http://publications.europa.eu/resource/authority/country/DNK,10,station
http://data.europa.eu/949/functionalInfrastructure/operationalPoints/4235dda55fcd29bfad2f0ac2d97d82127012675a,http://data.europa.eu/949/functionalInfrastructure/operationalPoints/DK00303,DK00303,Taulov kombiterminal,55.5475,9.6403,http://data.europa.eu/949/concepts/op-types/rinf/40,40,http://publications.europa.eu/resource/authority/country/DNK,40,freight terminal
http://data.europa.eu/949/functionalInfrastructure/operationalPoints/480386272ffa5b41094876659f3bba860c6bfada,http://data.europa.eu/949/functionalInfrastructure/operationalPoints/DK00409,DK00409,Viborg,56.4474,9.3984,http://data.europa.eu/949/concepts/op-types/rinf/10,10,http://publications.europa.eu/resource/authority/country/DNK,10,station
http://data.europa.eu/949/functionalInfrastructure/operationalPoints/4a98f906c316da2b089ab048174a33ee507aa075,http://data.europa.eu/949/functionalInfrastructure/operationalPoints/DK00519,DK00519,Grenaa,56.4126,10.8795,http://data.europa.eu/949/concepts/op-types/rinf/10,10,http://publications.europa.eu/resource/authority/country/DNK,10,station
http://data.europa.eu/949/functionalInfrastructure/operationalPoints/4d2f7a839c6bb32a4b9f4abc3609bb3f72fe2f75,http://data.europa.eu/949/functionalInfrastructure/operationalPoints/DK00332,DK00332,Vejen,55.4758,9.1361,http://data.europa.eu/949/concepts/op-types/rinf/10,10,http://publications.europa.eu/resource/authority/country/DNK,10,station
http://data.europa.eu/949/functionalInfrastructure/operationalPoints/50e02b4913ccfbd1fc61dc47689d783f1c056b0b,http://data.europa.eu/949/functionalInfrastructure/operationalPoints/DK00806,DK00806,Glostrup,55.6631,12.3989,http://data.europa.eu/949/concepts/op-types/rinf/10,10,http://publications.europa.eu/resource/authority/country/DNK,10,station
http://data.europa.eu/949/functionalInfrastructure/operationalPoints/54240916a8f000d297f5fdb58b8468ddfb6b3a45,http://data.europa.eu/949/functionalInfrastructure/operationalPoints/DK00800,DK00800,Skelbæk,55.6644,12.554,http://data.europa.eu/949/concepts/op-types/rinf/80,80,http://publications.europa.eu/resource/authority/country/DNK,80,junction
http://data.europa.eu/949/functionalInfrastructure/operationalPoints/59a53e956404ef6803bdd385066f51c1fdd246ea,http://data.europa.eu/949/functionalInfrastructure/operationalPoints/DK00326,DK00326,Sønderborg,54.9145,9.7722,http://data.europa.eu/949/concepts/op-types/rinf/10,10,http://publications.europa.eu/resource/authority/country/DNK,10,station
http://data.europa.eu/949/functionalInfrastructure/operationalPoints/5c9cc2c2df10fc50e71dbe6736938352da7b9704,http://data.europa.eu/949/functionalInfrastructure/operationalPoints/DK00371,DK00371,Varde,55.616,8.4844,http://data.europa.eu/949/concepts/op-types/rinf/10,10,http://publications.europa.eu/resource/authority/country/DNK,10,station
http://data.europa.eu/949/functionalInfrastructure/operationalPoints/63d46ca223085c995b9a798f2968a7d4a221ce5a,http://data.europa.eu/949/functionalInfrastructure/operationalPoints/DK00350,DK00350,Ribe,55.3276,8.7702,http://data.europa.eu/949/concepts/op-types/rinf/10,10,http://publications.europa.eu/resource/authority/country/DNK,10,station
http://data.europa.eu/949/functionalInfrastructure/operationalPoints/6434315799fe07afbb117f008e895b64a5fed984,http://data.europa.eu/949/functionalInfrastructure/operationalPoints/DK00459,DK00459,Hurup Thy,56.7512,8.418,http://data.europa.eu/949/concepts/op-types/rinf/10,10,http://publications.europa.eu/resource/authority/country/DNK,10,station
http://data.europa.eu/949/functionalInfrastructure/operationalPoints/676cbeb1156ac34de0e23c34ed082ca497fa742a,http://data.europa.eu/949/functionalInfrastructure/operationalPoints/DK00227,DK00227,Fredericia,55.5683,9.7402,http://data.europa.eu/949/concepts/op-types/rinf/10,10,http://publications.europa.eu/resource/authority/country/DNK,10,station
http://data.europa.eu/949/functionalInfrastructure/operationalPoints/6f3f63aba945326c112995089285842af9dbc651,http://data.europa.eu/949/functionalInfrastructure/operationalPoints/DK00316,DK00316,Tinglev,54.9363,9.2582,http://data.europa.eu/949/concepts/op-types/rinf/10,10,http://publications.europa.eu/resource/authority/country/DNK,10,station
http://data.europa.eu/949/functionalInfrastructure/operationalPoints/714882836249c416488e84d4246f82ca1a13839c,http://data.europa.eu/949/functionalInfrastructure/operationalPoints/DK00306,DK00306,Vamdrup,55.4281,9.2866,http://data.europa.eu/949/concepts/op-types/rinf/10,10,http://publications.europa.eu/resource/authority/country/DNK,10,station
http://data.europa.eu/949/functionalInfrastructure/operationalPoints/72ecc91e3ad1321b157926a9dbe697657555cafe,http://data.europa.eu/949/functionalInfrastructure/operationalPoints/DK00442,DK00442,Give,55.8431,9.2357,http://data.europa.eu/949/concepts/op-types/rinf/10,10,http://publications.europa.eu/resource/authority/country/DNK,10,station
http://data.europa.eu/949/functionalInfrastructure/operationalPoints/73627c8504d5807d016c35608a7c0dfd90d762a7,http://data.europa.eu/949/functionalInfrastructure/operationalPoints/DK00288,DK00288,Hjørring,57.4564,9.986,http://data.europa.eu/949/concepts/op-types/rinf/10,10,http://publications.europa.eu/resource/authority/country/DNK,10,station
http://data.europa.eu/949/functionalInfrastructure/operationalPoints/74fab4aaca92ef7bb291f891040de4c8c28cfba2,http://data.europa.eu/949/functionalInfrastructure/operationalPoints/DK00455,DK00455,Hvidbjerg,56.65,8.5262,http://data.europa.eu/949/concepts/op-types/rinf/10,10,http://publications.europa.eu/resource/authority/country/DNK,10,station
http://data.europa.eu/949/functionalInfrastructure/operationalPoints/774c51cd52eb8c7615f7fe0cfe4e30c4486c0b76,http://data.europa.eu/949/functionalInfrastructure/operationalPoints/DK00296,DK00296,Frederikshavn,57.4411,10.5404,http://data.europa.eu/949/concepts/op-types/rinf/10,10,http://publications.europa.eu/resource/authority/country/DNK,10,station
http://data.europa.eu/949/functionalInfrastructure/operationalPoints/79b0e050c2801872a687067acc91f96b29225a8a,http://data.europa.eu/949/functionalInfrastructure/operationalPoints/DK00255,DK00255,Hadsten,56.3268,10.0485,http://data.europa.eu/949/concepts/op-types/rinf/10,10,http://publications.europa.eu/resource/authority/country/DNK,10,station
http://data.europa.eu/949/functionalInfrastructure/operationalPoints/7bf190c11b46d2e66bc08334b31635596eb5821e,http://data.europa.eu/949/functionalInfrastructure/operationalPoints/DK00362,DK00362,Tønder,54.9334,8.8606,http://data.europa.eu/949/concepts/op-types/rinf/10,10,http://publications.europa.eu/resource/authority/country/DNK,10,station
http://data.europa.eu/949/functionalInfrastructure/operationalPoints/7cbd31cc31d9cc4dd51f893b9c4423f81581048e,http://data.europa.eu/949/functionalInfrastructure/operationalPoints/DK00954,DK00954,Aalborg Lufthavn,57.0842,9.8758,http://data.europa.eu/949/concepts/op-types/rinf/10,10,http://publications.europa.eu/resource/authority/country/DNK,10,station
http://data.europa.eu/949/functionalInfrastructure/operationalPoints/7f4c507e0795b49b32de23139a5cf61c9aabbff9,http://data.europa.eu/949/functionalInfrastructure/operationalPoints/DK00247,DK00247,Aarhus H,56.1501,10.2048,http://data.europa.eu/949/concepts/op-types/rinf/10,10,http://publications.europa.eu/resource/authority/country/DNK,10,station
http://data.europa.eu/949/functionalInfrastructure/operationalPoints/8194a45acb2950e988100b496a71e4daa4ac648f,http://data.europa.eu/949/functionalInfrastructure/operationalPoints/DK00344,DK00344,Esbjerg Havn,55.4637,8.4464,http://data.europa.eu/949/concepts/op-types/rinf/80,80,http://publications.europa.eu/resource/authority/country/DNK,80,junction
http://data.europa.eu/949/functionalInfrastructure/operationalPoints/83c4ac0d636e941e8a745e7679d25b237dd0e4dc,http://data.europa.eu/949/functionalInfrastructure/operationalPoints/DK00521,DK00521,Grenaa Havn,56.4128,10.906,http://data.europa.eu/949/concepts/op-types/rinf/80,80,http://publications.europa.eu/resource/authority/country/DNK,80,junction
http://data.europa.eu/949/functionalInfrastructure/operationalPoints/84ede676bcfc17daf88ada7e739be176c34b48af,http://data.europa.eu/949/functionalInfrastructure/operationalPoints/DK00803,DK00803,Valby,55.6637,12.5144,http://data.europa.eu/949/concepts/op-types/rinf/10,10,http://publications.europa.eu/resource/authority/country/DNK,10,station
http://data.europa.eu/949/functionalInfrastructure/operationalPoints/8c8a0f219163d0ac713ccb1e93b8ee65c7234477,http://data.europa.eu/949/functionalInfrastructure/operationalPoints/DK00390,DK00390,Ulfborg,56.2717,8.3251,http://data.europa.eu/949/concepts/op-types/rinf/10,10,http://publications.europa.eu/resource/authority/country/DNK,10,station
http://data.europa.eu/949/functionalInfrastructure/operationalPoints/8ce5f33e6ec1d8f0b61b93beb4a8b20aa1758691,http://data.europa.eu/949/functionalInfrastructure/operationalPoints/DK00355,DK00355,Skærbæk,55.1588,8.7714,http://data.europa.eu/949/concepts/op-types/rinf/10,10,http://publications.europa.eu/resource/authority/country/DNK,10,station
http://data.europa.eu/949/functionalInfrastructure/operationalPoints/95ffa5eb2996a747234e8facaff5cc0524aff8a9,http://data.europa.eu/949/functionalInfrastructure/operationalPoints/DK00265,DK00265,Hobro,56.6433,9.7826,http://data.europa.eu/949/concepts/op-types/rinf/10,10,http://publications.europa.eu/resource/authority/country/DNK,10,station
http://data.europa.eu/949/functionalInfrastructure/operationalPoints/98d71c7f8ee701bebf631e6b711e669aa815259f,http://data.europa.eu/949/functionalInfrastructure/operationalPoints/DK00342,DK00342,Esbjerg,55.4672,8.4585,http://data.europa.eu/949/concepts/op-types/rinf/10,10,http://publications.europa.eu/resource/authority/country/DNK,10,station
http://data.europa.eu/949/functionalInfrastructure/operationalPoints/9b827f10a5e5b7a42f53edaf32c68d258cef0654,http://data.europa.eu/949/functionalInfrastructure/operationalPoints/DK00298,DK00298,Taulov,55.545,9.6158,http://data.europa.eu/949/concepts/op-types/rinf/10,10,http://publications.europa.eu/resource/authority/country/DNK,10,station
http://data.europa.eu/949/functionalInfrastructure/operationalPoints/a0f250242fbda7317653d865f60e74778824cb87,http://data.europa.eu/949/functionalInfrastructure/operationalPoints/DK00301,DK00301,Kolding,55.4906,9.4814,http://data.europa.eu/949/concepts/op-types/rinf/10,10,http://publications.europa.eu/resource/authority/country/DNK,10,station
http://data.europa.eu/949/functionalInfrastructure/operationalPoints/ab0acb6715fcbe5bc196755823c8d447a43e61ba,http://data.europa.eu/949/functionalInfrastructure/operationalPoints/DK00234,DK00234,Vejle,55.7067,9.5368,http://data.europa.eu/949/concepts/op-types/rinf/10,10,http://publications.europa.eu/resource/authority/country/DNK,10,station
http://data.europa.eu/949/functionalInfrastructure/operationalPoints/ab137a6b52de4cda44dd1465cee7c3beca559fa8,http://data.europa.eu/949/functionalInfrastructure/operationalPoints/DK00795,DK00795,København H,55.6723,12.5645,http://data.europa.eu/949/concepts/op-types/rinf/10,10,http://publications.europa.eu/resource/authority/country/DNK,10,station
http://data.europa.eu/949/functionalInfrastructure/operationalPoints/af7a1d216ae8d8e2c3a3bc38380d3b307c14e69c,http://data.europa.eu/949/functionalInfrastructure/operationalPoints/DK00392,DK00392,Vemb,56.3436,8.3452,http://data.europa.eu/949/concepts/op-types/rinf/10,10,http://publications.europa.eu/resource/authority/country/DNK,10,station
http://data.europa.eu/949/functionalInfrastructure/operationalPoints/b9315ead95fb0263718627ca009550aa2129e6d2,http://data.europa.eu/949/functionalInfrastructure/operationalPoints/DK00386,DK00386,Ringkøbing,56.093,8.2501,http://data.europa.eu/949/concepts/op-types/rinf/10,10,http://publications.europa.eu/resource/authority/country/DNK,10,station
http://data.europa.eu/949/functionalInfrastructure/operationalPoints/bc23151b8aaa8bbf744613f3ed70b6636446e2cb,http://data.europa.eu/949/functionalInfrastructure/operationalPoints/DK00323,DK00323,Padborg kombiterminal,54.8353,9.3525,http://data.europa.eu/949/concepts/op-types/rinf/40,40,http://publications.europa.eu/resource/authority/country/DNK,40,freight terminal
http://data.europa.eu/949/functionalInfrastructure/operationalPoints/c8f4e5c57904f478df77de215196ebb913d2466b,http://data.europa.eu/949/functionalInfrastructure/operationalPoints/DK00257,DK00257,Langå,56.3869,9.8966,http://data.europa.eu/949/concepts/op-types/rinf/10,10,http://publications.europa.eu/resource/authority/country/DNK,10,station
http://data.europa.eu/949/functionalInfrastructure/operationalPoints/ca378029352b565fc8c6e338c57234c1fff7afc4,http://data.europa.eu/949/functionalInfrastructure/operationalPoints/DK00467,DK00467,Thisted,56.9527,8.6882,http://data.europa.eu/949/concepts/op-types/rinf/10,10,http://publications.europa.eu/resource/authority/country/DNK,10,station
http://data.europa.eu/949/functionalInfrastructure/operationalPoints/caf4c6336d3e604c919c0f63a1af403c808d7052,http://data.europa.eu/949/functionalInfrastructure/operationalPoints/DK00508,DK00508,Hornslet,56.3208,10.3137,http://data.europa.eu/949/concepts/op-types/rinf/10,10,http://publications.europa.eu/resource/authority/country/DNK,10,station
http://data.europa.eu/949/functionalInfrastructure/operationalPoints/cb689be18f8366b92f837c9764dfab1d9d65ada8,http://data.europa.eu/949/functionalInfrastructure/operationalPoints/DK00275,DK00275,Aalborg,57.0429,9.9169,http://data.europa.eu/949/concepts/op-types/rinf/10,10,http://publications.europa.eu/resource/authority/country/DNK,10,station
http://data.europa.eu/949/functionalInfrastructure/operationalPoints/ce12ff027cbfa7a78d22108224fb3d8f06a91e2d,http://data.europa.eu/949/functionalInfrastructure/operationalPoints/DK00320,DK00320,Padborg,54.8235,9.3592,http://data.europa.eu/949/concepts/op-types/rinf/10,10,http://publications.europa.eu/resource/authority/country/DNK,10,station
http://data.europa.eu/949/functionalInfrastructure/operationalPoints/d18aa72d07fa5229b82d41eb617aa454e524cea3,http://data.europa.eu/949/functionalInfrastructure/operationalPoints/DK00417,DK00417,Skive,56.5615,9.0254,http://data.europa.eu/949/concepts/op-types/rinf/10,10,http://publications.europa.eu/resource/authority/country/DNK,10,station
http://data.europa.eu/949/functionalInfrastructure/operationalPoints/d56585233f31c295250ad490e6d928e5534adf6e,http://data.europa.eu/949/functionalInfrastructure/operationalPoints/DK00830,DK00830,Holte,55.8077,12.4686,http://data.europa.eu/949/concepts/op-types/rinf/10,10,http://publications.europa.eu/resource/authority/country/DNK,10,station
http://data.europa.eu/949/functionalInfrastructure/operationalPoints/d79863eba16d43ab69c623b7c76a02abd884e3cc,http://data.europa.eu/949/functionalInfrastructure/operationalPoints/DK00338,DK00338,Bramming,55.4645,8.7067,http://data.europa.eu/949/concepts/op-types/rinf/10,10,http://publications.europa.eu/resource/authority/country/DNK,10,station
http://data.europa.eu/949/functionalInfrastructure/operationalPoints/dc52055ce28b0b4de9283624bb72c83f3542f66e,http://data.europa.eu/949/functionalInfrastructure/operationalPoints/DK00242,DK00242,Skanderborg,56.0435,9.9249,http://data.europa.eu/949/concepts/op-types/rinf/10,10,http://publications.europa.eu/resource/authority/country/DNK,10,station
http://data.europa.eu/949/functionalInfrastructure/operationalPoints/dd0df6365600bbb69527e2cf16913342cf6838c5,http://data.europa.eu/949/functionalInfrastructure/operationalPoints/DK00432,DK00432,Herning,56.1327,8.9789,http://data.europa.eu/949/concepts/op-types/rinf/10,10,http://publications.europa.eu/resource/authority/country/DNK,10,station
http://data.europa.eu/949/functionalInfrastructure/operationalPoints/dd87cc03b7d7d7ef1800453846b83a4fca008a2e,http://data.europa.eu/949/functionalInfrastructure/operationalPoints/DK00440,DK00440,Thyregod,55.9087,9.2523,http://data.europa.eu/949/concepts/op-types/rinf/10,10,http://publications.europa.eu/resource/authority/country/DNK,10,station
http://data.europa.eu/949/functionalInfrastructure/operationalPoints/df4bba7c346cb9de39570eb669b33e10f52b1eb9,http://data.europa.eu/949/functionalInfrastructure/operationalPoints/DK00229,DK00229,Fredericia godsstation,55.5625,9.7427,http://data.europa.eu/949/concepts/op-types/rinf/80,80,http://publications.europa.eu/resource/authority/country/DNK,80,junction
http://data.europa.eu/949/functionalInfrastructure/operationalPoints/e1caa1f9771fbba5d8332b4841ccc13ed7d5bfcc,http://data.europa.eu/949/functionalInfrastructure/operationalPoints/DK00824,DK00824,Hellerup,55.7311,12.5667,http://data.europa.eu/949/concepts/op-types/rinf/10,10,http://publications.europa.eu/resource/authority/country/DNK,10,station
http://data.europa.eu/949/functionalInfrastructure/operationalPoints/e6bb3a2db4d9395f289365df0ceba4720c93fcb7,http://data.europa.eu/949/functionalInfrastructure/operationalPoints/DK00328,DK00328,Gråsten,54.9189,9.5941,http://data.europa.eu/949/concepts/op-types/rinf/10,10,http://publications.europa.eu/resource/authority/country/DNK,10,station
http://data.europa.eu/949/functionalInfrastructure/operationalPoints/e776c3f368905dbc5ad9cb3e23aad78f0810f2a4,http://data.europa.eu/949/functionalInfrastructure/operationalPoints/DK00446,DK00446,Jelling,55.754,9.4201,http://data.europa.eu/949/concepts/op-types/rinf/10,10,http://publications.europa.eu/resource/authority/country/DNK,10,station
http://data.europa.eu/949/functionalInfrastructure/operationalPoints/e820441ec330e3b55004e510634e086753fee514,http://data.europa.eu/949/functionalInfrastructure/operationalPoints/DK00438,DK00438,Brande,55.9447,9.1299,http://data.europa.eu/949/concepts/op-types/rinf/10,10,http://publications.europa.eu/resource/authority/country/DNK,10,station
http://data.europa.eu/949/functionalInfrastructure/operationalPoints/e8d7aed1ddd693dbffb79e59ef9453903f4815cf,http://data.europa.eu/949/functionalInfrastructure/operationalPoints/DK00238,DK00238,Horsens,55.8623,9.8358,http://data.europa.eu/949/concepts/op-types/rinf/10,10,http://publications.europa.eu/resource/authority/country/DNK,10,station
http://data.europa.eu/949/functionalInfrastructure/operationalPoints/ea3ebe33e2caf8d25f336a4e1ee92d1d0d4004b9,http://data.europa.eu/949/functionalInfrastructure/operationalPoints/DK00304,DK00304,Lunderskov,55.48,9.3037,http://data.europa.eu/949/concepts/op-types/rinf/10,10,http://publications.europa.eu/resource/authority/country/DNK,10,station
http://data.europa.eu/949/functionalInfrastructure/operationalPoints/f2bd58663dd5e847cfcbda65431afa5f04d00bb9,http://data.europa.eu/949/functionalInfrastructure/operationalPoints/DK00382,DK00382,Skjern,55.9449,8.4947,http://data.europa.eu/949/concepts/op-types/rinf/10,10,http://publications.europa.eu/resource/authority/country/DNK,10,station
http://data.europa.eu/949/functionalInfrastructure/operationalPoints/f34f74f76ce9fcce73ade63bc0f3cdf69f722a18,http://data.europa.eu/949/functionalInfrastructure/operationalPoints/DK00812,DK00812,Taastrup,55.6525,12.3025,http://data.europa.eu/949/concepts/op-types/rinf/10,10,http://publications.europa.eu/resource/authority/country/DNK,10,station
http://data.europa.eu/949/functionalInfrastructure/operationalPoints/fd3230c172588d03624ba11e271754514e6e61b0,http://data.europa.eu/949/functionalInfrastructure/operationalPoints/DK00448,DK00448,Grejsdal,55.746,9.5373,http://data.europa.eu/949/concepts/op-types/rinf/80,80,http://publications.europa.eu/resource/authority/country/DNK,80,junction
http://data.europa.eu/949/functionalInfrastructure/operationalPoints/09f40ea89ae317e20586768532afb42919f56efa,http://data.europa.eu/949/functionalInfrastructure/operationalPoints/DK00194,DK00194,Stenstrup,55.1322,10.509,http://data.europa.eu/949/concepts/op-types/rinf/10,10,http://publications.europa.eu/resource/authority/country/DNK,10,station
http://data.europa.eu/949/functionalInfrastructure/operationalPoints/15faf7efa884bdecaa73e1004652b1ca30c2791d,http://data.europa.eu/949/functionalInfrastructure/operationalPoints/DK00205,DK00205,Marslev,55.3785,10.5238,http://data.europa.eu/949/concepts/op-types/rinf/80,80,http://publications.europa.eu/resource/authority/country/DNK,80,junction
http://data.europa.eu/949/functionalInfrastructure/operationalPoints/19a46376bf2937ebaf22ea1ff3f5b02554a209ee,http://data.europa.eu/949/functionalInfrastructure/operationalPoints/DK00021,DK00021,Borup,55.4947,11.9723,http://data.europa.eu/949/concepts/op-types/rinf/10,10,http://publications.europa.eu/resource/authority/country/DNK,10,station
http://data.europa.eu/949/functionalInfrastructure/operationalPoints/43408da7454fac143b05dc4ea8e696bc37a9be42,http://data.europa.eu/949/functionalInfrastructure/operationalPoints/DK00039,DK00039,Nyborg,55.3138,10.8031,http://data.europa.eu/949/concepts/op-types/rinf/10,10,http://publications.europa.eu/resource/authority/country/DNK,10,station
http://data.europa.eu/949/functionalInfrastructure/operationalPoints/48306af42c65939776abf01e06db85dd7621b162,http://data.europa.eu/949/functionalInfrastructure/operationalPoints/DK00051,DK00051,Orehoved,54.939,11.8681,http://data.europa.eu/949/concepts/op-types/rinf/80,80,http://publications.europa.eu/resource/authority/country/DNK,80,junction
http://data.europa.eu/949/functionalInfrastructure/operationalPoints/4bcf296805b69d31317529f29ad5520db36fc29d,http://data.europa.eu/949/functionalInfrastructure/operationalPoints/DK00202,DK00202,Ullerslev,55.3544,10.6655,http://data.europa.eu/949/concepts/op-types/rinf/80,80,http://publications.europa.eu/resource/authority/country/DNK,80,junction
http://data.europa.eu/949/functionalInfrastructure/operationalPoints/4ddfcb04c20cc6a37379962aa3d7ed4fb900cda9,http://data.europa.eu/949/functionalInfrastructure/operationalPoints/DK00047,DK00047,Vordingborg,55.0127,11.9,http://data.europa.eu/949/concepts/op-types/rinf/10,10,http://publications.europa.eu/resource/authority/country/DNK,10,station
http://data.europa.eu/949/functionalInfrastructure/operationalPoints/525daa694e77fc1bea0c55c2163a5a7e3efaaa3f,http://data.europa.eu/949/functionalInfrastructure/operationalPoints/DK00035,DK00035,Korsør,55.3571,11.1352,http://data.europa.eu/949/concepts/op-types/rinf/10,10,http://publications.europa.eu/resource/authority/country/DNK,10,station
http://data.europa.eu/949/functionalInfrastructure/operationalPoints/52eb556545c7d1262cb8c235960e24185e088e79,http://data.europa.eu/949/functionalInfrastructure/operationalPoints/DK00001,DK00001,København H,55.6727,12.5657,http://data.europa.eu/949/concepts/op-types/rinf/10,10,http://publications.europa.eu/resource/authority/country/DNK,10,station
http://data.europa.eu/949/functionalInfrastructure/operationalPoints/53d2e8546c8b0232b5a354ea65085c313107bc83,http://data.europa.eu/949/functionalInfrastructure/operationalPoints/DK00122,DK00122,København G,55.6533,12.535,http://data.europa.eu/949/concepts/op-types/rinf/80,80,http://publications.europa.eu/resource/authority/country/DNK,80,junction
http://data.europa.eu/949/functionalInfrastructure/operationalPoints/58e092a882b601b1b21e8b8ae0da936eefb3c6f2,http://data.europa.eu/949/functionalInfrastructure/operationalPoints/DK00189,DK00189,Ringe,55.2395,10.4818,http://data.europa.eu/949/concepts/op-types/rinf/10,10,http://publications.europa.eu/resource/authority/country/DNK,10,station
http://data.europa.eu/949/functionalInfrastructure/operationalPoints/590f13d1ebc9b4250e6e29900329eb731b45225a,http://data.europa.eu/949/functionalInfrastructure/operationalPoints/DK00211,DK00211,Tommerup,55.3496,10.1825,http://data.europa.eu/949/concepts/op-types/rinf/10,10,http://publications.europa.eu/resource/authority/country/DNK,10,station
http://data.europa.eu/949/functionalInfrastructure/operationalPoints/5c7be57ca31da5d287ba41f8ca577805c2413863,http://data.europa.eu/949/functionalInfrastructure/operationalPoints/DK00120,DK00120,Kalundborg,55.6777,11.0893,http://data.europa.eu/949/concepts/op-types/rinf/10,10,http://publications.europa.eu/resource/authority/country/DNK,10,station
http://data.europa.eu/949/functionalInfrastructure/operationalPoints/5f2a1bd1070312b509a7bd8e1e68d1a1aec87d61,http://data.europa.eu/949/functionalInfrastructure/operationalPoints/DK00175,DK00175,Københavns Lufthavn Kastrup,55.6296,12.6522,http://data.europa.eu/949/concepts/op-types/rinf/10,10,http://publications.europa.eu/resource/authority/country/DNK,10,station
http://data.europa.eu/949/functionalInfrastructure/operationalPoints/5fa72010bad3ee029b81d4b7589e730e8e77fa93,http://data.europa.eu/949/functionalInfrastructure/operationalPoints/DK00008,DK00008,Glostrup,55.6629,12.399,http://data.europa.eu/949/concepts/op-types/rinf/10,10,http://publications.europa.eu/resource/authority/country/DNK,10,station
http://data.europa.eu/949/functionalInfrastructure/operationalPoints/608749368902a105d08883e247c87c969cdb199d,http://data.europa.eu/949/functionalInfrastructure/operationalPoints/DK00017,DK00017,Roskilde,55.6391,12.089,http://data.europa.eu/949/concepts/op-types/rinf/10,10,http://publications.europa.eu/resource/authority/country/DNK,10,station
http://data.europa.eu/949/functionalInfrastructure/operationalPoints/626d45fade0c1bc0c532efedfa63d6a03c6011ab,http://data.europa.eu/949/functionalInfrastructure/operationalPoints/DK00031,DK00031,Slagelse,55.4074,11.3489,http://data.europa.eu/949/concepts/op-types/rinf/10,10,http://publications.europa.eu/resource/authority/country/DNK,10,station
http://data.europa.eu/949/functionalInfrastructure/operationalPoints/6c13c06d85a744a00e92bfb59deff77def9f98f2,http://data.europa.eu/949/functionalInfrastructure/operationalPoints/DK00037,DK00037,Sprogø,55.3311,10.9601,http://data.europa.eu/949/concepts/op-types/rinf/80,80,http://publications.europa.eu/resource/authority/country/DNK,80,junction
http://data.europa.eu/949/functionalInfrastructure/operationalPoints/6cd652c91ef2e1189159905f0eba87a8bb1e58f3,http://data.europa.eu/949/functionalInfrastructure/operationalPoints/DK00029,DK00029,Sorø,55.4191,11.5693,http://data.europa.eu/949/concepts/op-types/rinf/10,10,http://publications.europa.eu/resource/authority/country/DNK,10,station
http://data.europa.eu/949/functionalInfrastructure/operationalPoints/71cbe4c347c918d8745df4b285fbb4821479526d,http://data.europa.eu/949/functionalInfrastructure/operationalPoints/DK00025,DK00025,Ringsted,55.4382,11.7866,http://data.europa.eu/949/concepts/op-types/rinf/10,10,http://publications.europa.eu/resource/authority/country/DNK,10,station
http://data.europa.eu/949/functionalInfrastructure/operationalPoints/734ac7e136f1dd0a3ca72aaae82bb6a905374dd5,http://data.europa.eu/949/functionalInfrastructure/operationalPoints/DK00059,DK00059,Nykøbing Falster,54.767,11.8777,http://data.europa.eu/949/concepts/op-types/rinf/10,10,http://publications.europa.eu/resource/authority/country/DNK,10,station
http://data.europa.eu/949/functionalInfrastructure/operationalPoints/7b6572c9f2476f9931d6b14d1c8a425d830543f8,http://data.europa.eu/949/functionalInfrastructure/operationalPoints/DK00010,DK00010,Høje Taastrup,55.6485,12.2698,http://data.europa.eu/949/concepts/op-types/rinf/10,10,http://publications.europa.eu/resource/authority/country/DNK,10,station
http://data.europa.eu/949/functionalInfrastructure/operationalPoints/7cd7d17b04e139affca98adc99ffe0bfe3f6cede,http://data.europa.eu/949/functionalInfrastructure/operationalPoints/DK00223,DK00223,Middelfart,55.5017,9.7344,http://data.europa.eu/949/concepts/op-types/rinf/10,10,http://publications.europa.eu/resource/authority/country/DNK,10,station
http://data.europa.eu/949/functionalInfrastructure/operationalPoints/7e32b27e8f7785cf1ae3ef6b589cfc3bcd0bfcce,http://data.europa.eu/949/functionalInfrastructure/operationalPoints/DK00103,DK00103,Tølløse,55.612,11.7731,http://data.europa.eu/949/concepts/op-types/rinf/10,10,http://publications.europa.eu/resource/authority/country/DNK,10,station
http://data.europa.eu/949/functionalInfrastructure/operationalPoints/7ecc5428e5fe326db0cc6170c1e17b92b79b779d,http://data.europa.eu/949/functionalInfrastructure/operationalPoints/DK00107,DK00107,Holbæk,55.7156,11.7082,http://data.europa.eu/949/concepts/op-types/rinf/10,10,http://publications.europa.eu/resource/authority/country/DNK,10,station
http://data.europa.eu/949/functionalInfrastructure/operationalPoints/8282c3084e1c1624f9d10822431c6e601c0b2d1e,http://data.europa.eu/949/functionalInfrastructure/operationalPoints/DK00153,DK00153,Klampenborg,55.7767,12.5888,http://data.europa.eu/949/concepts/op-types/rinf/10,10,http://publications.europa.eu/resource/authority/country/DNK,10,station
http://data.europa.eu/949/functionalInfrastructure/operationalPoints/84b231b5bb5e8a4a4904a891c7e151372eca4539,http://data.europa.eu/949/functionalInfrastructure/operationalPoints/DK00147,DK00147,Helgoland,55.7121,12.587,http://data.europa.eu/949/concepts/op-types/rinf/80,80,http://publications.europa.eu/resource/authority/country/DNK,80,junction
http://data.europa.eu/949/functionalInfrastructure/operationalPoints/898efdc9842d45cfd56fc67750d85c0021b49655,http://data.europa.eu/949/functionalInfrastructure/operationalPoints/DK00137,DK00137,Fredensborg,55.9771,12.4069,http://data.europa.eu/949/concepts/op-types/rinf/10,10,http://publications.europa.eu/resource/authority/country/DNK,10,station
http://data.europa.eu/949/functionalInfrastructure/operationalPoints/8e6cc23581a3f44c5e1d85d9c99f38be824a7cea,http://data.europa.eu/949/functionalInfrastructure/operationalPoints/DK00083,DK00083,Lille Skensved,55.5115,12.1405,http://data.europa.eu/949/concepts/op-types/rinf/10,10,http://publications.europa.eu/resource/authority/country/DNK,10,station
http://data.europa.eu/949/functionalInfrastructure/operationalPoints/94d404ae60be3a07f7f52adc4b672694b205c462,http://data.europa.eu/949/functionalInfrastructure/operationalPoints/DK00071,DK00071,Rødby Færge,54.6551,11.3556,http://data.europa.eu/949/concepts/op-types/rinf/10,10,http://publications.europa.eu/resource/authority/country/DNK,10,station
http://data.europa.eu/949/functionalInfrastructure/operationalPoints/a0dfff1368e0b15424a72c204d17b8b5a4e625a3,http://data.europa.eu/949/functionalInfrastructure/operationalPoints/DK00043,DK00043,Næstved,55.2313,11.7673,http://data.europa.eu/949/concepts/op-types/rinf/10,10,http://publications.europa.eu/resource/authority/country/DNK,10,station
http://data.europa.eu/949/functionalInfrastructure/operationalPoints/afbd36e040f83b631756ffe080ec6e95f78060c1,http://data.europa.eu/949/functionalInfrastructure/operationalPoints/DK00086,DK00086,Køge,55.4573,12.1869,http://data.europa.eu/949/concepts/op-types/rinf/10,10,http://publications.europa.eu/resource/authority/country/DNK,10,station
http://data.europa.eu/949/functionalInfrastructure/operationalPoints/afc4f3b1f0c9a7a83c6de170636bdcd54b488cd5,http://data.europa.eu/949/functionalInfrastructure/operationalPoints/DK00181,DK00181,Fruens Bøge,55.3697,10.3775,http://data.europa.eu/949/concepts/op-types/rinf/10,10,http://publications.europa.eu/resource/authority/country/DNK,10,station
http://data.europa.eu/949/functionalInfrastructure/operationalPoints/b28a6bafc31a185aa2ea753aec47c657fc98293a,http://data.europa.eu/949/functionalInfrastructure/operationalPoints/DK00077,DK00077,Gedser,54.5791,11.9253,http://data.europa.eu/949/concepts/op-types/rinf/10,10,http://publications.europa.eu/resource/authority/country/DNK,10,station
http://data.europa.eu/949/functionalInfrastructure/operationalPoints/b359ec4334897888819a65339e0c2885ab7e272d,http://data.europa.eu/949/functionalInfrastructure/operationalPoints/DK00167,DK00167,Helsingør,56.0333,12.6141,http://data.europa.eu/949/concepts/op-types/rinf/10,10,http://publications.europa.eu/resource/authority/country/DNK,10,station
http://data.europa.eu/949/functionalInfrastructure/operationalPoints/c72fa805d59ef82a8f23b19e6e128105df5898bc,http://data.europa.eu/949/functionalInfrastructure/operationalPoints/DK00061,DK00061,Nykøbing Falster Vest,54.7565,11.8571,http://data.europa.eu/949/concepts/op-types/rinf/80,80,http://publications.europa.eu/resource/authority/country/DNK,80,junction
http://data.europa.eu/949/functionalInfrastructure/operationalPoints/ccc73b9224f44f5eaccb761c419d514c383e047c,http://data.europa.eu/949/functionalInfrastructure/operationalPoints/DK00207,DK00207,Odense,55.4025,10.3853,http://data.europa.eu/949/concepts/op-types/rinf/10,10,http://publications.europa.eu/resource/authority/country/DNK,10,station
http://data.europa.eu/949/functionalInfrastructure/operationalPoints/d15758e3dea46375e367af056fabe2efd1c25b3f,http://data.europa.eu/949/functionalInfrastructure/operationalPoints/DK00132,DK00132,Østerport,55.6999,12.5923,http://data.europa.eu/949/concepts/op-types/rinf/80,80,http://publications.europa.eu/resource/authority/country/DNK,80,junction
http://data.europa.eu/949/functionalInfrastructure/operationalPoints/d70e429324ef1980b3425bb94b44856e7ee3c11d,http://data.europa.eu/949/functionalInfrastructure/operationalPoints/DK00144,DK00144,Østerport,55.6937,12.5899,http://data.europa.eu/949/concepts/op-types/rinf/10,10,http://publications.europa.eu/resource/authority/country/DNK,10,station
http://data.europa.eu/949/functionalInfrastructure/operationalPoints/e208065fad3f79be2d89be39c32e962bf18f848b,http://data.europa.eu/949/functionalInfrastructure/operationalPoints/DK00124,DK00124,Vigerslev,55.6616,12.494,http://data.europa.eu/949/concepts/op-types/rinf/80,80,http://publications.europa.eu/resource/authority/country/DNK,80,junction
http://data.europa.eu/949/functionalInfrastructure/operationalPoints/e39aab16b70e9150cadd9233e269947c5eede1f8,http://data.europa.eu/949/functionalInfrastructure/operationalPoints/DK00165,DK00165,Snekkersten,56.0094,12.5839,http://data.europa.eu/949/concepts/op-types/rinf/10,10,http://publications.europa.eu/resource/authority/country/DNK,10,station
http://data.europa.eu/949/functionalInfrastructure/operationalPoints/ec42bfa778864fff41d55ad5d9c364d49ea1582b,http://data.europa.eu/949/functionalInfrastructure/operationalPoints/DK00016,DK00016,Høje Taastrup kombiterminal,55.6393,12.2503,http://data.europa.eu/949/concepts/op-types/rinf/40,40,http://publications.europa.eu/resource/authority/country/DNK,40,freight terminal
http://data.europa.eu/949/functionalInfrastructure/operationalPoints/efe00690599ea3c0e0458a59f319de8c1cbfafa5,http://data.europa.eu/949/functionalInfrastructure/operationalPoints/DK00158,DK00158,Rungsted Kyst,55.8823,12.5317,http://data.europa.eu/949/concepts/op-types/rinf/10,10,http://publications.europa.eu/resource/authority/country/DNK,10,station
http://data.europa.eu/949/functionalInfrastructure/operationalPoints/000b2a12585844845d23c511b829866a734f7977,http://data.europa.eu/949/functionalInfrastructure/operationalPoints/DK00791,DK00791,Hulsig,57.6598,10.4634,http://data.europa.eu/949/concepts/op-types/rinf/10,10,http://publications.europa.eu/resource/authority/country/DNK,10,station
http://data.europa.eu/949/functionalInfrastructure/operationalPoints/022503258c91d2900de576cd51fbef06c1534ece,http://data.europa.eu/949/functionalInfrastructure/operationalPoints/DK00784,DK00784,Rimmen,57.5048,10.4453,http://data.europa.eu/949/concepts/op-types/rinf/70,70,http://publications.europa.eu/resource/authority/country/DNK,70,passenger stop
http://data.europa.eu/949/functionalInfrastructure/operationalPoints/02eebc4d0baaaff95deefa09d33e7751f2d32dc0,http://data.europa.eu/949/functionalInfrastructure/operationalPoints/DK00740,DK00740,Balleby,56.5476,8.2419,http://data.europa.eu/949/concepts/op-types/rinf/70,70,http://publications.europa.eu/resource/authority/country/DNK,70,passenger stop
http://data.europa.eu/949/functionalInfrastructure/operationalPoints/033a6e41f020ac0512e389d1e9c6c2ba35a5eb95,http://data.europa.eu/949/functionalInfrastructure/operationalPoints/DK00878,DK00878,Bagsværd,55.7616,12.455,http://data.europa.eu/949/concepts/op-types/rinf/70,70,http://publications.europa.eu/resource/authority/country/DNK,70,passenger stop
http://data.europa.eu/949/functionalInfrastructure/operationalPoints/038cb0810af8cb324f7e12d53755bf048bb31ce5,http://data.europa.eu/949/functionalInfrastructure/operationalPoints/DK00527,DK00527,Ørholm,55.7999,12.5109,http://data.europa.eu/949/concepts/op-types/rinf/10,10,http://publications.europa.eu/resource/authority/country/DNK,10,station
http://data.europa.eu/949/functionalInfrastructure/operationalPoints/07208e584e7f04c4cc9baba9afc41c770d3696c6,http://data.europa.eu/949/functionalInfrastructure/operationalPoints/DK00862,DK00862,Egedal,55.7791,12.1858,http://data.europa.eu/949/concepts/op-types/rinf/70,70,http://publications.europa.eu/resource/authority/country/DNK,70,passenger stop
http://data.europa.eu/949/functionalInfrastructure/operationalPoints/07ecf27bfcc462e6c7794e8615115f7b76ea7992,http://data.europa.eu/949/functionalInfrastructure/operationalPoints/DK00922,DK00922,Grøndal,55.6905,12.5154,http://data.europa.eu/949/concepts/op-types/rinf/70,70,http://publications.europa.eu/resource/authority/country/DNK,70,passenger stop
http://data.europa.eu/949/functionalInfrastructure/operationalPoints/08295e80ab16f38195b5e3999b9bc70a81ea54bb,http://data.europa.eu/949/functionalInfrastructure/operationalPoints/DK00782,DK00782,Strandby,57.49,10.4901,http://data.europa.eu/949/concepts/op-types/rinf/10,10,http://publications.europa.eu/resource/authority/country/DNK,10,station
http://data.europa.eu/949/functionalInfrastructure/operationalPoints/086a6541d1d7d3092b6aa7fd3c0ec9ba628c43e6,http://data.europa.eu/949/functionalInfrastructure/operationalPoints/DK00721,DK00721,Malling,56.0368,10.1921,http://data.europa.eu/949/concepts/op-types/rinf/10,10,http://publications.europa.eu/resource/authority/country/DNK,10,station
http://data.europa.eu/949/functionalInfrastructure/operationalPoints/08aba60829aa16abf6080b7080e8d2ddfa901624,http://data.europa.eu/949/functionalInfrastructure/operationalPoints/DK00918,DK00918,Ålholm,55.6718,12.4932,http://data.europa.eu/949/concepts/op-types/rinf/70,70,http://publications.europa.eu/resource/authority/country/DNK,70,passenger stop
http://data.europa.eu/949/functionalInfrastructure/operationalPoints/08e123edd832264492b8f3c84322516cd0eb1484,http://data.europa.eu/949/functionalInfrastructure/operationalPoints/DK00588,DK00588,Saltrup,56.0541,12.3229,http://data.europa.eu/949/concepts/op-types/rinf/70,70,http://publications.europa.eu/resource/authority/country/DNK,70,passenger stop
http://data.europa.eu/949/functionalInfrastructure/operationalPoints/0aa5c9a550592641796ef63aecfe215681ac9c9c,http://data.europa.eu/949/functionalInfrastructure/operationalPoints/DK00910,DK00910,Charlottenlund,55.7517,12.5723,http://data.europa.eu/949/concepts/op-types/rinf/70,70,http://publications.europa.eu/resource/authority/country/DNK,70,passenger stop
http://data.europa.eu/949/functionalInfrastructure/operationalPoints/0d76e086c1fe3bbb9a833192757758b8ac06e3d8,http://data.europa.eu/949/functionalInfrastructure/operationalPoints/DK00656,DK00656,Vallø,55.4003,12.1922,http://data.europa.eu/949/concepts/op-types/rinf/10,10,http://publications.europa.eu/resource/authority/country/DNK,10,station
http://data.europa.eu/949/functionalInfrastructure/operationalPoints/0e888df145c3375bcdec8065d50d41fe85192dfa,http://data.europa.eu/949/functionalInfrastructure/operationalPoints/DK00715,DK00715,Hyllerslev,55.6263,8.4005,http://data.europa.eu/949/concepts/op-types/rinf/70,70,http://publications.europa.eu/resource/authority/country/DNK,70,passenger stop
http://data.europa.eu/949/functionalInfrastructure/operationalPoints/0f46eaf5ff04ac7c3993dde4c0d478e99b6127cc,http://data.europa.eu/949/functionalInfrastructure/operationalPoints/DK00867,DK00867,Dyssegård,55.7332,12.5355,http://data.europa.eu/949/concepts/op-types/rinf/10,10,http://publications.europa.eu/resource/authority/country/DNK,10,station
http://data.europa.eu/949/functionalInfrastructure/operationalPoints/0fb1ae6338d0113aea4014d46342e0f38f26bb98,http://data.europa.eu/949/functionalInfrastructure/operationalPoints/DK00725,DK00725,Tranbjerg,56.0964,10.136,http://data.europa.eu/949/concepts/op-types/rinf/10,10,http://publications.europa.eu/resource/authority/country/DNK,10,station
http://data.europa.eu/949/functionalInfrastructure/operationalPoints/1253097bdf204938e7ffb1070f07dba2dbec6c43,http://data.europa.eu/949/functionalInfrastructure/operationalPoints/DK00579,DK00579,Kildekrog,56.0925,12.4239,http://data.europa.eu/949/concepts/op-types/rinf/70,70,http://publications.europa.eu/resource/authority/country/DNK,70,passenger stop
http://data.europa.eu/949/functionalInfrastructure/operationalPoints/1331f53e61607b02f549ef195491bc18397aa5b9,http://data.europa.eu/949/functionalInfrastructure/operationalPoints/DK00893,DK00893,Friheden,55.6294,12.4835,http://data.europa.eu/949/concepts/op-types/rinf/70,70,http://publications.europa.eu/resource/authority/country/DNK,70,passenger stop
http://data.europa.eu/949/functionalInfrastructure/operationalPoints/134e204e2c71c8742310fdffd7f60f60a0a70c5b,http://data.europa.eu/949/functionalInfrastructure/operationalPoints/DK00597,DK00597,Helsinge,56.0232,12.2051,http://data.europa.eu/949/concepts/op-types/rinf/10,10,http://publications.europa.eu/resource/authority/country/DNK,10,station
http://data.europa.eu/949/functionalInfrastructure/operationalPoints/1531dc429f5fb94b7932b91cb17a6bfa506de3d2,http://data.europa.eu/949/functionalInfrastructure/operationalPoints/DK00879,DK00879,Skovbrynet,55.7655,12.4352,http://data.europa.eu/949/concepts/op-types/rinf/70,70,http://publications.europa.eu/resource/authority/country/DNK,70,passenger stop
http://data.europa.eu/949/functionalInfrastructure/operationalPoints/1678cf6adf2b82833567d66869bb682145e3ab98,http://data.europa.eu/949/functionalInfrastructure/operationalPoints/DK00672,DK00672,Store Heddinge,55.3094,12.3857,http://data.europa.eu/949/concepts/op-types/rinf/10,10,http://publications.europa.eu/resource/authority/country/DNK,10,station
http://data.europa.eu/949/functionalInfrastructure/operationalPoints/16d8c515c7e8b40c23944d3c7c52c60435320728,http://data.europa.eu/949/functionalInfrastructure/operationalPoints/DK00853,DK00853,Skovlunde,55.7232,12.402,http://data.europa.eu/949/concepts/op-types/rinf/70,70,http://publications.europa.eu/resource/authority/country/DNK,70,passenger stop
http://data.europa.eu/949/functionalInfrastructure/operationalPoints/178cdea86dcbba6fd580476395d1c8ab02448505,http://data.europa.eu/949/functionalInfrastructure/operationalPoints/DK00884,DK00884,Bavnehøj,55.6593,12.5403,http://data.europa.eu/949/concepts/op-types/rinf/80,80,http://publications.europa.eu/resource/authority/country/DNK,80,junction
http://data.europa.eu/949/functionalInfrastructure/operationalPoints/17fc752cc527ce644d7930815d88114089263dd0,http://data.europa.eu/949/functionalInfrastructure/operationalPoints/DK00794,DK00794,Skagen,57.7243,10.5914,http://data.europa.eu/949/concepts/op-types/rinf/10,10,http://publications.europa.eu/resource/authority/country/DNK,10,station
http://data.europa.eu/949/functionalInfrastructure/operationalPoints/18a86dc196c9ac49010210e65a52877d1f2aa709,http://data.europa.eu/949/functionalInfrastructure/operationalPoints/DK00545,DK00545,Lille Kregme,55.9454,12.0357,http://data.europa.eu/949/concepts/op-types/rinf/70,70,http://publications.europa.eu/resource/authority/country/DNK,70,passenger stop
http://data.europa.eu/949/functionalInfrastructure/operationalPoints/18adeebbf42eb0634369e0c65515a097076336fc,http://data.europa.eu/949/functionalInfrastructure/operationalPoints/DK00751,DK00751,Sprogøvej,56.6916,8.2108,http://data.europa.eu/949/concepts/op-types/rinf/70,70,http://publications.europa.eu/resource/authority/country/DNK,70,passenger stop
http://data.europa.eu/949/functionalInfrastructure/operationalPoints/191d819451506654ab72a70b50449d1365c4cd70,http://data.europa.eu/949/functionalInfrastructure/operationalPoints/DK00888,DK00888,Vallensbæk,55.6233,12.3873,http://data.europa.eu/949/concepts/op-types/rinf/10,10,http://publications.europa.eu/resource/authority/country/DNK,10,station
http://data.europa.eu/949/functionalInfrastructure/operationalPoints/19c9d450567b41e478ea84f74e2678224dda1f26,http://data.europa.eu/949/functionalInfrastructure/operationalPoints/DK00568,DK00568,Saunte,56.077,12.4849,http://data.europa.eu/949/concepts/op-types/rinf/10,10,http://publications.europa.eu/resource/authority/country/DNK,10,station
http://data.europa.eu/949/functionalInfrastructure/operationalPoints/1c445cf44ab4d5d3dafd0bffa03fbdf116f852ce,http://data.europa.eu/949/functionalInfrastructure/operationalPoints/DK00780,DK00780,Lilleheden,57.5852,9.9764,http://data.europa.eu/949/concepts/op-types/rinf/70,70,http://publications.europa.eu/resource/authority/country/DNK,70,passenger stop
http://data.europa.eu/949/functionalInfrastructure/operationalPoints/1c6d5b5be31cf65b05b09b6e0aaacbf1467e9bc2,http://data.europa.eu/949/functionalInfrastructure/operationalPoints/DK00727,DK00727,Viby Jylland,56.1224,10.1607,http://data.europa.eu/949/concepts/op-types/rinf/10,10,http://publications.europa.eu/resource/authority/country/DNK,10,station
http://data.europa.eu/949/functionalInfrastructure/operationalPoints/1d2783add9e9195f9e41665d052298177a266a7b,http://data.europa.eu/949/functionalInfrastructure/operationalPoints/DK00895,DK00895,Brøndby Strand,55.6211,12.4216,http://data.europa.eu/949/concepts/op-types/rinf/70,70,http://publications.europa.eu/resource/authority/country/DNK,70,passenger stop
http://data.europa.eu/949/functionalInfrastructure/operationalPoints/1e82094d682c83feca290ce57c59860a100f99d2,http://data.europa.eu/949/functionalInfrastructure/operationalPoints/DK00906,DK00906,Jersie,55.5215,12.209,http://data.europa.eu/949/concepts/op-types/rinf/70,70,http://publications.europa.eu/resource/authority/country/DNK,70,passenger stop
http://data.europa.eu/949/functionalInfrastructure/operationalPoints/21f4536525e2c4e77fcfddec19e8012b5f2ef5be,http://data.europa.eu/949/functionalInfrastructure/operationalPoints/DK00613,DK00613,Svinninge,55.7234,11.4683,http://data.europa.eu/949/concepts/op-types/rinf/10,10,http://publications.europa.eu/resource/authority/country/DNK,10,station
http://data.europa.eu/949/functionalInfrastructure/operationalPoints/22fde78ddf1792f3fc952007a4f900e2847dcd81,http://data.europa.eu/949/functionalInfrastructure/operationalPoints/DK00700,DK00700,Baunhøj,55.636,8.2831,http://data.europa.eu/949/concepts/op-types/rinf/70,70,http://publications.europa.eu/resource/authority/country/DNK,70,passenger stop
http://data.europa.eu/949/functionalInfrastructure/operationalPoints/24faa039201e6533ec29fcbcd17c6fa4b44e8778,http://data.europa.eu/949/functionalInfrastructure/operationalPoints/DK00603,DK00603,Tisvildeleje,56.0595,12.0785,http://data.europa.eu/949/concepts/op-types/rinf/10,10,http://publications.europa.eu/resource/authority/country/DNK,10,station
http://data.europa.eu/949/functionalInfrastructure/operationalPoints/28a37f0ac70d917b89b5cee82bdba2826b76b509,http://data.europa.eu/949/functionalInfrastructure/operationalPoints/DK00679,DK00679,Sakskøbing,54.7966,11.6353,http://data.europa.eu/949/concepts/op-types/rinf/10,10,http://publications.europa.eu/resource/authority/country/DNK,10,station
http://data.europa.eu/949/functionalInfrastructure/operationalPoints/2b81fcbb62c17ff2c184e3fb77a60610bab88d29,http://data.europa.eu/949/functionalInfrastructure/operationalPoints/DK00645,DK00645,Stenlille,55.5392,11.5905,http://data.europa.eu/949/concepts/op-types/rinf/10,10,http://publications.europa.eu/resource/authority/country/DNK,10,station
http://data.europa.eu/949/functionalInfrastructure/operationalPoints/2c0bae1972a94a41b69b524d6280bdfeb1783e0e,http://data.europa.eu/949/functionalInfrastructure/operationalPoints/DK00907,DK00907,Ølby,55.4799,12.1754,http://data.europa.eu/949/concepts/op-types/rinf/70,70,http://publications.europa.eu/resource/authority/country/DNK,70,passenger stop
http://data.europa.eu/949/functionalInfrastructure/operationalPoints/2e2fee73442803496d24de4675021feb9a2ade56,http://data.europa.eu/949/functionalInfrastructure/operationalPoints/DK00698,DK00698,Oksbøl,55.6262,8.2836,http://data.europa.eu/949/concepts/op-types/rinf/10,10,http://publications.europa.eu/resource/authority/country/DNK,10,station
http://data.europa.eu/949/functionalInfrastructure/operationalPoints/336babde86e2a4b5eef7f77e0feed89a532b2959,http://data.europa.eu/949/functionalInfrastructure/operationalPoints/DK00914,DK00914,Ny Ellebjerg,55.6539,12.5138,http://data.europa.eu/949/concepts/op-types/rinf/70,70,http://publications.europa.eu/resource/authority/country/DNK,70,passenger stop
http://data.europa.eu/949/functionalInfrastructure/operationalPoints/36cecdf850f800ec3b08c93eb7f980055d7178d2,http://data.europa.eu/949/functionalInfrastructure/operationalPoints/DK00894,DK00894,Avedøre,55.6257,12.4551,http://data.europa.eu/949/concepts/op-types/rinf/70,70,http://publications.europa.eu/resource/authority/country/DNK,70,passenger stop
http://data.europa.eu/949/functionalInfrastructure/operationalPoints/3bd538ec1847a725a7c3183296ca30d0606ff2c1,http://data.europa.eu/949/functionalInfrastructure/operationalPoints/DK00756,DK00756,Bækmarksbro,56.4118,8.3085,http://data.europa.eu/949/concepts/op-types/rinf/10,10,http://publications.europa.eu/resource/authority/country/DNK,10,station
http://data.europa.eu/949/functionalInfrastructure/operationalPoints/3d1e33a3c50fcb9b28b0f8bb65c9d16979454909,http://data.europa.eu/949/functionalInfrastructure/operationalPoints/DK00774,DK00774,Herregårdsparken,57.4733,9.9658,http://data.europa.eu/949/concepts/op-types/rinf/70,70,http://publications.europa.eu/resource/authority/country/DNK,70,passenger stop
http://data.europa.eu/949/functionalInfrastructure/operationalPoints/3d7529134233abc950348b4cff19def8f861f222,http://data.europa.eu/949/functionalInfrastructure/operationalPoints/DK00553,DK00553,Østerbjerg,55.978,11.9169,http://data.europa.eu/949/concepts/op-types/rinf/10,10,http://publications.europa.eu/resource/authority/country/DNK,10,station
http://data.europa.eu/949/functionalInfrastructure/operationalPoints/3dfba21c026580166beeff4d8ebc307653a5ffac,http://data.europa.eu/949/functionalInfrastructure/operationalPoints/DK00594,DK00594,Gilleleje,56.1236,12.3019,http://data.europa.eu/949/concepts/op-types/rinf/10,10,http://publications.europa.eu/resource/authority/country/DNK,10,station
http://data.europa.eu/949/functionalInfrastructure/operationalPoints/3ec8c74cdd98adbc44f0389b236b0c9fce457d06,http://data.europa.eu/949/functionalInfrastructure/operationalPoints/DK00711,DK00711,Frisvadvej,55.6279,8.486,http://data.europa.eu/949/concepts/op-types/rinf/70,70,http://publications.europa.eu/resource/authority/country/DNK,70,passenger stop
http://data.europa.eu/949/functionalInfrastructure/operationalPoints/41983133e3cc4d73cfdf28bea442724e9e7f9129,http://data.europa.eu/949/functionalInfrastructure/operationalPoints/DK00734,DK00734,Mølleparken,56.0726,10.1544,http://data.europa.eu/949/concepts/op-types/rinf/70,70,http://publications.europa.eu/resource/authority/country/DNK,70,passenger stop
http://data.europa.eu/949/functionalInfrastructure/operationalPoints/437f3f3da36846ff998147746bacc9de3694027b,http://data.europa.eu/949/functionalInfrastructure/operationalPoints/DK00770,DK00770,Tornby,57.5329,9.9495,http://data.europa.eu/949/concepts/op-types/rinf/10,10,http://publications.europa.eu/resource/authority/country/DNK,10,station
http://data.europa.eu/949/functionalInfrastructure/operationalPoints/43b35041fb9f137553f2eafc91742d047b43f0a1,http://data.europa.eu/949/functionalInfrastructure/operationalPoints/DK00683,DK00683,Ryde,54.7853,11.371,http://data.europa.eu/949/concepts/op-types/rinf/10,10,http://publications.europa.eu/resource/authority/country/DNK,10,station
http://data.europa.eu/949/functionalInfrastructure/operationalPoints/44c47d18f05a29c751e1a0d0ba579dfdec6e536a,http://data.europa.eu/949/functionalInfrastructure/operationalPoints/DK00623,DK00623,Vig,55.8522,11.5819,http://data.europa.eu/949/concepts/op-types/rinf/10,10,http://publications.europa.eu/resource/authority/country/DNK,10,station
http://data.europa.eu/949/functionalInfrastructure/operationalPoints/456dfd190af18860002f7b5fe87dfbbb2347ba86,http://data.europa.eu/949/functionalInfrastructure/operationalPoints/DK00548,DK00548,Hanehoved,55.9746,12.0017,http://data.europa.eu/949/concepts/op-types/rinf/70,70,http://publications.europa.eu/resource/authority/country/DNK,70,passenger stop
http://data.europa.eu/949/functionalInfrastructure/operationalPoints/473cf8c8c0062749007aca425e193f653fb2be91,http://data.europa.eu/949/functionalInfrastructure/operationalPoints/DK00951,DK00951,Vinge,55.8103,12.1167,http://data.europa.eu/949/concepts/op-types/rinf/70,70,http://publications.europa.eu/resource/authority/country/DNK,70,passenger stop
http://data.europa.eu/949/functionalInfrastructure/operationalPoints/48208b358122e8d8ef5b0683990876d257c89811,http://data.europa.eu/949/functionalInfrastructure/operationalPoints/DK00730,DK00730,Rude Havvej,55.9836,10.1543,http://data.europa.eu/949/concepts/op-types/rinf/70,70,http://publications.europa.eu/resource/authority/country/DNK,70,passenger stop
http://data.europa.eu/949/functionalInfrastructure/operationalPoints/482a4358abf093b4057359528375de0380cf71db,http://data.europa.eu/949/functionalInfrastructure/operationalPoints/DK00611,DK00611,Gislinge,55.7296,11.5477,http://data.europa.eu/949/concepts/op-types/rinf/10,10,http://publications.europa.eu/resource/authority/country/DNK,10,station
http://data.europa.eu/949/functionalInfrastructure/operationalPoints/4848c03667860dfa24773f4199efdf0b5abd195e,http://data.europa.eu/949/functionalInfrastructure/operationalPoints/DK00583,DK00583,Gribsø,55.9876,12.3017,http://data.europa.eu/949/concepts/op-types/rinf/70,70,http://publications.europa.eu/resource/authority/country/DNK,70,passenger stop
http://data.europa.eu/949/functionalInfrastructure/operationalPoints/4d45059f35ca6d6f87c64121291581942c4b1a02,http://data.europa.eu/949/functionalInfrastructure/operationalPoints/DK00737,DK00737,Øllegårdsvej,56.1147,10.1342,http://data.europa.eu/949/concepts/op-types/rinf/70,70,http://publications.europa.eu/resource/authority/country/DNK,70,passenger stop
http://data.europa.eu/949/functionalInfrastructure/operationalPoints/4e721b4327cb31b4243bada5096a34da4daf649e,http://data.europa.eu/949/functionalInfrastructure/operationalPoints/DK00631,DK00631,Nykøbing Sjælland,55.9215,11.6729,http://data.europa.eu/949/concepts/op-types/rinf/10,10,http://publications.europa.eu/resource/authority/country/DNK,10,station
http://data.europa.eu/949/functionalInfrastructure/operationalPoints/516ff6045ebacc82920305120379bd3c710f225e,http://data.europa.eu/949/functionalInfrastructure/operationalPoints/DK00761,DK00761,Ramme,56.4884,8.2116,http://data.europa.eu/949/concepts/op-types/rinf/10,10,http://publications.europa.eu/resource/authority/country/DNK,10,station
http://data.europa.eu/949/functionalInfrastructure/operationalPoints/52e2bb40719dfaa88d834669d7a0a3931017ce93,http://data.europa.eu/949/functionalInfrastructure/operationalPoints/DK00658,DK00658,Grubberholm,55.3812,12.1995,http://data.europa.eu/949/concepts/op-types/rinf/10,10,http://publications.europa.eu/resource/authority/country/DNK,10,station
http://data.europa.eu/949/functionalInfrastructure/operationalPoints/533cb98a3d535566c9c1b7e3202486eb2eb334ae,http://data.europa.eu/949/functionalInfrastructure/operationalPoints/DK00593,DK00593,Fjellenstrup,56.1159,12.2985,http://data.europa.eu/949/concepts/op-types/rinf/70,70,http://publications.europa.eu/resource/authority/country/DNK,70,passenger stop
http://data.europa.eu/949/functionalInfrastructure/operationalPoints/535bc52112f1bbbe9ee93f1dfbe4898ac2f83d08,http://data.europa.eu/949/functionalInfrastructure/operationalPoints/DK00638,DK00638,Ruds Vedby,55.5398,11.3743,http://data.europa.eu/949/concepts/op-types/rinf/10,10,http://publications.europa.eu/resource/authority/country/DNK,10,station
http://data.europa.eu/949/functionalInfrastructure/operationalPoints/54cb27b0b4ed1ca97bcf667274083de92b8a7fc5,http://data.europa.eu/949/functionalInfrastructure/operationalPoints/DK00741,DK00741,Klinkby,56.5645,8.2207,http://data.europa.eu/949/concepts/op-types/rinf/70,70,http://publications.europa.eu/resource/authority/country/DNK,70,passenger stop
http://data.europa.eu/949/functionalInfrastructure/operationalPoints/564837d6b18f8ad3f898299f1514a71e245bd4a6,http://data.europa.eu/949/functionalInfrastructure/operationalPoints/DK00619,DK00619,Asnæs,55.8086,11.4992,http://data.europa.eu/949/concepts/op-types/rinf/10,10,http://publications.europa.eu/resource/authority/country/DNK,10,station
http://data.europa.eu/949/functionalInfrastructure/operationalPoints/57d3935eb2f741e1910d3e3b0132693b647ae691,http://data.europa.eu/949/functionalInfrastructure/operationalPoints/DK00523,DK00523,Jægersborg,55.7618,12.5217,http://data.europa.eu/949/concepts/op-types/rinf/10,10,http://publications.europa.eu/resource/authority/country/DNK,10,station
http://data.europa.eu/949/functionalInfrastructure/operationalPoints/57f273454b884b0ca0c65c973087b3dffd1c30f5,http://data.europa.eu/949/functionalInfrastructure/operationalPoints/DK00531,DK00531,Brede,55.7945,12.5007,http://data.europa.eu/949/concepts/op-types/rinf/70,70,http://publications.europa.eu/resource/authority/country/DNK,70,passenger stop
http://data.europa.eu/949/functionalInfrastructure/operationalPoints/5905411d338171f024b4d5632f208325a58a7310,http://data.europa.eu/949/functionalInfrastructure/operationalPoints/DK00560,DK00560,Grønnehave,56.0403,12.6109,http://data.europa.eu/949/concepts/op-types/rinf/10,10,http://publications.europa.eu/resource/authority/country/DNK,10,station
http://data.europa.eu/949/functionalInfrastructure/operationalPoints/5a8346b208facf59d6cc117293f20767b3a479e9,http://data.europa.eu/949/functionalInfrastructure/operationalPoints/DK00584,DK00584,Kagerup,55.9976,12.2859,http://data.europa.eu/949/concepts/op-types/rinf/10,10,http://publications.europa.eu/resource/authority/country/DNK,10,station
http://data.europa.eu/949/functionalInfrastructure/operationalPoints/5b056e4d3ba4b0dffcfa585359204a281b7c3c5f,http://data.europa.eu/949/functionalInfrastructure/operationalPoints/DK00660,DK00660,Himlingøje,55.3681,12.2213,http://data.europa.eu/949/concepts/op-types/rinf/70,70,http://publications.europa.eu/resource/authority/country/DNK,70,passenger stop
http://data.europa.eu/949/functionalInfrastructure/operationalPoints/5b10696962d250ba11c81b9cad17e8787497d99d,http://data.europa.eu/949/functionalInfrastructure/operationalPoints/DK00566,DK00566,Ålsgårde,56.075,12.5381,http://data.europa.eu/949/concepts/op-types/rinf/10,10,http://publications.europa.eu/resource/authority/country/DNK,10,station
http://data.europa.eu/949/functionalInfrastructure/operationalPoints/5b570c20b4b554d2686bcb70c589c861080e434e,http://data.europa.eu/949/functionalInfrastructure/operationalPoints/DK00555,DK00555,Vibehus,55.9615,11.875,http://data.europa.eu/949/concepts/op-types/rinf/70,70,http://publications.europa.eu/resource/authority/country/DNK,70,passenger stop
http://data.europa.eu/949/functionalInfrastructure/operationalPoints/5d12f5d65a4010764983cf1b41189104f1b30626,http://data.europa.eu/949/functionalInfrastructure/operationalPoints/DK00746,DK00746,Vrist,56.6008,8.1481,http://data.europa.eu/949/concepts/op-types/rinf/70,70,http://publications.europa.eu/resource/authority/country/DNK,70,passenger stop
http://data.europa.eu/949/functionalInfrastructure/operationalPoints/5df3177177c0119c7a617a42ffd7b8dd1b880c75,http://data.europa.eu/949/functionalInfrastructure/operationalPoints/DK00681,DK00681,Maribo,54.7768,11.5016,http://data.europa.eu/949/concepts/op-types/rinf/10,10,http://publications.europa.eu/resource/authority/country/DNK,10,station
http://data.europa.eu/949/functionalInfrastructure/operationalPoints/5dfd83a4d65cb139a41171d7b1dec6535c03fc37,http://data.europa.eu/949/functionalInfrastructure/operationalPoints/DK00570,DK00570,Hornbæk,56.0891,12.4611,http://data.europa.eu/949/concepts/op-types/rinf/10,10,http://publications.europa.eu/resource/authority/country/DNK,10,station
http://data.europa.eu/949/functionalInfrastructure/operationalPoints/5f9a167bd751553df1504eaf969491d24f5bef63,http://data.europa.eu/949/functionalInfrastructure/operationalPoints/DK00778,DK00778,Horne,57.5595,9.9725,http://data.europa.eu/949/concepts/op-types/rinf/70,70,http://publications.europa.eu/resource/authority/country/DNK,70,passenger stop
http://data.europa.eu/949/functionalInfrastructure/operationalPoints/60d4ac58facce88622651abb5d7f9e9cac6713bc,http://data.europa.eu/949/functionalInfrastructure/operationalPoints/DK00534,DK00534,Brødeskov,55.8941,12.2811,http://data.europa.eu/949/concepts/op-types/rinf/10,10,http://publications.europa.eu/resource/authority/country/DNK,10,station
http://data.europa.eu/949/functionalInfrastructure/operationalPoints/6174048ec357f4bc49d49b76368020cbae6617e8,http://data.europa.eu/949/functionalInfrastructure/operationalPoints/DK00709,DK00709,Lunde,55.7562,8.364,http://data.europa.eu/949/concepts/op-types/rinf/70,70,http://publications.europa.eu/resource/authority/country/DNK,70,passenger stop
http://data.europa.eu/949/functionalInfrastructure/operationalPoints/64ab2e773d43ad05bb590327dfa5e4b140b8491d,http://data.europa.eu/949/functionalInfrastructure/operationalPoints/DK00928,DK00928,Ryparken,55.7158,12.56,http://data.europa.eu/949/concepts/op-types/rinf/70,70,http://publications.europa.eu/resource/authority/country/DNK,70,passenger stop
http://data.europa.eu/949/functionalInfrastructure/operationalPoints/667b9918edd863429902a6b465a70f73fa408b48,http://data.europa.eu/949/functionalInfrastructure/operationalPoints/DK00758,DK00758,Sinkbæk,56.4373,8.2846,http://data.europa.eu/949/concepts/op-types/rinf/70,70,http://publications.europa.eu/resource/authority/country/DNK,70,passenger stop
http://data.europa.eu/949/functionalInfrastructure/operationalPoints/668bc986443e8e0d60a58a0fae822dfe2601f985,http://data.europa.eu/949/functionalInfrastructure/operationalPoints/DK00874,DK00874,Emdrup,55.7211,12.5408,http://data.europa.eu/949/concepts/op-types/rinf/70,70,http://publications.europa.eu/resource/authority/country/DNK,70,passenger stop
http://data.europa.eu/949/functionalInfrastructure/operationalPoints/672d26fc7cc0d831242d81429e834c31a3702229,http://data.europa.eu/949/functionalInfrastructure/operationalPoints/DK00621,DK00621,Grevinge,55.8028,11.5509,http://data.europa.eu/949/concepts/op-types/rinf/10,10,http://publications.europa.eu/resource/authority/country/DNK,10,station
http://data.europa.eu/949/functionalInfrastructure/operationalPoints/681147ce6dea9b7aba0d574d7e540953841f08eb,http://data.europa.eu/949/functionalInfrastructure/operationalPoints/DK00917,DK00917,Danshøj,55.6646,12.4938,http://data.europa.eu/949/concepts/op-types/rinf/70,70,http://publications.europa.eu/resource/authority/country/DNK,70,passenger stop
http://data.europa.eu/949/functionalInfrastructure/operationalPoints/688660c6713452a5a4174bf9f5ecc5a1e5cc0c59,http://data.europa.eu/949/functionalInfrastructure/operationalPoints/DK00911,DK00911,Ordrup,55.7622,12.5832,http://data.europa.eu/949/concepts/op-types/rinf/70,70,http://publications.europa.eu/resource/authority/country/DNK,70,passenger stop
http://data.europa.eu/949/functionalInfrastructure/operationalPoints/6a70f9fcf51862a5d5772f6df3d0052ff0a395b2,http://data.europa.eu/949/functionalInfrastructure/operationalPoints/DK00871,DK00871,Hareskov,55.7653,12.4079,http://data.europa.eu/949/concepts/op-types/rinf/10,10,http://publications.europa.eu/resource/authority/country/DNK,10,station
http://data.europa.eu/949/functionalInfrastructure/operationalPoints/6a96419542763f787c6f82710518e3c798cb1ca1,http://data.europa.eu/949/functionalInfrastructure/operationalPoints/DK00532,DK00532,Ravnholm,55.8021,12.5197,http://data.europa.eu/949/concepts/op-types/rinf/70,70,http://publications.europa.eu/resource/authority/country/DNK,70,passenger stop
http://data.europa.eu/949/functionalInfrastructure/operationalPoints/6cff5916fb8ebf055aa132b2358f268e8799ea41,http://data.europa.eu/949/functionalInfrastructure/operationalPoints/DK00677,DK00677,Grænge,54.7743,11.7645,http://data.europa.eu/949/concepts/op-types/rinf/10,10,http://publications.europa.eu/resource/authority/country/DNK,10,station
http://data.europa.eu/949/functionalInfrastructure/operationalPoints/6ddb06f3cf28127c5ae79f501c62962eddf26e11,http://data.europa.eu/949/functionalInfrastructure/operationalPoints/DK00891,DK00891,Sjælør,55.6515,12.5254,http://data.europa.eu/949/concepts/op-types/rinf/70,70,http://publications.europa.eu/resource/authority/country/DNK,70,passenger stop
http://data.europa.eu/949/functionalInfrastructure/operationalPoints/6f6272f0226cf15acb18af5fa4e25c9942eb8b5d,http://data.europa.eu/949/functionalInfrastructure/operationalPoints/DK00859,DK00859,Veksø,55.75,12.2383,http://data.europa.eu/949/concepts/op-types/rinf/10,10,http://publications.europa.eu/resource/authority/country/DNK,10,station
http://data.europa.eu/949/functionalInfrastructure/operationalPoints/71283e3a80e62085da55e87a72cecffadc8601e9,http://data.europa.eu/949/functionalInfrastructure/operationalPoints/DK00858,DK00858,Kildedal,55.752,12.2869,http://data.europa.eu/949/concepts/op-types/rinf/70,70,http://publications.europa.eu/resource/authority/country/DNK,70,passenger stop
http://data.europa.eu/949/functionalInfrastructure/operationalPoints/71cf85509759ba56416727869b53208cc5e9f718,http://data.europa.eu/949/functionalInfrastructure/operationalPoints/DK00732,DK00732,Beder,56.0565,10.1981,http://data.europa.eu/949/concepts/op-types/rinf/70,70,http://publications.europa.eu/resource/authority/country/DNK,70,passenger stop
http://data.europa.eu/949/functionalInfrastructure/operationalPoints/737e453006e1810ec3fba56c587f01bf8a16d279,http://data.europa.eu/949/functionalInfrastructure/operationalPoints/DK00955,DK00955,Langholm,57.4926,9.9568,http://data.europa.eu/949/concepts/op-types/rinf/80,80,http://publications.europa.eu/resource/authority/country/DNK,80,junction
http://data.europa.eu/949/functionalInfrastructure/operationalPoints/76542301af4e601a9533ba69a6bc6c50d7cb8e6e,http://data.europa.eu/949/functionalInfrastructure/operationalPoints/DK00608,DK00608,Mårsø,55.7234,11.6341,http://data.europa.eu/949/concepts/op-types/rinf/10,10,http://publications.europa.eu/resource/authority/country/DNK,10,station
http://data.europa.eu/949/functionalInfrastructure/operationalPoints/76846899fdd5156e5753fc7f8bceb77a79e992f3,http://data.europa.eu/949/functionalInfrastructure/operationalPoints/DK00525,DK00525,Fuglevad,55.7846,12.4972,http://data.europa.eu/949/concepts/op-types/rinf/10,10,http://publications.europa.eu/resource/authority/country/DNK,10,station
http://data.europa.eu/949/functionalInfrastructure/operationalPoints/76df465fb9a0112a32ae859e918a6f8c564df8e3,http://data.europa.eu/949/functionalInfrastructure/operationalPoints/DK00533,DK00533,Nærum,55.8141,12.5281,http://data.europa.eu/949/concepts/op-types/rinf/10,10,http://publications.europa.eu/resource/authority/country/DNK,10,station
http://data.europa.eu/949/functionalInfrastructure/operationalPoints/77f4e84e893ac650a19aa5bac751c7b3690f7765,http://data.europa.eu/949/functionalInfrastructure/operationalPoints/DK00743,DK00743,Strande,56.5688,8.1626,http://data.europa.eu/949/concepts/op-types/rinf/10,10,http://publications.europa.eu/resource/authority/country/DNK,10,station
http://data.europa.eu/949/functionalInfrastructure/operationalPoints/78f4cb2f828855bf80d6af6b3ab4a0eceb54833b,http://data.europa.eu/949/functionalInfrastructure/operationalPoints/DK00723,DK00723,Mårslet,56.0687,10.1644,http://data.europa.eu/949/concepts/op-types/rinf/10,10,http://publications.europa.eu/resource/authority/country/DNK,10,station
http://data.europa.eu/949/functionalInfrastructure/operationalPoints/79a11aa2d72a20bd582a148b2da899e8fc5aaa58,http://data.europa.eu/949/functionalInfrastructure/operationalPoints/DK00787,DK00787,Napstjert,57.5544,10.4084,http://data.europa.eu/949/concepts/op-types/rinf/70,70,http://publications.europa.eu/resource/authority/country/DNK,70,passenger stop
http://data.europa.eu/949/functionalInfrastructure/operationalPoints/7a99e4f6df348ca2a3cbf65d59d3a6ce620e91c4,http://data.europa.eu/949/functionalInfrastructure/operationalPoints/DK00628,DK00628,Højby Sjælland,55.9102,11.603,http://data.europa.eu/949/concepts/op-types/rinf/10,10,http://publications.europa.eu/resource/authority/country/DNK,10,station
http://data.europa.eu/949/functionalInfrastructure/operationalPoints/7b37f2c189d4c13fc9366e2348edd34378407348,http://data.europa.eu/949/functionalInfrastructure/operationalPoints/DK00692,DK00692,Janderup,55.6228,8.3743,http://data.europa.eu/949/concepts/op-types/rinf/10,10,http://publications.europa.eu/resource/authority/country/DNK,10,station
http://data.europa.eu/949/functionalInfrastructure/operationalPoints/7b67f3b1a6c355acda623231e4168fac53c1056f,http://data.europa.eu/949/functionalInfrastructure/operationalPoints/DK00589,DK00589,Græsted Syd,56.0633,12.2956,http://data.europa.eu/949/concepts/op-types/rinf/70,70,http://publications.europa.eu/resource/authority/country/DNK,70,passenger stop
http://data.europa.eu/949/functionalInfrastructure/operationalPoints/7bfaa815dff5d161fafa836deccde7ddd03f7efe,http://data.europa.eu/949/functionalInfrastructure/operationalPoints/DK00714,DK00714,Elkærdam,55.6262,8.4258,http://data.europa.eu/949/concepts/op-types/rinf/70,70,http://publications.europa.eu/resource/authority/country/DNK,70,passenger stop
http://data.europa.eu/949/functionalInfrastructure/operationalPoints/7c360fffbacf9cee50bf36ce39eb9e9a390e0c82,http://data.europa.eu/949/functionalInfrastructure/operationalPoints/DK00763,DK00763,Bonnet,56.5208,8.2225,http://data.europa.eu/949/concepts/op-types/rinf/10,10,http://publications.europa.eu/resource/authority/country/DNK,10,station
http://data.europa.eu/949/functionalInfrastructure/operationalPoints/7df7d9163012d674b005e9512321dfd3b3b766ad,http://data.europa.eu/949/functionalInfrastructure/operationalPoints/DK00546,DK00546,Frederiksværk,55.9677,12.0195,http://data.europa.eu/949/concepts/op-types/rinf/10,10,http://publications.europa.eu/resource/authority/country/DNK,10,station
http://data.europa.eu/949/functionalInfrastructure/operationalPoints/7e747826339be65dfb59387af47d32c2d1536d25,http://data.europa.eu/949/functionalInfrastructure/operationalPoints/DK00701,DK00701,Vrøgum,55.6533,8.2921,http://data.europa.eu/949/concepts/op-types/rinf/70,70,http://publications.europa.eu/resource/authority/country/DNK,70,passenger stop
http://data.europa.eu/949/functionalInfrastructure/operationalPoints/7f7ea018e92fb19949b2fd8b8a63b35ae331fd7c,http://data.europa.eu/949/functionalInfrastructure/operationalPoints/DK00576,DK00576,Skibstrup,56.0787,12.5141,http://data.europa.eu/949/concepts/op-types/rinf/70,70,http://publications.europa.eu/resource/authority/country/DNK,70,passenger stop
http://data.europa.eu/949/functionalInfrastructure/operationalPoints/7fb659f5267fab32d41488885ea65fc839c96d35,http://data.europa.eu/949/functionalInfrastructure/operationalPoints/DK00925,DK00925,Bispebjerg,55.7061,12.5413,http://data.europa.eu/949/concepts/op-types/rinf/70,70,http://publications.europa.eu/resource/authority/country/DNK,70,passenger stop
http://data.europa.eu/949/functionalInfrastructure/operationalPoints/82737cd0c99a5c9e7a97718ee82ba44db064bf99,http://data.europa.eu/949/functionalInfrastructure/operationalPoints/DK00586,DK00586,Mårum,56.0306,12.3172,http://data.europa.eu/949/concepts/op-types/rinf/10,10,http://publications.europa.eu/resource/authority/country/DNK,10,station
http://data.europa.eu/949/functionalInfrastructure/operationalPoints/828a5b522809f876584d498c285ab8597a762e33,http://data.europa.eu/949/functionalInfrastructure/operationalPoints/DK00793,DK00793,Frederikshavnsvej,57.7247,10.5637,http://data.europa.eu/949/concepts/op-types/rinf/70,70,http://publications.europa.eu/resource/authority/country/DNK,70,passenger stop
http://data.europa.eu/949/functionalInfrastructure/operationalPoints/82b872aac90d026fd936ac413f6d99dcfb87c921,http://data.europa.eu/949/functionalInfrastructure/operationalPoints/DK00719,DK00719,Assedrup,56.0037,10.1818,http://data.europa.eu/949/concepts/op-types/rinf/10,10,http://publications.europa.eu/resource/authority/country/DNK,10,station
http://data.europa.eu/949/functionalInfrastructure/operationalPoints/82e850c44a23852bccaa7a36062b04974ec1d81c,http://data.europa.eu/949/functionalInfrastructure/operationalPoints/DK00779,DK00779,Emmersbæk,57.5722,9.9777,http://data.europa.eu/949/concepts/op-types/rinf/70,70,http://publications.europa.eu/resource/authority/country/DNK,70,passenger stop
http://data.europa.eu/949/functionalInfrastructure/operationalPoints/834c723a7c98166b58be65526e42593e51fa1b3c,http://data.europa.eu/949/functionalInfrastructure/operationalPoints/DK00896,DK00896,Ishøj,55.6135,12.3579,http://data.europa.eu/949/concepts/op-types/rinf/70,70,http://publications.europa.eu/resource/authority/country/DNK,70,passenger stop
http://data.europa.eu/949/functionalInfrastructure/operationalPoints/8386a9a5b4702d23bb0d2a41134102f38ad1b615,http://data.europa.eu/949/functionalInfrastructure/operationalPoints/DK00642,DK00642,Dianalund,55.534,11.4992,http://data.europa.eu/949/concepts/op-types/rinf/10,10,http://publications.europa.eu/resource/authority/country/DNK,10,station
http://data.europa.eu/949/functionalInfrastructure/operationalPoints/8446fe0e040808ef5ec02de40d36860c2c792280,http://data.europa.eu/949/functionalInfrastructure/operationalPoints/DK00670,DK00670,Klippinge,55.3463,12.3251,http://data.europa.eu/949/concepts/op-types/rinf/10,10,http://publications.europa.eu/resource/authority/country/DNK,10,station
http://data.europa.eu/949/functionalInfrastructure/operationalPoints/84853079b3fda94d6ab3aa8265b71f483c5476d6,http://data.europa.eu/949/functionalInfrastructure/operationalPoints/DK00541,DK00541,Ølsted,55.9226,12.0749,http://data.europa.eu/949/concepts/op-types/rinf/10,10,http://publications.europa.eu/resource/authority/country/DNK,10,station
http://data.europa.eu/949/functionalInfrastructure/operationalPoints/85ed1a9bc60cc946113e21e704e5cee370068ca7,http://data.europa.eu/949/functionalInfrastructure/operationalPoints/DK00916,DK00916,Vigerslev Allé,55.6597,12.4993,http://data.europa.eu/949/concepts/op-types/rinf/70,70,http://publications.europa.eu/resource/authority/country/DNK,70,passenger stop
http://data.europa.eu/949/functionalInfrastructure/operationalPoints/8681973b0d871c8324d8f32b04ccc10e41bb940d,http://data.europa.eu/949/functionalInfrastructure/operationalPoints/DK00708,DK00708,Løftgård,55.7297,8.3531,http://data.europa.eu/949/concepts/op-types/rinf/70,70,http://publications.europa.eu/resource/authority/country/DNK,70,passenger stop
http://data.europa.eu/949/functionalInfrastructure/operationalPoints/8883fa61256dbd9206d00e76d81241c1fea1045b,http://data.europa.eu/949/functionalInfrastructure/operationalPoints/DK00876,DK00876,Kildebakke,55.7443,12.5093,http://data.europa.eu/949/concepts/op-types/rinf/70,70,http://publications.europa.eu/resource/authority/country/DNK,70,passenger stop
http://data.europa.eu/949/functionalInfrastructure/operationalPoints/8b847e2b3d9ae1a213ca7d178420e74f1d7ad341,http://data.europa.eu/949/functionalInfrastructure/operationalPoints/DK00747,DK00747,Harboøre,56.6202,8.1783,http://data.europa.eu/949/concepts/op-types/rinf/10,10,http://publications.europa.eu/resource/authority/country/DNK,10,station
http://data.europa.eu/949/functionalInfrastructure/operationalPoints/8d8b31fcfe613c1b1342220645b92c0db4a72d9d,http://data.europa.eu/949/functionalInfrastructure/operationalPoints/DK00578,DK00578,Horneby Sand,56.0899,12.4359,http://data.europa.eu/949/concepts/op-types/rinf/70,70,http://publications.europa.eu/resource/authority/country/DNK,70,passenger stop
http://data.europa.eu/949/functionalInfrastructure/operationalPoints/8dec1714f17e40bf532d3a5b7fde120cf270d579,http://data.europa.eu/949/functionalInfrastructure/operationalPoints/DK00765,DK00765,Armose,56.529,8.2651,http://data.europa.eu/949/concepts/op-types/rinf/70,70,http://publications.europa.eu/resource/authority/country/DNK,70,passenger stop
http://data.europa.eu/949/functionalInfrastructure/operationalPoints/92dedd7fd544a768570870583c0dcff86c6450cf,http://data.europa.eu/949/functionalInfrastructure/operationalPoints/DK00661,DK00661,Hårlev,55.3519,12.2275,http://data.europa.eu/949/concepts/op-types/rinf/10,10,http://publications.europa.eu/resource/authority/country/DNK,10,station
http://data.europa.eu/949/functionalInfrastructure/operationalPoints/9370cea463d16ae09c2fc96fc04d919f6ab9dbfe,http://data.europa.eu/949/functionalInfrastructure/operationalPoints/DK00735,DK00735,Nørrevænget,56.092,10.1517,http://data.europa.eu/949/concepts/op-types/rinf/70,70,http://publications.europa.eu/resource/authority/country/DNK,70,passenger stop
http://data.europa.eu/949/functionalInfrastructure/operationalPoints/93bd8f0fa5c9f4c78c71bd45c76362fad2cc5a14,http://data.europa.eu/949/functionalInfrastructure/operationalPoints/DK00564,DK00564,Hellebæk,56.0665,12.5541,http://data.europa.eu/949/concepts/op-types/rinf/10,10,http://publications.europa.eu/resource/authority/country/DNK,10,station
http://data.europa.eu/949/functionalInfrastructure/operationalPoints/93c5bd76edbcb47711febc310e51766d34e96223,http://data.europa.eu/949/functionalInfrastructure/operationalPoints/DK00625,DK00625,Nørre Asmindrup,55.8828,11.6068,http://data.europa.eu/949/concepts/op-types/rinf/10,10,http://publications.europa.eu/resource/authority/country/DNK,10,station
http://data.europa.eu/949/functionalInfrastructure/operationalPoints/944bb11463cafef82e88ad51ad86d6951ef5bbe4,http://data.europa.eu/949/functionalInfrastructure/operationalPoints/DK00664,DK00664,Karise,55.3074,12.1966,http://data.europa.eu/949/concepts/op-types/rinf/10,10,http://publications.europa.eu/resource/authority/country/DNK,10,station
http://data.europa.eu/949/functionalInfrastructure/operationalPoints/95eed06b18a1db86bc1441698e44602f2af301fc,http://data.europa.eu/949/functionalInfrastructure/operationalPoints/DK00666,DK00666,Tokkerup,55.2832,12.1426,http://data.europa.eu/949/concepts/op-types/rinf/70,70,http://publications.europa.eu/resource/authority/country/DNK,70,passenger stop
http://data.europa.eu/949/functionalInfrastructure/operationalPoints/9aba01b841d7beeddb51a44eb14b641f72e11724,http://data.europa.eu/949/functionalInfrastructure/operationalPoints/DK00920,DK00920,Flintholm,55.6856,12.4989,http://data.europa.eu/949/concepts/op-types/rinf/10,10,http://publications.europa.eu/resource/authority/country/DNK,10,station
http://data.europa.eu/949/functionalInfrastructure/operationalPoints/9aeaa1f68b99c195f8c37568c014e62e8224d39f,http://data.europa.eu/949/functionalInfrastructure/operationalPoints/DK00733,DK00733,Vilhelmsborg,56.0643,10.1782,http://data.europa.eu/949/concepts/op-types/rinf/70,70,http://publications.europa.eu/resource/authority/country/DNK,70,passenger stop
http://data.europa.eu/949/functionalInfrastructure/operationalPoints/9b656dc09a79b030a6bdcd2787b3889d877adfa4,http://data.europa.eu/949/functionalInfrastructure/operationalPoints/DK00861,DK00861,Stenløse,55.7666,12.1902,http://data.europa.eu/949/concepts/op-types/rinf/70,70,http://publications.europa.eu/resource/authority/country/DNK,70,passenger stop
http://data.europa.eu/949/functionalInfrastructure/operationalPoints/9b7b40fa0e07e9f6527076fbd70daaa2d14d9949,http://data.europa.eu/949/functionalInfrastructure/operationalPoints/DK00627,DK00627,Sommerland Sjælland,55.8975,11.6035,http://data.europa.eu/949/concepts/op-types/rinf/70,70,http://publications.europa.eu/resource/authority/country/DNK,70,passenger stop
http://data.europa.eu/949/functionalInfrastructure/operationalPoints/9c6b6506a5644502cd236da2f07676cc41c2bab8,http://data.europa.eu/949/functionalInfrastructure/operationalPoints/DK00716,DK00716,Odder,55.9713,10.1506,http://data.europa.eu/949/concepts/op-types/rinf/10,10,http://publications.europa.eu/resource/authority/country/DNK,10,station
http://data.europa.eu/949/functionalInfrastructure/operationalPoints/9e1a6eda402da8f57bef3ba75b96fb455978bc08,http://data.europa.eu/949/functionalInfrastructure/operationalPoints/DK00752,DK00752,Thyborøn,56.6973,8.2071,http://data.europa.eu/949/concepts/op-types/rinf/70,70,http://publications.europa.eu/resource/authority/country/DNK,70,passenger stop
http://data.europa.eu/949/functionalInfrastructure/operationalPoints/9e42c9a5a1caa2dcd8cd35794479459df655b425,http://data.europa.eu/949/functionalInfrastructure/operationalPoints/DK00775,DK00775,Vellingshøj,57.4804,9.9686,http://data.europa.eu/949/concepts/op-types/rinf/70,70,http://publications.europa.eu/resource/authority/country/DNK,70,passenger stop
http://data.europa.eu/949/functionalInfrastructure/operationalPoints/9eb05d76ff2c4fabfddce4a36ee814088edd0a91,http://data.europa.eu/949/functionalInfrastructure/operationalPoints/DK00604,DK00604,Holløse,56.0596,12.1186,http://data.europa.eu/949/concepts/op-types/rinf/70,70,http://publications.europa.eu/resource/authority/country/DNK,70,passenger stop
http://data.europa.eu/949/functionalInfrastructure/operationalPoints/9ed9cb0ac18216cab386cd9bf24c91bdb90043b7,http://data.europa.eu/949/functionalInfrastructure/operationalPoints/DK00600,DK00600,Ørby,56.0552,12.1633,http://data.europa.eu/949/concepts/op-types/rinf/70,70,http://publications.europa.eu/resource/authority/country/DNK,70,passenger stop
http://data.europa.eu/949/functionalInfrastructure/operationalPoints/a2a82e1f5ffe4a55237cf55686eb48e67e4b1573,http://data.europa.eu/949/functionalInfrastructure/operationalPoints/DK00877,DK00877,Stengården,55.7575,12.472,http://data.europa.eu/949/concepts/op-types/rinf/70,70,http://publications.europa.eu/resource/authority/country/DNK,70,passenger stop
http://data.europa.eu/949/functionalInfrastructure/operationalPoints/a48d99b2440a2604e76fdab2136ea95b2eeefac6,http://data.europa.eu/949/functionalInfrastructure/operationalPoints/DK00905,DK00905,Greve,55.5817,12.2965,http://data.europa.eu/949/concepts/op-types/rinf/70,70,http://publications.europa.eu/resource/authority/country/DNK,70,passenger stop
http://data.europa.eu/949/functionalInfrastructure/operationalPoints/a4e997f98866bab2a8521080594fb3aa259c3e12,http://data.europa.eu/949/functionalInfrastructure/operationalPoints/DK00615,DK00615,Hørve,55.7518,11.4566,http://data.europa.eu/949/concepts/op-types/rinf/10,10,http://publications.europa.eu/resource/authority/country/DNK,10,station
http://data.europa.eu/949/functionalInfrastructure/operationalPoints/a689f147dad7e9aea85b375cfde812a9b5ecc70a,http://data.europa.eu/949/functionalInfrastructure/operationalPoints/DK00599,DK00599,Laugø,56.0393,12.1828,http://data.europa.eu/949/concepts/op-types/rinf/70,70,http://publications.europa.eu/resource/authority/country/DNK,70,passenger stop
http://data.europa.eu/949/functionalInfrastructure/operationalPoints/a7c13195827c021a22d22a60f77dcb9c99051a61,http://data.europa.eu/949/functionalInfrastructure/operationalPoints/DK00941,DK00941,Køge Nord,55.4989,12.1747,http://data.europa.eu/949/concepts/op-types/rinf/70,70,http://publications.europa.eu/resource/authority/country/DNK,70,passenger stop
http://data.europa.eu/949/functionalInfrastructure/operationalPoints/a97fbe958473ee7ffaed6e75616b9f3c52025a89,http://data.europa.eu/949/functionalInfrastructure/operationalPoints/DK00617,DK00617,Fårevejle,55.7875,11.4695,http://data.europa.eu/949/concepts/op-types/rinf/10,10,http://publications.europa.eu/resource/authority/country/DNK,10,station
http://data.europa.eu/949/functionalInfrastructure/operationalPoints/a9c6f3d86e69da3ba013ad7190e4b53b8087c310,http://data.europa.eu/949/functionalInfrastructure/operationalPoints/DK00605,DK00605,Godhavn,56.0599,12.0978,http://data.europa.eu/949/concepts/op-types/rinf/70,70,http://publications.europa.eu/resource/authority/country/DNK,70,passenger stop
http://data.europa.eu/949/functionalInfrastructure/operationalPoints/aa949b627d3394b3b379c27bd713e1f51b91cebc,http://data.europa.eu/949/functionalInfrastructure/operationalPoints/DK00703,DK00703,Søvig Sund,55.684,8.3043,http://data.europa.eu/949/concepts/op-types/rinf/70,70,http://publications.europa.eu/resource/authority/country/DNK,70,passenger stop
http://data.europa.eu/949/functionalInfrastructure/operationalPoints/aae9920058f486589d54045bbd8f2dfae415a22f,http://data.europa.eu/949/functionalInfrastructure/operationalPoints/DK00903,DK00903,Ølsemagle,55.5039,12.1825,http://data.europa.eu/949/concepts/op-types/rinf/80,80,http://publications.europa.eu/resource/authority/country/DNK,80,junction
http://data.europa.eu/949/functionalInfrastructure/operationalPoints/ab9684223ba09a09753c2e9b266dc45d19dd62eb,http://data.europa.eu/949/functionalInfrastructure/operationalPoints/DK00562,DK00562,Højstrup,56.0483,12.5931,http://data.europa.eu/949/concepts/op-types/rinf/10,10,http://publications.europa.eu/resource/authority/country/DNK,10,station
http://data.europa.eu/949/functionalInfrastructure/operationalPoints/acfb372d8d3c5cf37a089dcdaf69b60cbd06e0c6,http://data.europa.eu/949/functionalInfrastructure/operationalPoints/DK00674,DK00674,Rødvig,55.2551,12.3785,http://data.europa.eu/949/concepts/op-types/rinf/10,10,http://publications.europa.eu/resource/authority/country/DNK,10,station
http://data.europa.eu/949/functionalInfrastructure/operationalPoints/af99ab5e28686a8b0ee748f7d401b46273765e4c,http://data.europa.eu/949/functionalInfrastructure/operationalPoints/DK00590,DK00590,Græsted,56.072,12.2876,http://data.europa.eu/949/concepts/op-types/rinf/10,10,http://publications.europa.eu/resource/authority/country/DNK,10,station
http://data.europa.eu/949/functionalInfrastructure/operationalPoints/b0835dfbfd62e2fb37b562bd0568cc58ed4eb83b,http://data.europa.eu/949/functionalInfrastructure/operationalPoints/DK00769,DK00769,Kvægtorvet,57.4545,9.9761,http://data.europa.eu/949/concepts/op-types/rinf/70,70,http://publications.europa.eu/resource/authority/country/DNK,70,passenger stop
http://data.europa.eu/949/functionalInfrastructure/operationalPoints/b10410d6004a66983d115c084b8fe8a2afeb568f,http://data.europa.eu/949/functionalInfrastructure/operationalPoints/DK00543,DK00543,Kregme,55.934,12.0476,http://data.europa.eu/949/concepts/op-types/rinf/10,10,http://publications.europa.eu/resource/authority/country/DNK,10,station
http://data.europa.eu/949/functionalInfrastructure/operationalPoints/b2819a261be1d330d87edb29d60515514d2251c6,http://data.europa.eu/949/functionalInfrastructure/operationalPoints/DK00712,DK00712,Dyreby,55.6996,8.2981,http://data.europa.eu/949/concepts/op-types/rinf/70,70,http://publications.europa.eu/resource/authority/country/DNK,70,passenger stop
http://data.europa.eu/949/functionalInfrastructure/operationalPoints/b2b45a2f25f9e26fac706e0e7a310c0b7cee0f0a,http://data.europa.eu/949/functionalInfrastructure/operationalPoints/DK00890,DK00890,Sydhavn,55.6551,12.5377,http://data.europa.eu/949/concepts/op-types/rinf/70,70,http://publications.europa.eu/resource/authority/country/DNK,70,passenger stop
http://data.europa.eu/949/functionalInfrastructure/operationalPoints/b2f5a1b1d2d2d619cfce3018a0ebf5d3ad51f206,http://data.europa.eu/949/functionalInfrastructure/operationalPoints/DK00549,DK00549,Melby,55.9919,11.974,http://data.europa.eu/949/concepts/op-types/rinf/10,10,http://publications.europa.eu/resource/authority/country/DNK,10,station
http://data.europa.eu/949/functionalInfrastructure/operationalPoints/b7170b1a059aeeb3a4c481527064a04191828159,http://data.europa.eu/949/functionalInfrastructure/operationalPoints/DK00785,DK00785,Jerup,57.5319,10.4174,http://data.europa.eu/949/concepts/op-types/rinf/10,10,http://publications.europa.eu/resource/authority/country/DNK,10,station
http://data.europa.eu/949/functionalInfrastructure/operationalPoints/b78caaca0ee69409049b0f4155def9739a3876ce,http://data.europa.eu/949/functionalInfrastructure/operationalPoints/DK00875,DK00875,Vangede,55.7389,12.5256,http://data.europa.eu/949/concepts/op-types/rinf/70,70,http://publications.europa.eu/resource/authority/country/DNK,70,passenger stop
http://data.europa.eu/949/functionalInfrastructure/operationalPoints/b80ef8c56f7bddf9571dac86bc24c55fe1ae8a68,http://data.europa.eu/949/functionalInfrastructure/operationalPoints/DK00913,DK00913,Vigerslev,55.655,12.5116,http://data.europa.eu/949/concepts/op-types/rinf/80,80,http://publications.europa.eu/resource/authority/country/DNK,80,junction
http://data.europa.eu/949/functionalInfrastructure/operationalPoints/b867c3b69740c94b1946c947e653cbdc689e15e2,http://data.europa.eu/949/functionalInfrastructure/operationalPoints/DK00687,DK00687,Avnede,54.8293,11.2143,http://data.europa.eu/949/concepts/op-types/rinf/70,70,http://publications.europa.eu/resource/authority/country/DNK,70,passenger stop
