id,name,lat,lon,uri,country
DK00773,Hirtshals,57.5918,9.9631,http://data.europa.eu/949/functionalInfrastructure/operationalPoints/0908d2da0bd6fb67a428290694506b137711f593,http://publications.europa.eu/resource/authority/country/DNK
DK00912,Klampenborg,55.7765,12.5883,http://data.europa.eu/949/functionalInfrastructure/operationalPoints/c39a9e052062b4293968899d81285aef35f4a622,http://publications.europa.eu/resource/authority/country/DNK
DK00296,Frederikshavn,57.4411,10.5404,http://data.europa.eu/949/functionalInfrastructure/operationalPoints/774c51cd52eb8c7615f7fe0cfe4e30c4486c0b76,http://publications.europa.eu/resource/authority/country/DNK
DK00344,Esbjerg Havn,55.4637,8.4464,http://data.europa.eu/949/functionalInfrastructure/operationalPoints/8194a45acb2950e988100b496a71e4daa4ac648f,http://publications.europa.eu/resource/authority/country/DNK
DK00229,Fredericia godsstation,55.5625,9.7427,http://data.europa.eu/949/functionalInfrastructure/operationalPoints/df4bba7c346cb9de39570eb669b33e10f52b1eb9,http://publications.europa.eu/resource/authority/country/DNK
DK00039,Nyborg,55.3138,10.8031,http://data.europa.eu/949/functionalInfrastructure/operationalPoints/43408da7454fac143b05dc4ea8e696bc37a9be42,http://publications.europa.eu/resource/authority/country/DNK
DK00035,Korsør,55.3571,11.1352,http://data.europa.eu/949/functionalInfrastructure/operationalPoints/525daa694e77fc1bea0c55c2163a5a7e3efaaa3f,http://publications.europa.eu/resource/authority/country/DNK
DK00037,Sprogø,55.3311,10.9601,http://data.europa.eu/949/functionalInfrastructure/operationalPoints/6c13c06d85a744a00e92bfb59deff77def9f98f2,http://publications.europa.eu/resource/authority/country/DNK
DK00153,Klampenborg,55.7767,12.5888,http://data.europa.eu/949/functionalInfrastructure/operationalPoints/8282c3084e1c1624f9d10822431c6e601c0b2d1e,http://publications.europa.eu/resource/authority/country/DNK
DK00077,Gedser,54.5791,11.9253,http://data.europa.eu/949/functionalInfrastructure/operationalPoints/b28a6bafc31a185aa2ea753aec47c657fc98293a,http://publications.europa.eu/resource/authority/country/DNK
DK00167,Helsingør,56.0333,12.6141,http://data.europa.eu/949/functionalInfrastructure/operationalPoints/b359ec4334897888819a65339e0c2885ab7e272d,http://publications.europa.eu/resource/authority/country/DNK
DK00165,Snekkersten,56.0094,12.5839,http://data.europa.eu/949/functionalInfrastructure/operationalPoints/e39aab16b70e9150cadd9233e269947c5eede1f8,http://publications.europa.eu/resource/authority/country/DNK
DK00579,Kildekrog,56.0925,12.4239,http://data.europa.eu/949/functionalInfrastructure/operationalPoints/1253097bdf204938e7ffb1070f07dba2dbec6c43,http://publications.europa.eu/resource/authority/country/DNK
DK00794,Skagen,57.7243,10.5914,http://data.europa.eu/949/functionalInfrastructure/operationalPoints/17fc752cc527ce644d7930815d88114089263dd0,http://publications.europa.eu/resource/authority/country/DNK
DK00751,Sprogøvej,56.6916,8.2108,http://data.europa.eu/949/functionalInfrastructure/operationalPoints/18adeebbf42eb0634369e0c65515a097076336fc,http://publications.europa.eu/resource/authority/country/DNK
DK00568,Saunte,56.077,12.4849,http://data.europa.eu/949/functionalInfrastructure/operationalPoints/19c9d450567b41e478ea84f74e2678224dda1f26,http://publications.europa.eu/resource/authority/country/DNK
DK00780,Lilleheden,57.5852,9.9764,http://data.europa.eu/949/functionalInfrastructure/operationalPoints/1c445cf44ab4d5d3dafd0bffa03fbdf116f852ce,http://publications.europa.eu/resource/authority/country/DNK
DK00603,Tisvildeleje,56.0595,12.0785,http://data.europa.eu/949/functionalInfrastructure/operationalPoints/24faa039201e6533ec29fcbcd17c6fa4b44e8778,http://publications.europa.eu/resource/authority/country/DNK
DK00560,Grønnehave,56.0403,12.6109,http://data.europa.eu/949/functionalInfrastructure/operationalPoints/5905411d338171f024b4d5632f208325a58a7310,http://publications.europa.eu/resource/authority/country/DNK
DK00566,Ålsgårde,56.075,12.5381,http://data.europa.eu/949/functionalInfrastructure/operationalPoints/5b10696962d250ba11c81b9cad17e8787497d99d,http://publications.europa.eu/resource/authority/country/DNK
DK00746,Vrist,56.6008,8.1481,http://data.europa.eu/949/functionalInfrastructure/operationalPoints/5d12f5d65a4010764983cf1b41189104f1b30626,http://publications.europa.eu/resource/authority/country/DNK
DK00570,Hornbæk,56.0891,12.4611,http://data.europa.eu/949/functionalInfrastructure/operationalPoints/5dfd83a4d65cb139a41171d7b1dec6535c03fc37,http://publications.europa.eu/resource/authority/country/DNK
DK00576,Skibstrup,56.0787,12.5141,http://data.europa.eu/949/functionalInfrastructure/operationalPoints/7f7ea018e92fb19949b2fd8b8a63b35ae331fd7c,http://publications.europa.eu/resource/authority/country/DNK
DK00793,Frederikshavnsvej,57.7247,10.5637,http://data.europa.eu/949/functionalInfrastructure/operationalPoints/828a5b522809f876584d498c285ab8597a762e33,http://publications.europa.eu/resource/authority/country/DNK
DK00779,Emmersbæk,57.5722,9.9777,http://data.europa.eu/949/functionalInfrastructure/operationalPoints/82e850c44a23852bccaa7a36062b04974ec1d81c,http://publications.europa.eu/resource/authority/country/DNK
DK00578,Horneby Sand,56.0899,12.4359,http://data.europa.eu/949/functionalInfrastructure/operationalPoints/8d8b31fcfe613c1b1342220645b92c0db4a72d9d,http://publications.europa.eu/resource/authority/country/DNK
DK00564,Hellebæk,56.0665,12.5541,http://data.europa.eu/949/functionalInfrastructure/operationalPoints/93bd8f0fa5c9f4c78c71bd45c76362fad2cc5a14,http://publications.europa.eu/resource/authority/country/DNK
DK00752,Thyborøn,56.6973,8.2071,http://data.europa.eu/949/functionalInfrastructure/operationalPoints/9e1a6eda402da8f57bef3ba75b96fb455978bc08,http://publications.europa.eu/resource/authority/country/DNK
DK00674,Rødvig,55.2551,12.3785,http://data.europa.eu/949/functionalInfrastructure/operationalPoints/acfb372d8d3c5cf37a089dcdaf69b60cbd06e0c6,http://publications.europa.eu/resource/authority/country/DNK
DK00753,Thyborøn Havn,56.7037,8.2137,http://data.europa.eu/949/functionalInfrastructure/operationalPoints/c856fc4835608315baf946bbaf2abdaebf27b028,http://publications.europa.eu/resource/authority/country/DNK
DK00556,Hundested,55.962,11.8531,http://data.europa.eu/949/functionalInfrastructure/operationalPoints/cc8fc68967bcb7bc95fbf32248613baed3726017,http://publications.europa.eu/resource/authority/country/DNK
DK00749,Rønland,56.6568,8.1948,http://data.europa.eu/949/functionalInfrastructure/operationalPoints/cec0cdec782460a0c1171fba1d95c1da4ea41202,http://publications.europa.eu/resource/authority/country/DNK
DK00577,Karinebæk,56.0822,12.4703,http://data.europa.eu/949/functionalInfrastructure/operationalPoints/e1107d7b7904c48cbf90a50f34250a2ccb37843d,http://publications.europa.eu/resource/authority/country/DNK
DK00745,Victoria Street Station,56.5774,8.1433,http://data.europa.eu/949/functionalInfrastructure/operationalPoints/e640b901d054b97ddb213023ab983ca01663c04b,http://publications.europa.eu/resource/authority/country/DNK
DK00558,Hundested Havn,55.9662,11.8489,http://data.europa.eu/949/functionalInfrastructure/operationalPoints/e9b7f8d65621bfdc084744aa7dff98bc121107b7,http://publications.europa.eu/resource/authority/country/DNK
DK00157,Vedbæk,55.8527,12.5625,http://data.europa.eu/949/functionalInfrastructure/operationalPoints/3b6bc64a46df2b2b7b4fb65248874a580a83e7c5,http://publications.europa.eu/resource/authority/country/DNK
DK00049,Masnedø,54.9824,11.8945,http://data.europa.eu/949/functionalInfrastructure/operationalPoints/5d0b64cb3a11ba61445886fd59c3b6d7da97630b,http://publications.europa.eu/resource/authority/country/DNK
DK00225,Snoghøj,55.5368,9.7082,http://data.europa.eu/949/functionalInfrastructure/operationalPoints/759924701d4b21e32271ae09c7e7332f66864b72,http://publications.europa.eu/resource/authority/country/DNK
DK00453,Oddesund Nord,56.5826,8.5469,http://data.europa.eu/949/functionalInfrastructure/operationalPoints/8b11f7113301db98bb31f08226e8c889852c6678,http://publications.europa.eu/resource/authority/country/DNK
DK00457,Lyngs,56.6643,8.4508,http://data.europa.eu/949/functionalInfrastructure/operationalPoints/96ec00bd752152d22bd385d0283b8d40713b29dd,http://publications.europa.eu/resource/authority/country/DNK
EU00141,Peberholm grænse,55.605923,12.738071,http://data.europa.eu/949/functionalInfrastructure/operationalPoints/cd9647e80bfaf99accfd6d12065e53761832a97e,http://publications.europa.eu/resource/authority/country/DNK
DK00344,Esbjerg Havn,55.46375,8.446409,http://data.europa.eu/949/functionalInfrastructure/operationalPoints/2bed3f360077c64555a573dfda08e2904cd4a37b,http://publications.europa.eu/resource/authority/country/DNK
DK00912,Klampenborg,55.776543,12.588268,http://data.europa.eu/949/functionalInfrastructure/operationalPoints/aa0b3e7ca16240d49da2e26a7cb32760b0a518ce,http://publications.europa.eu/resource/authority/country/DNK
DK00594,Gilleleje,56.123668,12.301977,http://data.europa.eu/949/functionalInfrastructure/operationalPoints/b03a6e44855223a922b2f9ec05989b3416ba098a,http://publications.europa.eu/resource/authority/country/DNK
DK00773,Hirtshals,57.591762,9.96314,http://data.europa.eu/949/functionalInfrastructure/operationalPoints/b22d146263cb06b2f8d30f17f89b248eb500dc63,http://publications.europa.eu/resource/authority/country/DNK
DK00229,Fredericia godsstation,55.562502,9.74268,http://data.europa.eu/949/functionalInfrastructure/operationalPoints/0bfa25a4b993cf046d5301fd3203804990953486,http://publications.europa.eu/resource/authority/country/DNK
DK00077,Gedser,54.579127,11.925304,http://data.europa.eu/949/functionalInfrastructure/operationalPoints/0fb2e24efec4abca2b1ec4d386e496f35bc62825,http://publications.europa.eu/resource/authority/country/DNK
DK00296,Frederikshavn,57.441127,10.54041,http://data.europa.eu/949/functionalInfrastructure/operationalPoints/4f2c28af1cc48d927f7c46d4bfbdc47f9249f9a2,http://publications.europa.eu/resource/authority/country/DNK
DK00153,Klampenborg,55.776659,12.588826,http://data.europa.eu/949/functionalInfrastructure/operationalPoints/a1904372a06257c478743a5c386b71c2e1cfbdad,http://publications.europa.eu/resource/authority/country/DNK
DK00165,Snekkersten,56.009365,12.583888,http://data.europa.eu/949/functionalInfrastructure/operationalPoints/e3c03bfa334df09a66698498c48a3d2023bc53e6,http://publications.europa.eu/resource/authority/country/DNK
DK00167,Helsingør,56.033253,12.614134,http://data.europa.eu/949/functionalInfrastructure/operationalPoints/e6c88f6a152f223d5076c19fd941bbb700804c1b,http://publications.europa.eu/resource/authority/country/DNK
DK00037,Sprogø,55.331053,10.9601,http://data.europa.eu/949/functionalInfrastructure/operationalPoints/087290b1dc81054f34f964a9012b2cb8fc86d0a7,http://publications.europa.eu/resource/authority/country/DNK
DK00035,Korsør,55.357084,11.135163,http://data.europa.eu/949/functionalInfrastructure/operationalPoints/1fc7ab5e02f26ec8c68956d54c5b1d7e4832656d,http://publications.europa.eu/resource/authority/country/DNK
DK00039,Nyborg,55.313804,10.803072,http://data.europa.eu/949/functionalInfrastructure/operationalPoints/bbbbdbef099444aa3aa0a20babc891254112c4ed,http://publications.europa.eu/resource/authority/country/DNK
DK00970,Gilleleje Øst,56.12245,12.309487,http://data.europa.eu/949/functionalInfrastructure/operationalPoints/0d4953abaf7c535b9cdcdc07d228a5da276ce980,http://publications.europa.eu/resource/authority/country/DNK
DK00793,Frederikshavnsvej,57.724727,10.563733,http://data.europa.eu/949/functionalInfrastructure/operationalPoints/8e4f585e811e24aef169c1fc5b05a9e4451c91f5,http://publications.europa.eu/resource/authority/country/DNK
DK00674,Rødvig,55.255097,12.378522,http://data.europa.eu/949/functionalInfrastructure/operationalPoints/b23f29db30a3bbdd39e9159fae7647c67c67b808,http://publications.europa.eu/resource/authority/country/DNK
DK00780,Lilleheden,57.585246,9.976388,http://data.europa.eu/949/functionalInfrastructure/operationalPoints/ec031bab4d6dd14179cebd2dd2f614d68389030e,http://publications.europa.eu/resource/authority/country/DNK
DK00779,Emmersbæk,57.572228,9.977691,http://data.europa.eu/949/functionalInfrastructure/operationalPoints/f4a095f032276d8a4c041c5797cbb8ffe11ab2d0,http://publications.europa.eu/resource/authority/country/DNK
DK00794,Skagen,57.724265,10.591381,http://data.europa.eu/949/functionalInfrastructure/operationalPoints/f7b19d0e132c4e8e1cc05394010456a4698f3e00,http://publications.europa.eu/resource/authority/country/DNK
DK00579,Kildekrog,56.092547,12.423871,http://data.europa.eu/949/functionalInfrastructure/operationalPoints/0a5eaf13c685689431330b05d590020d234a1141,http://publications.europa.eu/resource/authority/country/DNK
DK00157,Vedbæk,55.85274,12.56247,http://data.europa.eu/949/functionalInfrastructure/operationalPoints/0cd560078418ecda75324f0f8d316888dcefa12f,http://publications.europa.eu/resource/authority/country/DNK
DK00577,Karinebæk,56.082965,12.468749,http://data.europa.eu/949/functionalInfrastructure/operationalPoints/0d57320e9012523c84879a01595d51585bdfe9fb,http://publications.europa.eu/resource/authority/country/DNK
DK00570,Hornbæk,56.089175,12.460209,http://data.europa.eu/949/functionalInfrastructure/operationalPoints/13a48ac603ff3d53138aa535c1d652c613b62313,http://publications.europa.eu/resource/authority/country/DNK
DK00568,Saunte,56.077027,12.484893,http://data.europa.eu/949/functionalInfrastructure/operationalPoints/1599ecd0cc0457621dab4f0c35619bc4b1950730,http://publications.europa.eu/resource/authority/country/DNK
DK00566,Ålsgårde,56.075039,12.538134,http://data.europa.eu/949/functionalInfrastructure/operationalPoints/21be3c7eed3e4b60e435013c35eac8b7e4b6c1b1,http://publications.europa.eu/resource/authority/country/DNK
DK00603,Tisvildeleje,56.05946,12.078536,http://data.europa.eu/949/functionalInfrastructure/operationalPoints/2e400d7c357ea3e05f19304936149b67ae0a8914,http://publications.europa.eu/resource/authority/country/DNK
DK00225,Snoghøj,55.53676,9.708211,http://data.europa.eu/949/functionalInfrastructure/operationalPoints/3d9f04935ce6c19f3a612e7d199eb0df89ec16db,http://publications.europa.eu/resource/authority/country/DNK
EU00059,Padborg grænse,54.815211,9.362975,http://data.europa.eu/949/functionalInfrastructure/operationalPoints/4a541888e7b05958a27d69eb967c59338c4983e1,http://publications.europa.eu/resource/authority/country/DNK
DK00457,Lyngs,56.664346,8.450821,http://data.europa.eu/949/functionalInfrastructure/operationalPoints/4edbb376946dcd1056ead41e480f06d41d98003f,http://publications.europa.eu/resource/authority/country/DNK
DK00576,Skibstrup,56.078399,12.513335,http://data.europa.eu/949/functionalInfrastructure/operationalPoints/5ce707410da3fc11788772d193f2eb0fd0821ed2,http://publications.europa.eu/resource/authority/country/DNK
DK00556,Hundested,55.9638,11.852607,http://data.europa.eu/949/functionalInfrastructure/operationalPoints/694d2961fa09c880ed4e324aca993c480b0e9aaa,http://publications.europa.eu/resource/authority/country/DNK
DK00558,Hundested Havn,55.965825,11.847,http://data.europa.eu/949/functionalInfrastructure/operationalPoints/7247990b7fb460df398623729829f360826aa414,http://publications.europa.eu/resource/authority/country/DNK
DK00578,Horneby Sand,56.089892,12.435923,http://data.europa.eu/949/functionalInfrastructure/operationalPoints/77053d363573871bc9a22a3ac1a5da40f3d63e23,http://publications.europa.eu/resource/authority/country/DNK
DK00564,Hellebæk,56.066489,12.554121,http://data.europa.eu/949/functionalInfrastructure/operationalPoints/7fdc48546ecf944e7e91e1018985063788eb0175,http://publications.europa.eu/resource/authority/country/DNK
DK00560,Grønnehave,56.040297,12.610862,http://data.europa.eu/949/functionalInfrastructure/operationalPoints/8732fde327d0082c2dc7f92b77265c00299bcde4,http://publications.europa.eu/resource/authority/country/DNK
EU00141,Peberholm grænse,55.605923,12.738071,http://data.europa.eu/949/functionalInfrastructure/operationalPoints/b5a5ad08480bb3a80205b596c7bd68d1aa684940,http://publications.europa.eu/resource/authority/country/DNK
DK00453,Oddesund Nord,56.582643,8.546911,http://data.europa.eu/949/functionalInfrastructure/operationalPoints/c45448a86c0b292559c9e5f3d818e697d6b149e1,http://publications.europa.eu/resource/authority/country/DNK
DK00049,Masnedø,54.982369,11.894499,http://data.europa.eu/949/functionalInfrastructure/operationalPoints/ec4a1c11cc05bee26ece8ea375ff2609d33be766,http://publications.europa.eu/resource/authority/country/DNK
