osm_id,name,type,ref,lat,lon
node/31983306,Izvor,stop,,44.4330759,26.0901678
node/34073883,Vinga,stop,,46.0170651,21.1995301
node/122236985,Chitila,station,,44.5019885,25.9845891
node/125372978,Universitate,station,,44.4355629,26.1024682
node/126004763,Eforie Sud,station,,44.0338323,28.6447539
node/130252338,Zalhanaua,stop,,44.9079131,25.7863863
node/130252368,Ion Luca Caragiale Vest,halt,,44.9084838,25.6993438
node/144042138,Piața Sudului,station,,44.392454,26.1228383
node/148252269,Ovidiu,halt,,44.274103,28.5626155
node/153470924,Târgșoru Nou,station,,44.9192541,25.8575396
node/160383309,Zănoaga,stop,,44.8628305,26.2035021
node/177261732,Zalhanaua,station,,44.9079487,25.7863576
node/202013308,Sighișoara,stop,,46.2265282,24.7957408
node/224105286,Brănești Sat,halt,,44.4596122,26.3348996
node/242190943,Mediaș,station,,46.1599902,24.3495516
node/242698018,Felnac,halt,,46.1104395,21.1356109
node/242745476,Bătuța,station,,46.0562429,22.0456758
node/243075554,Beia,station,,46.1534591,25.1851253
node/243241485,Ferma Ciala,halt,,46.1953164,21.2363768
node/243339801,Războieni,station,,46.4117609,23.881645
node/243339834,Grindeni,halt,,46.4300363,23.9005368
node/243490747,Orăștie,station,,45.8614155,23.2100753
node/243494477,Stația Zam,stop,,46.0026509,22.4411404
node/243497509,Băcia hc,halt,,45.8047919,23.0023015
node/243505134,Vadu Rosu,halt,,45.8736994,25.5444949
node/243737034,Munar,halt,,46.0996502,21.0166991
node/243742579,,stop,,47.0706783,21.9361118
node/245463126,Iclod,stop,,46.9779851,23.8164893
node/245463144,Jucu de Jos hc,halt,,46.8776989,23.7736586
node/245471638,Macău,stop,,46.8472903,23.3135578
node/245471644,Dorolțu,stop,,46.8605991,23.3003466
node/245473261,Boju,halt,,46.7018612,23.8369203
node/245473319,Valea Florilor,halt,,46.6654362,23.8605309
node/245473391,Cinepiști,halt,,46.6076071,23.8468034
node/245475486,Rus,halt,,47.2849685,23.5926358
node/245801887,Halta Azomureș,halt,,46.5128462,24.5118335
node/245955723,Cristur,station,,46.2935195,25.0389097
node/245955733,Betești,halt,,46.2940342,25.0812846
node/245955739,Betești Est,halt,,46.28251,25.0994607
node/247416268,Gara Iași,station,,47.1654321,27.5697322
node/247426279,Sârca,stop,,47.2158787,27.1517561
node/247426312,Târgu Frumos,station,,47.2095343,27.0237013
node/248286493,Buftea,station,,44.5641025,25.9572775
node/251660798,Balotești,station,,44.5906021,26.0987412
node/251660832,Moara Vlăsiei,station,,44.6372686,26.2146535
node/253038028,Nicolina,station,,47.1488579,27.5776323
node/254316174,Halta Sărata,halt,,47.0813119,24.4293558
node/254318236,Monor-Gledin,station,,46.9611301,24.7040725
node/254499528,Cristești Jijia,station,,47.1696713,27.7246022
node/255387575,Pipera,station,,44.4806131,26.116635
node/255388736,Gara Obor,station,,44.448712,26.1404908
node/255441744,Grădiștea,stop,,44.2056139,26.1630588
node/255518728,Frunzănești,station,,44.3789901,26.3431791
node/256277342,Sărățel,station,,47.0605058,24.4039265
node/257011662,Giurgiu Nord,station,,43.9239278,25.9648349
node/258668249,Târgu Mureș,station,,46.533442,24.5490958
node/258668368,Târgu Mureș Nord,station,,46.5542854,24.5643108
node/258987961,Cluj Napoca,station,,46.7846249,23.5861692
node/259406267,Vișeu de Sus,station,,47.7013491,24.4389063
node/259406374,Vișeu de Jos,stop,,47.7208338,24.3671685
node/259406480,Bocicoel,halt,,47.73159,24.3350398
node/259853702,Tapia,stop,,45.6504196,21.9671457
node/260396172,Alba Iulia,station,,46.0562902,23.5765543
node/260770566,Unirea,halt,,46.3909584,23.8046662
node/261715032,Deva,stop,,45.8846287,22.9104386
node/262474154,Siculeni,station,,46.4291236,25.7744356
node/262686825,Remiza T. Socola h,station,,47.1404486,27.6462715
node/280734836,Snagov,halt,,44.708126,26.182907
node/287742882,Malul Mare Hm.,halt,,44.2554125,23.8970259
node/289852965,Merișor,stop,,45.4554913,23.2319551
node/289885850,Bacău,stop,,46.5656004,26.8946534
node/289895403,Roman,station,,46.9346624,26.9199022
node/291218367,Botizu,stop,,47.7977674,24.6481042
node/291218763,Mocănița Vișeu de Sus,station,,47.7147472,24.4430182
node/293317918,Aurel Vlaicu,station,,44.4791556,26.1002318
node/298703676,Brașov,stop,Linia 4,45.6617808,25.6138996
node/298703682,Brașov,stop,Linia 5,45.6618935,25.6139236
node/298704086,Pavilion CFR Brașov Triaj,halt,,45.6741929,25.6468838
node/301687829,Preciziei,station,,44.4305811,25.9909684
node/303278705,Piatra Neamț,station,,46.9271745,26.3602664
node/304631953,Sinaia,stop,,45.3522478,25.553079
node/304632574,Predeal,stop,,45.5050527,25.5758551
node/304633911,Ilieni hc,halt,,45.7262403,25.7632995
node/304917380,Gara de Nord 1,station,,44.4472354,26.0765661
node/304923523,Girbovi,station,,44.7731697,26.7845788
node/305109365,Izvor,station,,44.4330576,26.0895859
node/305109987,Piața Unirii 1,station,,44.4275409,26.1019218
node/305116719,Timpuri Noi,station,,44.4169594,26.113347
node/305123680,Dristor 1,station,,44.4193677,26.1404644
node/305123683,Mihai Bravu,station,,44.4112894,26.1258859
node/305136011,Petrache Poenaru,station,,44.4454258,26.0465519
node/306563335,Satu Mare Sud,station,,47.7720337,22.8701279
node/306568964,Botiz,station,,47.8251551,22.9372829
node/308400108,Măieruș,halt,,45.8989545,25.545932
node/311077921,Gara Urziceni,station,,44.7190336,26.6451447
node/312170383,Sagna,station,,46.9592171,27.0007838
node/312170423,Stănița,halt,,46.994143,27.0909758
node/312170571,Rebricea,station,,46.8746629,27.5672719
node/312170635,Bârnova,station,,47.0130006,27.5696032
node/312250957,Topile,halt,,47.2755821,26.6688879
node/312251093,Târgu Neamț,station,,47.1998155,26.3768654
node/315473594,Gura Humorului,station,,47.5524128,25.9425133
node/315476057,Părhăuți,halt,,47.7125817,26.0904624
node/315476093,Soloneț,halt,,47.6847186,26.0336717
node/315483927,Ilva Mica,station,,47.3054991,24.6377878
node/315483937,Podereia Feldrului,halt,,47.2829968,24.616376
node/316052597,Giarmata,station,,45.8334761,21.3072323
node/316218490,Bârcea Mare,halt,,45.8413925,22.9648493
node/316218541,Hunedoara haltă,halt,,45.7727861,22.9033433
node/316228237,Hunedoara,station,,45.7610995,22.9004938
node/316941444,Mititei,halt,,47.2845464,24.3207633
node/317375373,Săvârșin,station,,46.0079064,22.232307
node/318331066,Vaduri h,halt,,46.9298701,26.2456985
node/320508638,Sibiel,stop,,45.7656535,23.9408106
node/320508706,Tilișca,halt,,45.8240864,23.8358673
node/321259273,Ocna Sibiului,station,,45.8578132,24.0672403
node/321259282,Halta Ocna-Bâi,halt,,45.8753991,24.0704764
node/321259318,Hașag hc,stop,,45.9715679,24.108241
node/321263583,Plaiul Vulcănești,stop,,44.3110444,23.8537592
node/321279798,Săcel,station,,47.6340384,24.4587298
node/321961232,Bistrița,halt,,47.1457783,24.502651
node/322601152,Nimigea,station,,47.2474557,24.2986851
node/323137826,Livezile Bârgăului,halt,,47.1781092,24.5685013
node/329984366,Ramura Botiz,halt,,47.8356266,22.9201846
node/331036469,Domnești pe Șieu,halt,,47.0427776,24.4709471
node/331036491,Bârla pe Șieu,halt,,47.0149895,24.5436855
node/331039674,Stânceni Neagra,halt,,46.9664034,25.1561978
node/331039731,Ciobotani,halt,,46.9514188,25.2697171
node/339067168,Halta Dîrju,halt,,46.1791059,25.1499079
node/339067169,Archita,halt,,46.1825703,25.0982513
node/339067170,PO Feleag,halt,,46.1978555,25.0459718
node/339067171,Mureni,halt,,46.2255651,24.997033
node/339067172,Vânători,halt,,46.2433378,24.919948
node/339067173,Albești,halt,,46.2372361,24.8551676
node/339067176,Copșa Mică,station,,46.1153717,24.2364065
node/339067177,Halta Axente Sever,halt,,46.0979267,24.2160741
node/339067178,Șeica Mare,halt,,46.0338606,24.1626457
node/339067179,Halta Șeica Mare,halt,,46.0221274,24.1569383
node/339067181,Halta Veseud,halt,,45.9910297,24.14723
node/339067182,Hașag,halt,,45.9715484,24.1081652
node/339067183,Loamneș,station,,45.9387832,24.0876183
node/339067185,Mandra,halt,,45.922886,24.0760192
node/339067186,Halta Sibiu,halt,,45.8113129,24.1484343
node/339067187,Sibiu,stop,,45.8000973,24.1616823
node/341933666,Fetești,station,,44.417109,27.8217763
node/342055950,Cataloi,station,,45.1053575,28.7491287
node/343206043,Păcii,stop,,44.4339371,26.0041269
node/345539748,Focșani,station,,45.7012397,27.1692659
node/346153505,Blaj,station,,46.1761119,23.9089733
node/354496018,Cluj Napoca Est,station,,46.7789859,23.670864
node/364063416,Slatina,stop,,44.4284012,24.3891095
node/367413289,Câmpulung Est,station,,47.5175093,25.5946425
node/373491172,Ciulnița,station,,44.4274449,27.3509204
node/374106746,Prunisor,stop,,44.6064866,22.9217264
node/377000907,Cernavodă Pod,station,,44.3373708,28.0251468
node/382299010,Chevereș,halt,,45.6547202,21.4938162
node/386612287,Vorniceni,halt,,47.9226103,26.6560469
node/388514309,Vaslui,station,,46.6265431,27.7270781
node/413972937,Larga Jijia,station,,47.3317514,27.383172
node/413972961,Movileni H,halt,,47.2696814,27.3730784
node/425998444,Racu hc,halt,,46.4449562,25.7579251
node/425998627,Șugău h,halt,,46.6709527,25.6048272
node/427722944,Saline HC,station,,46.2824415,26.607
node/430128407,Bod,station,,45.7589567,25.6043464
node/432783453,Costin Georgian,station,,44.4351219,26.1691265
node/432783473,Republica,station,,44.4344205,26.1853096
node/432783497,Pantelimon,station,,44.4405245,26.1926032
node/435247459,Nicolae Grigorescu 1,station,,44.4135723,26.1606064
node/435247463,1 Decembrie 1918,station,,44.4105518,26.1737975
node/455055262,Teiș Hm,station,,44.9406124,25.4437144
node/467282097,Roșiori Nord,station,,44.1233667,24.9788917
node/467467582,București Basarab,station,,44.4504051,26.0674315
node/479889551,Mădăraș Bihor,halt,,46.8331542,21.6645228
node/480333004,Vatra Dornei Băi,stop,,47.3461188,25.3569092
node/481269840,Câmpulung Moldovenesc,station,,47.5336366,25.5527955
node/482809718,Turnișor,station,,45.8006116,24.1301532
node/484855465,Sibiu Triaj h,stop,,45.7800996,24.1876467
node/487098710,Călărași Sud,station,,44.1999846,27.3341059
node/487692509,Cebza,halt,,45.5640368,20.9996309
node/493749101,Vadu Lat,station,,44.3431182,25.7017836
node/495557351,Văculești,station,,47.8945329,26.4402436
node/506516925,Sfântu Gheorghe,stop,Linia 2,45.8632761,25.8104527
node/506869815,Odorhei Sud,halt,,46.3076901,25.2884413
node/516125655,Râmnicu Vâlcea,station,,45.1032547,24.3726801
node/518726893,Piața Iancului,station,,44.4416951,26.1323219
node/521354946,Tabanu hc,halt,,44.0266939,26.0158545
node/528586073,Tălmaciu,station,,45.6696135,24.2676637
node/528586358,Câineni,stop,,45.4912107,24.3022726
node/528586446,Robești,halt,,45.4513619,24.2990573
node/528586557,Betel,stop,,45.3710963,24.2950015
node/528587463,Cozia,stop,,45.3248231,24.2831374
node/528588399,Băbeni,stop,,44.9592228,24.2386884
node/528727317,Slăvitești,halt,,44.9166512,24.2293286
node/528727479,Bucșani Vâlcea,halt,,44.8466176,24.2370672
node/528727494,Fișcălia,station,,44.8168948,24.2465999
node/528727507,Orlești,halt,,44.798864,24.2461045
node/528727697,Colibași,halt,,44.5050861,24.2586522
node/530641867,Putna Seacă,station,,45.805083,27.1967761
node/530715129,Hanu Conachi,station,,45.5824838,27.5942736
node/534102065,Râșnov,stop,,45.5948483,25.4581216
node/534104552,Râșnov h.,station,,45.5892036,25.4406077
node/534110597,Zărnești,station,,45.5627599,25.3285212
node/534110598,Bartolomeu,station,,45.6625657,25.5745694
node/534111255,Cristian Hm.,station,,45.6177808,25.4798603
node/534647991,Șendreni,station,,45.4103329,27.9225504
node/534648557,Șerbeștii Vechi hc,station,,45.4219909,27.8763314
node/534649573,Vasile Alecsandri hc,station,,45.4509714,27.7961816
node/534651250,Piscu hc,station,,45.506434,27.7200628
node/534651686,Vameș,station,,45.5348021,27.7000875
node/534651693,Tudor Vladimirescu hc,station,,45.5677585,27.6399126
node/534652117,Șerbănești hc,station,,45.6139656,27.5525684
node/534652118,Liești,station,,45.6332931,27.5384662
node/534652757,Bucești hc,station,,45.6605257,27.5286614
node/534652780,Ivești,station,,45.68799,27.5165923
node/534652804,Umbrărești Hm,station,,45.7240726,27.4922108
node/534653252,Barcea,station,,45.76844,27.4751002
node/534653994,Malu Alb hc,halt,,45.7930438,27.4612723
node/534654121,Cosmești,station,,45.8596876,27.3352906
node/534654215,General Eremia Grigorescu,station,,45.8501936,27.2778377
node/535151166,Tohanu Vechi hc.,halt,,45.5748543,25.3672741
node/535151169,General Traian Moșoiu hc.,station,,45.5686958,25.3496532
node/536752658,Slatina,station,,44.4284846,24.3890043
node/539860806,Sinești Hm.,station,,44.4655,24.673124
node/545942324,Ginta,halt,,46.7412483,22.1157962
node/549209637,Corbu,station,,44.4957789,24.7089903
node/549211832,Potcoava,station,,44.4709616,24.6033675
node/549216811,Bălteni Olt,station,,44.4539712,24.521276
node/549218399,Recea Hm.,station,,44.438112,24.457753
node/560737035,,station,,44.7256687,26.2010897
node/564944146,Pricaz,halt,,45.8545823,23.1717139
node/564954194,Simeria,station,,45.8464675,23.0141114
node/566713047,Beuca,station,,44.2712427,24.9685185
node/568397542,Roșiori Est,station,,44.1106971,25.0048676
node/575156968,Barboși,station,,45.4020585,27.9882723
node/582553758,Piața Victoriei 2,stop,,44.4528649,26.0863429
node/582553764,Piața Victoriei 2,station,,44.4526258,26.086432
node/582554910,Piața Victoriei 1,station,,44.4519552,26.0870771
node/582555685,Piața Romană,station,,44.4453569,26.0976999
node/582556598,Tineretului,station,,44.4153732,26.1045107
node/582556889,Eroii Revoluției,station,,44.4037845,26.0966525
node/582558030,Aviatorilor,station,,44.4660312,26.086642
node/582558538,Constantin Brâncoveanu,station,,44.3986492,26.1091174
node/582561202,Apărătorii Patriei,station,,44.3793895,26.1350678
node/582562934,Dimitrie Leonida,station,,44.3688223,26.1435811
node/582563611,Berceni,station,,44.3612654,26.1492822
node/582975264,Grozăvești,station,,44.4427354,26.0603602
node/582984165,Lujerului,station,,44.4343812,26.0325846
node/582984656,Gorjului,station,,44.4342111,26.02128
node/582991878,Piața Muncii,station,,44.4318261,26.1386757
node/582992954,Ștefan cel Mare,station,,44.4529326,26.1046938
node/585275183,Turnu Măgurele,station,,43.7526428,24.8767527
node/591070356,Mărășești,stop,,45.8757635,27.2144449
node/591579404,Sebiș,station,,46.365196,22.1260539
node/598476300,Huși,station,,46.6753695,28.0450744
node/610921616,1 Mai,stop,,44.4710435,26.0503215
node/610921653,Statie Metrou M1 Dristor,station,,44.4190743,26.1423119
node/610921654,Dristor 2,station,,44.4204778,26.139415
node/610921655,Metrou M1 Dristor 2,station,,44.4198163,26.1392097
node/610929150,Crângași,station,,44.4519125,26.0471454
node/610963213,Halta Geoagiu,stop,,45.8841184,23.2484955
node/613505261,Vadu Crișului,station,,46.9944138,22.4966477
node/614963718,Filești,station,,45.4439205,28.0070577
node/648862819,Zagna Vădeni,halt,,45.379609,27.9627311
node/648865949,Baldovinești,station,,45.3254421,27.9067025
node/648869517,Urleasca,station,,45.1683096,27.6214175
node/648871169,Dedulești,station,,45.1093339,27.4004137
node/648871267,Găiseanca,halt,,45.091937,27.3225813
node/648873111,Vizireni hc,halt,,45.0666717,27.191837
node/648887996,Movila Oii,halt,,45.0437143,27.0728395
node/648891895,Bentu,halt,,45.0567857,26.9748416
node/648894422,Tăbărăști Sud,halt,,45.0714175,26.9241381
node/648894436,Tăbărăști,halt,,45.080964,26.9055222
node/648895277,Buzău Sud,station,,45.1213348,26.8687147
node/648896019,Buzău Nord,station,,45.1666216,26.7733006
node/648906199,Cireșu,station,,44.9706205,27.3699658
node/648909761,Gara Scărlătești hc,station,,44.9400811,27.3947677
node/648913285,Gara Dudești hc,station,,44.8888504,27.4363456
node/648915206,Gara Spicu,station,,44.8152973,27.5117792
node/648917578,Gara Murgeanca,station,,44.742065,27.574157
node/648921734,Gara Țăndărei,station,,44.647125,27.6482381
node/648921979,Platonești,station,,44.5979344,27.6773715
node/648922392,Gara Movila,station,,44.5399529,27.7175908
node/648922589,Bărăganu,station,,44.4199803,27.6968876
node/648923939,Ramificația Borcea Hm,station,,44.3857688,27.8446038
node/648923948,Ovidiu,station,,44.3747246,27.8783826
node/648925315,Dunărea Hm.,station,,44.352273,27.969174
node/648930014,Saligny Gr. Est,station,,44.2891978,28.0770756
node/648932195,Mircea Vodă,station,,44.2663169,28.1438757
node/648935223,Medgidia,station,,44.2518807,28.2717776
node/648939206,Castelu hc,station,,44.2516839,28.3347398
node/648939240,Medgidia P.C.2 h,station,,44.245086,28.31509
node/648943780,Dorobanțu,station,,44.2387406,28.3673746
node/648949709,Basarabi,station,,44.1715065,28.4183784
node/648950495,Valu lui Traian,station,,44.163177,28.50766
node/648951303,Murfatlar hc,station,,44.1661278,28.45155
node/648952125,Agigea Nord,station,,44.1269038,28.6348372
node/648961474,Tuzla Hc.,halt,,44.002824,28.6453221
node/648974293,Neptun,station,,43.8600309,28.5788237
node/676502668,Șieu,station,,47.0036333,24.6053497
node/676738490,Păuleasca Hc.,stop,,43.813245,25.4381275
node/703105378,Șintereag,halt,,47.1751092,24.2723215
node/727283547,,station,,45.8460321,26.2124627
node/744659921,Toplița,station,,46.9241308,25.3431032
node/775583639,Drăcșănei Hc.,halt,,44.228701,24.971303
node/775583652,Mihăești,station,,44.118907,24.767745
node/775583654,Jianca,station,,44.163993,24.1307718
node/775583656,Șoimu Hc.,halt,,43.7978462,25.3951991
node/775583657,Pasajul Coșoveni,stop,,44.2429172,23.9288394
node/775583659,Țigănești Hc.,halt,,43.9039621,25.3664259
node/775583670,Toporaș Hc.,halt,,44.336276,23.967004
node/775583677,Dăneasa Hc.,halt,,44.1326873,24.5756329
node/775583679,Zavestreni Hm,halt,,44.3025678,25.5921786
node/775583680,Grozăvești Hm.,stop,,44.1479153,24.2350585
node/775583682,Brăneț Hc.,halt,,44.3338617,24.2054826
node/775583702,Radomirești,station,,44.110965,24.669802
node/775583706,Videle,station,,44.2841351,25.5378458
node/775583707,Plaiul Vulcănești,station,,44.3110071,23.8536759
node/775583709,Poroschia Hc.,halt,,43.942247,25.351756
node/775583730,Fărcașele,stop,,44.1215246,24.4522055
node/775583732,Alexandria,station,,43.9645146,25.3252112
node/775583746,Olteni,station,,44.190245,25.292153
node/775583751,Buzescu Hc.,halt,,44.0097379,25.223748
node/775583753,Grădinari,station,,44.3819512,25.824678
node/775583754,Drăgănești-Olt,stop,,44.1544677,24.5445694
node/775583756,Smârdioasa Hc.,halt,,43.850895,25.426056
node/775583759,Păuleasca Hc.,halt,,43.8131138,25.4381326
node/775583770,Miroși,station,,44.4338347,24.945214
node/775583773,Ionești Hm.,halt,,44.5983398,24.8728175
node/775583778,Anghelești Hc.,halt,,44.3231016,25.6465436
node/775583779,Stoenești Hc.,station,,44.1202781,24.4940647
node/775583781,Gălăteni,station,,44.2110693,25.3704155
node/775583788,Atârnați,station,,44.136103,25.065312
node/775583801,Șopârlița Haltă,halt,,44.2731471,24.299055
node/775583803,Domneștii de Sus Hc.,halt,,44.4061239,25.8925487
node/775583804,Cârcea Hc.,halt,,44.2840106,23.8927585
node/775583806,Ulmuleț Haltă,halt,,43.733921,25.346682
node/775583817,Zîmbreasca Hc.,halt,,44.3026952,24.9668103
node/775583820,Costești,station,,44.6679003,24.8774291
node/775583825,Peretu Hc.,halt,,44.0470725,25.0955645
node/775583827,Zorile H,halt,,44.3738495,25.8032436
node/775583828,Leu Hm.,halt,,44.2000977,24.0380105
node/775583830,Ciolpani Hm.,halt,,44.243927,25.460662
node/775583837,Papa Hc.,halt,,44.184237,24.97346
node/775583844,Spineni Hc.,halt,,44.3538306,24.0715542
node/775583850,Vlăduleni,station,,44.2552781,24.3234251
node/775583852,Banu Mărăcine,station,,44.2972113,23.8587159
node/775583854,Piatra Olt,station,,44.3680208,24.2549132
node/775583865,Balaci Hm,station,,44.3562024,24.9628527
node/775583868,Surdulești Haltă,halt,,44.3933774,24.9600114
node/775583873,Alexandria Nord,station,,43.9744242,25.3099628
node/775583877,Zimnicea,station,,43.663097,25.3626208
node/775583878,Cernele,station,,44.3554211,23.755597
node/775583884,Vârtoapele Hc.,halt,,44.1678814,25.2139945
node/775583894,Cloțu Haltă,halt,,44.490851,24.908004
node/775583901,Bucureștii Noi,station,,44.475659,26.0154496
node/775583902,Cezieni Hm.,halt,,44.1527836,24.3147318
node/775583904,Chiajna,station,,44.4704456,25.9803038
node/775583905,Craiova,station,,44.3288256,23.8166865
node/775583907,Robănești Hm.,halt,,44.343837,24.008224
node/775583914,Rădoiești Hm,halt,,44.146178,25.146229
node/775583935,Plosca Hm.,station,,44.0306396,25.1427229
node/775583939,Țărțăl Hc.,halt,,44.1786398,24.0934692
node/775583944,Brâncăceni Hc.,halt,,43.882967,25.38636
node/775583946,Jiu Hm.,halt,,44.3055066,23.8457103
node/775583971,Pielești,station,,44.3189555,23.9560726
node/775583987,Romula,station,,44.1770026,24.4007382
node/775583989,Radomiru Hm.,halt,,44.1561269,24.1627102
node/775583991,Pârșcoveni Haltă,halt,,44.314059,24.274786
node/814947632,Iacobeni,station,,47.4189392,25.3089224
node/814948162,Vatra Dornei,station,,47.3522466,25.3581214
node/819330194,Independența,station,,45.4781013,27.7618128
node/825817374,Resighea,station,,47.5997713,22.282234
node/828457768,Găgeni,station,,45.0240419,25.937132
node/828462435,Mălăești,halt,,45.1239795,26.0032412
node/828462457,Poiana Vărbilău,halt,,45.1534443,25.9857599
node/843091035,Luduș,station,,46.4673689,24.0890235
node/843324716,Braniștea,stop,,45.438086,27.8340859
node/847716064,Bonțești,halt,,46.2803463,22.3092306
node/847716146,Paulian,halt,,46.3295423,22.1569501
node/864305673,Negru Vodă,station,,43.8168813,28.2238108
node/879179745,Crăciunești,halt,,47.951163,23.9845764
node/879194249,Lunca la Tisa,halt,,47.9486486,24.0439871
node/881859307,Leordina,station,,47.7853835,24.2587494
node/903613000,Șoldanu,halt,,44.2324906,26.5173717
node/904032497,Urviș,halt,,46.6786063,22.1539748
node/908133653,Oltenița,station,,44.0855063,26.6452185
node/919674173,Zalău Nord,station,,47.2207387,23.040964
node/978935020,Potîngeni H,halt,,47.3256732,27.3540225
node/979271512,Corlătești,station,,44.8998939,26.1195966
node/991006392,Ampoița,halt,,46.1146335,23.4939239
node/1015608812,Gura Putnei,station,,47.9151026,25.6237736
node/1015685121,Putna,station,,47.8702438,25.6148018
node/1015889884,Telciu,station,,47.4213917,24.3951751
node/1019754768,Deva,stop,,45.8845759,22.9102518
node/1028481548,Coșbuc,station,,47.3736276,24.3915748
node/1029214415,Halta Romuli,station,,47.540314,24.435681
node/1125383533,Râmnicu Sărat,station,,45.3794395,27.0581487
node/1138992464,Șărmășag,station,,47.3426521,22.8292127
node/1140565929,Bocșa Sălaj,halt,,47.2993662,22.9259066
node/1141881800,Borla,station,,47.2741399,22.9431144
node/1149733730,Timișoara Nord,stop,,45.7513032,21.2102449
node/1179152722,Plaiul Vulcănești,stop,,44.3110944,23.8538483
node/1179153227,Plaiul Vulcănești,stop,,44.3110685,23.8538065
node/1181425402,Criva h,stop,,44.3728338,24.2971662
node/1182565928,Săbăreni,stop,,44.5315958,25.9340788
node/1186336721,Mîndrești H,station,,47.9057126,26.7471131
node/1192494720,Giurgiu,stop,,43.8955682,25.9611304
node/1193557412,Ploiești Vest,station,,44.9245308,25.994584
node/1194083375,Ploiești Est,station,,44.9364083,26.0813529
node/1207940798,Vețel,halt,,45.9041568,22.790413
node/1209500603,Deva,stop,,45.8846067,22.9103838
node/1211022966,Jiului,station,,44.4815504,26.0415378
node/1211046023,Gura Humorului Oraș,station,,47.5508009,25.8827654
node/1216478405,Iza,station,,47.657211,24.3775214
node/1243304538,Botoșani,station,,47.7530234,26.6443224
node/1251072717,Vălenii de Munte,station,,45.1795094,26.0342198
node/1285002033,Apoldu de Sus,station,,45.8527924,23.8042961
node/1285005859,Apoldu de Jos,station,,45.8784827,23.8327445
node/1317227097,Nădejdea Hm,halt,,46.5135211,25.8350818
node/1317227714,Nădejdea Sat h,halt,,46.4892887,25.8280445
node/1318790724,Lunca de Sus,station,,46.5380059,25.9639462
node/1318790933,Tarcău h.,halt,,46.5632386,25.9726318
node/1320119316,Baciu Triaj,stop,,46.7871242,23.5273753
node/1340969013,Aleșd,stop,,47.0400136,22.3555618
node/1340993663,Câmpia Turzii,station,,46.5471887,23.8794019
node/1342101398,Cârța hc,halt,,45.7832427,24.5737279
node/1359425567,Bâlca,station,,46.1568892,26.9890388
node/1364869866,Corabia,stop,,43.7718773,24.5035511
node/1395849407,Jamu Mare,station,,45.2553219,21.4018315
node/1401612589,Sântana,station,,46.3352789,21.5077321
node/1412539846,Pișchia,halt,,45.8947289,21.3427225
node/1412539853,Fibiș,halt,,45.9540104,21.4185012
node/1412552111,Zăbrani,halt,,46.0780622,21.557239
node/1412997266,Dudeștii Noi,halt,,45.8256721,21.1101643
node/1452229804,Hunedoara-Vest,station,,45.7516273,22.8850704
node/1452236679,Canton 3 - Halta Cățănaș,halt,,45.7333682,22.8305704
node/1468442436,Mizil,station,,44.9940503,26.4376569
node/1468505195,Pătârlagele,station,,45.3244857,26.3576114
node/1490481783,Crasna,station,,46.5065123,27.8243703
node/1517731367,Târgu Secuiesc,station,Linia 2,45.9916084,26.1382099
node/1582190490,Bocșa Montană,halt,,45.3816142,21.7787432
node/1582958621,Catalina,halt,,45.9597963,26.1511619
node/1585527091,Sebeș Alba,station,,45.9577309,23.5797925
node/1591130376,Întorsura Buzăului,station,,45.6750938,26.0273012
node/1597952217,,stop,,45.2808824,26.0026265
node/1612107890,Breaza,station,,45.1728691,25.685596
node/1612676432,Ploscoș,halt,,46.6371985,23.8510923
node/1614943617,Linia 3,stop,,45.8299222,24.9758652
node/1630322887,Lutița,halt,,46.2552744,25.1880866
node/1633173747,Covasna,station,Linia 3,45.8581148,26.1466716
node/1633175828,Brateș,station,,45.8425942,26.0716837
node/1633176482,Țufalău,station,,45.8337938,26.0339677
node/1633177258,Boroșneu Mare,station,,45.8252481,26.0106487
node/1637446174,Curtici,stop,,46.3410883,21.2975996
node/1660336498,Novicior,halt,,47.773578,24.6034601
node/1660336504,Paltin,halt,,47.7803403,24.606124
node/1660336509,Novăț,halt,,47.7419335,24.5267064
node/1660336515,Glimboaca,halt,,47.7634706,24.559172
node/1660336519,Cozia,halt,,47.772049,24.5811537
node/1681441335,Suligu,halt,,47.7952331,24.6822285
node/1681441355,Coman,halt,,47.7433028,24.81675
node/1681441375,Valea Babei,halt,,47.7646813,24.7645357
node/1681441384,Faina,halt,,47.7882703,24.6941662
node/1681441436,Bardău,halt,,47.7914657,24.6259423
node/1681441460,Botizu,halt,,47.7978503,24.6481135
node/1684229283,Vulcana Pandele,stop,,45.0159719,25.4084103
node/1684570788,Sebeș Olt hc,halt,,45.6705853,24.3175008
node/1686084681,Aiud,station,,46.3126359,23.73503
node/1726765725,,halt,,46.6726042,28.0197877
node/1763295007,Cenad,station,,46.1353069,20.59516
node/1798708566,Bârlad,station,,46.2150343,27.6732486
node/1800308620,Cojocna,halt,,46.7670125,23.7899217
node/1805891030,Găești,station,,44.7139767,25.3038669
node/1807493659,Someș Odorhei,station,,47.3320636,23.2694799
node/1807854438,Benesat,station,,47.4069081,23.2907993
node/1811620305,Mireșu Mare,station,,47.4992852,23.3407509
node/1825192320,Moacșa,stop,,45.8577018,25.9389959
node/1826862092,Ciocmani,halt,,47.285038,23.3591377
node/1827860562,Cuciulat,station,,47.3201037,23.4142185
node/1827860778,Băbuțeni,station,,47.2969057,23.393605
node/1827972675,Surduc Sălaj,station,,47.2485407,23.3391131
node/1828226122,Bicaz,station,,46.9084995,26.0987616
node/1828348264,Bratca,stop,,46.9286986,22.6028377
node/1828364747,Halta Măgurele Sud,station,,45.0829468,26.033888
node/1829577110,Jimbolia,station,,45.8002033,20.7184729
node/1832344898,Luncavița,halt,,45.0811992,22.2883055
node/1832345043,Poarta,stop,,45.1111106,22.296356
node/1832345487,Slatina-Timiș,stop,,45.2495587,22.3031427
node/1835570489,Malnaș hc,stop,,46.0012633,25.8415671
node/1835594624,Angheluș,halt,,45.8648053,25.8888717
node/1835594625,Bita,halt,,45.8410364,25.9723911
node/1837093834,Suplacu de Barcău,station,,47.2620185,22.5479421
node/1840423254,Mirșid,station,,47.2312629,23.1324927
node/1841208301,Popeni,halt,,47.2505027,23.1703882
node/1842607142,Derșida,halt,,47.3844953,22.7912873
node/1843216767,Lăpugiu,halt,,45.894175,22.4790796
node/1843216911,,halt,,45.9050255,22.4999418
node/1843255047,Traian Vuia,halt,,45.8120769,22.0247509
node/1843255087,Făget,station,,45.8488244,22.1688772
node/1843682473,Nușfalău,halt,,47.2143075,22.6922419
node/1843922791,Ucea,station,,45.7922218,24.6773558
node/1843922824,Arpaș,station,,45.784056,24.6116305
node/1843925340,Voila,station,,45.8192514,24.8339961
node/1849041394,Babadag,station,,44.8922135,28.7061401
node/1850441928,Seini,station,,47.7378875,23.2846991
node/1850577848,Gâlgău haltă,halt,,47.2685637,23.6691061
node/1857249663,Cițcău,station,,47.2127351,23.7769187
node/1857578282,Gâlgău,station,,47.2799983,23.697646
node/1860733638,Sovata,stop,,46.5794532,25.0494119
node/1860777626,Văleni Meteș,halt,,46.0950645,23.4229289
node/1860777869,Șard Ighiu,halt,,46.1228004,23.5255699
node/1861286063,Erghevița,halt,,44.6074848,22.7888538
node/1861506726,Gura Motrului,stop,,44.5735994,23.4325454
node/1861506728,Gura Motrului,stop,,44.5736566,23.4325636
node/1861640724,Gârbovu,stop,,44.7321253,23.3575966
node/1861641869,Km 49+800,halt,,44.9110641,23.1379605
node/1861841452,Golenți,stop,,43.981042,23.0524751
node/1861841454,Golenți,stop,,43.9810759,23.0524534
node/1861841658,Băilești,stop,,44.03347,23.3485431
node/1861841664,Băilești,stop,,44.033516,23.3485388
node/1861842320,Jiu Hm.,stop,,44.3055962,23.845737
node/1862618221,Bungeţel,halt,,44.5629676,23.4998071
node/1862618327,Turburea Hm.,stop,,44.7145574,23.5109467
node/1862715347,Șercaia,station,,45.8162852,25.1491028
node/1862770900,Ticvanu Mic h.,station,,45.0915368,21.6708218
node/1862845327,PO Timișoara CET,halt,,45.6968853,21.1987153
node/1863116734,Ghimbav,station,,45.6697766,25.5092325
node/1863117045,Ozun,station,Linia 3,45.7995464,25.8397247
node/1863223227,Cândești,halt,,45.2451499,26.714976
node/1865639260,Carei,station,,47.6968151,22.4603137
node/1866307734,Almăj,halt,,44.4346695,23.6979684
node/1867201989,Magura Șimleului,halt,,47.2330623,22.7838667
node/1867412542,Chinezu,halt,,45.946163,21.0514716
node/1870509065,Suceag hc,stop,,46.7978806,23.4835945
node/1870509273,Nădășel hc,halt,,46.8151869,23.4257569
node/1879634465,Moinești,station,,46.4693961,26.4883064
node/1879656509,Comănești,station,,46.4209655,26.4505035
node/1900978068,Codlea,station,,45.6935223,25.4569323
node/1916010664,Sântana,stop,,46.3351126,21.5075685
node/1923465021,Floreni,station,,47.3593304,25.2219309
node/1924092089,Apa,station,,47.7680189,23.1876619
node/1925347133,Medieșu Aurit,station,,47.7751522,23.12045
node/1936653210,Sinaia,stop,,45.3522936,25.5529579
node/1936653534,Poiana Țapului,halt,,45.3907198,25.5413933
node/1936798179,Predeal,station,,45.5050589,25.5749331
node/1936859070,Râșnov,stop,,45.5948284,25.4581978
node/1942494530,Sibiel,stop,,45.7656283,23.9407612
node/1942558301,Săliște,station,,45.807406,23.9000931
node/1942778628,Vințu de Jos,stop,,45.9888225,23.4980872
node/1942778645,Vințu de Jos,stop,,45.9888628,23.4980454
node/1942849272,Stația Zam,stop,,46.0026646,22.4410722
node/1948823677,Fălticeni,station,,47.463669,26.3098116
node/1951089204,Stamora Moravița,station,,45.2732773,21.2550556
node/1962786788,Mangalia,station,,43.8221377,28.5816815
node/1979808109,Domănești,halt,,47.6969588,22.5911582
node/1983479493,Șilindru,station,,47.4357744,22.0484512
node/1986760675,Valea lui Mihai,station,,47.5273476,22.1329078
node/1987330341,Săcueni Bihor,station,,47.3601466,22.0778745
node/1988242227,Cadia,halt,,47.3262936,22.0649573
node/1994460631,Săldăbagiu,halt,,47.3051359,22.4596362
node/1994460720,Marginea Bihor,stop,,47.3035909,22.4173765
node/1994473849,Balc,halt,,47.2970211,22.5235347
node/1996155406,Biharia,station,,47.1566199,21.9123602
node/1996550393,Anghel Saligny,station,,44.405386,26.2089197
node/1997309748,Belcești,station,,47.2977328,27.081715
node/1997310104,Hodora,halt,,47.3299527,27.0139978
node/2012910935,Săcădat,halt,,47.0510007,22.1113235
node/2017968766,Rontău,halt,,47.0017752,21.9858826
node/2018383621,Clujana h,halt,,46.7851613,23.6122285
node/2022062828,Zlătunoaia,halt,,47.6942975,27.0570245
node/2025242436,Bucecea,station,,47.7618428,26.4417225
node/2029420901,Salonta,station,,46.8095373,21.6420595
node/2037152654,Тересва,station,,47.9957291,23.7004651
node/2039818141,Tinca,station,,46.7818931,21.9273316
node/2046078443,Alba Iulia,stop,,46.0561086,23.5767499
node/2050450319,Trușești,station,,47.7654196,27.004586
node/2066642509,Gara Șuncuiuș,station,,46.9488067,22.5373071
node/2068643573,Tălagiu,halt,,46.2774739,22.4804526
node/2068713710,Vadu Crișului halta,halt,,46.9777861,22.5084636
node/2068713810,Peștera,halt,,46.9605518,22.5128972
node/2071556386,Pantelimon Sud,halt,,44.4777309,26.1788951
node/2073409496,Săcălaz,station,,45.76779,21.1050645
node/2073415772,Beregsău,station,,45.7742967,21.0110724
node/2073415776,Clarii Vii,station,,45.7932223,20.7992568
node/2084393123,Dorohoi,station,,47.9617892,26.3926958
node/2084955836,Budila,station,,45.682005,25.8135526
node/2088363038,Hărman,station,,45.6980871,25.6871262
node/2090457170,Cornățel Moldova,halt,,46.1323335,27.0456225
node/2104247653,Banloc,halt,,45.4007364,21.1365533
node/2104323180,Aghireș hc,station,,46.8733153,23.2471325
node/2104333947,Berheci,station,,45.9750384,27.43917
node/2104333951,Golești,station,,44.8365343,24.9664719
node/2104333955,Pogoanele,station,,44.8848269,26.9989859
node/2104333958,Salva,station,,47.3021809,24.3400746
node/2104351103,Tulucești,station,,45.5625194,28.0495246
node/2104351104,Udresti hc,station,,45.1829956,27.2296537
node/2104351105,Zoița Hm,halt,,45.2854011,27.0117553
node/2104351130,Șivița,halt,,45.6103143,28.0624769
node/2104357874,Câmpia Sălăjeni Hc,halt,,47.3193139,22.8971282
node/2104357875,Dragalina Hm,station,,46.1605426,27.5991518
node/2104357876,Gălbinași Hm,station,,44.3130516,26.4132946
node/2104357877,Tutova,station,,46.1094449,27.5533125
node/2104366266,Canta hc,station,,46.4635207,24.5482599
node/2104366271,Cipău hm,station,,46.434207,24.272922
node/2104366275,Coltan,halt,,45.368126,21.8014219
node/2104366287,Gârbovu,station,,44.7322485,23.3573578
node/2104396710,Conacul Iosif,halt,,45.5728104,21.2823442
node/2104396712,Lespezi Bacău hc,halt,,46.6657859,26.7683333
node/2104396713,Moftin,station,,47.6970739,22.6438859
node/2104396715,Pârscov,station,,45.278685,26.5512843
node/2104396716,Rădești Halta,station,,45.0743303,25.0012114
node/2104396717,Stâlpeni,station,,45.047109,24.9823136
node/2104396719,Sălcuța hm,station,,44.1657477,23.7090832
node/2104456224,Argeșel,station,,45.2762275,25.1155893
node/2104456226,Drăghici,halt,,45.1021952,25.0135068
node/2104456228,Dumbrava Bihor,halt,,46.7762254,22.0846784
node/2104459267,Căpâlna halta,halt,,46.7304163,22.1155868
node/2104459268,Uileacu Beiuș,halt,,46.6757279,22.2232517
node/2104483005,Vașcău,station,,46.4810987,22.4750721
node/2104503587,Tăut Halta,halt,,46.7429097,21.8279966
node/2111299929,Sâncel,halt,,46.199901,23.9363901
node/2126282888,Depoul București Triaj,halt,,44.4916448,26.002356
node/2126303810,Pajura,station,,44.4793641,26.0233283
node/2134661782,Târgu Ocna,station,,46.2793447,26.6261188
node/2143113625,Ghiorac,halt,,46.7103991,21.6825968
node/2144709872,Titan,station,,44.4257917,26.162722
node/2145451016,Aluniș Mureș,station,,46.9001592,24.8236752
node/2150748360,Cefa,station,,46.9037495,21.7318347
node/2152912967,Bistra Mureșului,station,,46.9606246,24.9085142
node/2155870540,Deda,station,,46.9414407,24.8660387
node/2156048357,Morăreni,halt,,46.9230746,24.8198444
node/2163934143,Aluniș,halt,,46.8728561,24.7936216
node/2173270327,Sărmașu,halt,,46.7523956,24.1568135
node/2173372493,Halta Balda,halt,,46.7306222,24.1463439
node/2173424797,Miheșu de Câmpie Sat,halt,,46.712146,24.1534034
node/2175143159,Halta Zau de Câmpie,halt,,46.6134317,24.1249445
node/2179482105,Sânger Tăureni,halt,,46.5485436,24.1233963
node/2187060852,Gligorești,station,,46.4417795,23.9953155
node/2187679299,Girnita,stop,,44.6136563,22.8487764
node/2187679309,Girnita,stop,,44.6137855,22.8493007
node/2188836678,Socola,station,,47.1388769,27.6064381
node/2191415707,Sânzieni,halt,,46.0457566,26.1446593
node/2192079868,Cetățuia,halt,,45.6637755,20.8976678
node/2192079893,Cenei,halt,,45.709884,20.8877284
node/2192284757,Teremia Banat,halt,,45.9281999,20.5287643
node/2192284780,Nerău,halt,,45.9622401,20.5521744
node/2192523766,Ioaniș,station,,46.6752582,22.2711006
node/2193811031,Caransebeș,stop,,45.4203657,22.1948074
node/2198010447,Piatra Craiului,station,,46.9474643,22.7009107
node/2199303051,Călărași Turda,station,,46.4875101,23.8852135
node/2200115477,Valea Drăganului,halt,,46.9345799,22.8440868
node/2200185435,Poieni,station,,46.914021,22.8614104
node/2204998863,Bănila Câlnic,halt,,45.3546645,21.8896251
node/2204999040,Valeadeni,halt,,45.4206622,22.0348057
node/2204999171,Cornuțel Banat,station,,45.4297236,22.0938425
node/2205631790,Moțăieni hc,stop,,45.09814,25.4224036
node/2205762610,Brăișoru,station,,46.8805127,22.9198324
node/2207059931,Hirisești,stop,,44.5171757,24.7560478
node/2207059932,Hirisești,stop,,44.517227,24.755984
node/2207060214,Bradu de Sus,stop,,44.8138852,24.9153894
node/2222311545,Ocna Mureș,station,,46.3910065,23.8580015
node/2225431198,Reșița Sud,station,,45.2915375,21.8867876
node/2228856079,Agigea Ecluză Hm.,station,,44.0895208,28.6243926
node/2232362775,Mirăslău,halt,,46.3612724,23.7213831
node/2234157091,Bâldana,station,,44.6205991,25.7815972
node/2235196597,Dej Călători,station,,47.1415273,23.8943143
node/2235196748,Iclod,stop,,46.9779913,23.8164142
node/2235454255,Beclean pe Someș,station,,47.1767061,24.1821379
node/2239803124,Halta Brusturoasa,halt,,46.5185123,26.1805081
node/2239803648,Anina,station,,45.0895259,21.8522623
node/2242902895,Băile Herculane,stop,,44.8626915,22.38774
node/2246909458,Tălmaciu,stop,,45.6697681,24.2676969
node/2247720638,Șieuț,halt,,46.9787301,24.6456494
node/2251139442,Linia 2,stop,,45.8299575,24.9758968
node/2251255200,Vlădeni,station,,47.4062343,27.3241639
node/2251279852,Iacobeni Vechi,halt,,47.4464741,27.3052069
node/2252375754,Apahida,station,,46.7915298,23.7426461
node/2252377460,,stop,,46.7846371,23.5869064
node/2252377473,,stop,,46.7847258,23.5868698
node/2252377488,,stop,,46.7847603,23.5868526
node/2252705611,Podu Iloaei,station,,47.2090706,27.2837668
node/2254653684,Gara Sârca,station,,47.2156742,27.1513251
node/2255170912,Ciurea,station,,47.0967872,27.5671839
node/2255538529,Lețcani,station,,47.1945067,27.3921238
node/2258802692,Coșlariu Nou,station,,46.1727447,23.6769562
node/2259046204,Pitești Nord,station,,44.869893,24.8612331
node/2259846038,Curtea de Argeș,stop,,45.1362433,24.6723126
node/2265007182,Costești Iași,halt,,47.2275912,26.9243278
node/2265007183,Pietrișu,halt,,47.208993,26.9535074
node/2270205803,Sighetu Marmației,station,,47.9357987,23.8853623
node/2272592816,Berchișești,station,,47.5156693,26.0205191
node/2273476125,Radomirești,stop,,44.1108728,24.6693427
node/2273476128,Radomirești,stop,,44.1109134,24.6693539
node/2278465667,Jijia,halt,,47.6551088,27.0907532
node/2281857395,Ploiești Est Post 1,station,,44.9394726,26.0585082
node/2288080832,Ditrău,station,,46.7977406,25.4761531
node/2292136678,Cărbunești,station,,44.955076,23.5084759
node/2294779467,,station,,44.1530908,25.15999
node/2299262046,Cuci Hm,station,,46.4602902,24.1635969
node/2306302831,Livadia,halt,,45.4944115,23.1289623
node/2308901322,Valea Sadului,station,,45.1828301,23.3848823
node/2309795326,Ciopeia,halt,,45.5600115,22.9764345
node/2309808765,Ohaba de Sub Piatră,station,,45.5487124,22.9898526
node/2309841053,Gara Pui,station,,45.5193461,23.0838972
node/2309912774,Subcetate,station,,45.5950051,22.992571
node/2310292661,Berbești,station,,44.990226,23.873526
node/2310293380,Berbești,stop,,44.9902547,23.8735978
node/2318449834,Halta Ideciu de Jos,halt,,46.8171311,24.7590752
node/2321706745,Plopi,halt,,45.6353766,22.9983329
node/2321834828,Gara Călan - Băi,station,,45.7591573,23.0006209
node/2321948751,Batiz,halt,,45.7781719,22.9974238
node/2321963501,Ruși,halt,,45.6962848,22.9890606
node/2324540378,Pietrele Albe,station,,45.306842,23.3838254
node/2329046327,Gara Râpa de Jos,station,,46.9226799,24.7810019
node/2339443755,Черквица,station,,43.7050576,24.8388405
node/2341633849,Gara Reteag,station,,47.1875874,24.0229906
node/2341784626,Halta Uriu,halt,,47.1944437,24.0656481
node/2344385948,Gara Albeni,station,,45.0135073,23.5690636
node/2371776390,,stop,,47.8623132,23.4090418
node/2386544915,Goioasa,station,,46.4496003,26.2922941
node/2393675232,Lehliu,station,,44.4380255,26.8578391
node/2397522026,Ghimeș,station,,46.5682877,26.0891994
node/2399028615,Milova,stop,,46.0939382,21.7867942
node/2399869744,Golenți,stop,,43.9809601,23.0525302
node/2400211878,Palanca,station,,46.5346772,26.1296725
node/2400410134,Păuliș,stop,,46.106917,21.6109764
node/2400684895,Vâscoza,halt,,45.3525928,23.2012868
node/2401541494,Depou Petroșani,halt,,45.4324643,23.3603327
node/2401544979,Petroșani Triaj,halt,,45.4371933,23.3602697
node/2408681647,Costinești Tabără,halt,,43.9473992,28.6314784
node/2411903743,Costinești,station,,43.9592432,28.6361868
node/2414439473,Susani Bega,halt,,45.8080829,22.0009145
node/2461582177,Curtea de Argeș,station,,45.1361252,24.672349
node/2485129048,Simeria,stop,,45.8467746,23.0131167
node/2485129052,Simeria,stop,,45.8468201,23.0131569
node/2498606016,Oradea,station,,47.0700561,21.9361822
node/2513692865,Sărmaș Runc hc,halt,,46.8887322,25.435411
node/2514954423,Predeal,stop,,45.5050922,25.5753951
node/2515451515,Pădureni Timiș,station,,45.5982838,21.192536
node/2563774253,Sinia,stop,,45.6847428,21.7182315
node/2565537454,Oravița,station,,45.037197,21.6871295
node/2581097636,Măldăeni,halt,,44.1136661,24.8837221
node/2594052992,Sângiorgiu Nou,halt,,46.9619118,24.3647122
node/2598138469,Mărișelu,station,,47.0187274,24.5012646
node/2606863217,Abrămuț,halt,,47.3208759,22.2545759
node/2606863441,Târgușor Bihor,halt,,47.3750514,22.1694081
node/2614134388,Capu Midia,station,,44.3501253,28.6604643
node/2614134391,Dor Mărunt,station,,44.4348074,26.9574372
node/2614134392,Dragoș Vodă,station,,44.4309164,27.1866091
node/2614134393,Dâlga,station,,44.4334457,27.0461333
node/2614134394,Ciocârlia,station,,44.0996035,28.2778996
node/2614134395,Jegălia,station,,44.4226594,27.5841762
node/2614134397,Lumina,halt,,44.3033401,28.5689691
node/2614134398,Năvodari,station,,44.312154,28.5967102
node/2614134399,Nazarcea,station,,44.2563331,28.4657991
node/2614134400,Nisipari,halt,,44.2284349,28.3966007
node/2614134401,Perișoru,station,,44.4243929,27.5058313
node/2614134404,Saligny Grupa Est,station,,44.3009933,28.0664043
node/2614134405,Valea Dacilor,halt,,44.1873897,28.306825
node/2614134579,Cobadin,station,,44.0585477,28.244905
node/2614134874,Ștefan Vodă,station,,44.3238922,27.3279618
node/2614134875,Ștefan cel Mare,station,,44.4214343,27.6384244
node/2614135474,Borlești-Argeș,station,,44.9412194,24.772474
node/2614135475,Bucșenești,station,,45.0152662,24.9661447
node/2614135476,Băiculești,station,,45.0552246,24.6944299
node/2614135477,Ciumești,station,,44.9263481,24.8848263
node/2614135479,Câmpulung,station,,45.2594329,25.0375141
node/2614135480,Gropeni,station,,44.881344,24.8841029
node/2614135481,Lăzărești,station,,45.1479267,24.9910881
node/2614135482,Merișani Hm,halt,,44.9654453,24.7497788
node/2614135483,Mioveni,station,,44.9521582,24.9108796
node/2614135484,Ion C. Brătianu,station,,44.8628447,24.9198851
node/2616338106,Bursuceni,halt,,47.6668658,26.4484009
node/2617176035,Verești,station,,47.6078087,26.4389556
node/2617997694,Brădet Hm,halt,,45.75408,25.248749
node/2617997699,Valea Homorod h,halt,,45.7508163,25.3107253
node/2618001603,Vlădeni Ardeal,station,,45.7635043,25.3743151
node/2618002398,Dumbrăvița Bârsei Hm,halt,,45.7625705,25.4310248
node/2618004595,Mândra Oltului Hm,halt,,45.8242643,25.0500118
node/2618004596,Perșani,station,,45.7867375,25.1985352
node/2630291318,Trifești,halt,,46.8797216,26.8989607
node/2657385990,București Băneasa,stop,,44.4847503,26.0719609
node/2657762635,Cetatea,halt,,43.9388078,25.9546757
node/2657763952,Bălănoaia,station,,43.947682,25.9304536
node/2657765210,Oncești,halt,,43.9431871,25.894674
node/2657767169,Stănești,station,,43.9489576,25.8430322
node/2657767492,Chiriacu,station,,43.9810925,25.7638582
node/2657770435,Toporu,station,,44.0336663,25.6557593
node/2657775840,Răsuceni,halt,,44.0566479,25.6350759
node/2657775959,Drăgănești-Vlașca,station,,44.0964052,25.5855392
node/2657776271,Rădulești,station,,44.2268059,25.5413954
node/2657778643,Târnavele,station,,44.1591924,25.5468493
node/2667550077,Șercaia hc,halt,,45.8250437,25.1440855
node/2667551265,Beclean pe Olt h,stop,,45.8316951,24.9157793
node/2667557557,Dridif hc,halt,,45.8248674,24.8752374
node/2667559594,Olteț hc,halt,,45.8043628,24.757866
node/2667564731,Scoreiu hc,halt,,45.7710061,24.5304601
node/2667565742,Sărata Colun hc,halt,,45.7627983,24.5024864
node/2667566462,Porumbacu,station,,45.7660922,24.4559964
node/2667568455,Avrig,station,,45.732093,24.3742321
node/2667569569,Mârșa hc,halt,,45.7020565,24.3610005
node/2667571846,Racovița,station,,45.6855947,24.3365585
node/2667582793,Veștem hc,halt,,45.7223968,24.2272633
node/2667585928,Mohu Hm,halt,,45.7405557,24.212774
node/2667589992,Atelier Zona h,halt,,45.7893242,24.1764885
node/2667591351,Cristian Sibiu,station,,45.7763281,24.0250924
node/2667593089,Orlat,station,,45.761365,23.9716371
node/2667599761,Aciliu,halt,,45.8158113,23.8674686
node/2667615073,Miercurea Băi,halt,,45.9087949,23.7385875
node/2667617206,Cunța,station,,45.9282573,23.7190955
node/2667618953,Cut,halt,,45.9247291,23.6620065
node/2667620660,Răhău,halt,,45.9249487,23.6280949
node/2667623069,Sebeș Glod,halt,,45.9721004,23.5598211
node/2668420670,Blandiana,station,,45.9666667,23.4402561
node/2668420671,Tărtăria,halt,,45.9483314,23.4108194
node/2668421174,Balomiru de Câmp,halt,,45.9334736,23.3650687
node/2668421268,Șibot,station,,45.9292148,23.3306097
node/2668421346,Aurel Vlaicu,halt,,45.8989675,23.2700079
node/2668428620,Turdaș,station,,45.8366299,23.1141569
node/2668430286,Simeria Veche,halt,,45.8373947,23.0547619
node/2668434196,PO Gurasada,halt,,45.9434535,22.5857361
node/2668435440,Burjuc,halt,,45.949364,22.4883643
node/2668436413,Petriș pe Mureș,halt,,46.0140092,22.396838
node/2668437215,Ilteu,station,,46.0070527,22.3548386
node/2668449730,Căpruța,halt,,46.0848769,22.0224115
node/2669004848,Valea Muresului,halt,,46.0307834,22.089227
node/2669006058,Bârzava,station,,46.1021784,21.9970812
node/2669007852,Păuliș,station,,46.107113,21.6108815
node/2669008282,Halta Păuliș,halt,,46.1213844,21.5860419
node/2669009276,Cicir,halt,,46.1682266,21.4941996
node/2669010612,Depoul Arad,halt,,46.1829037,21.3425373
node/2669011096,Șofronea,station,,46.277203,21.3143584
node/2669012975,Sântimbru halta,halt,,46.1366253,23.6520952
node/2669012976,Sântimbru,station,,46.1267194,23.6321754
node/2669013257,Bărăbanț,station,,46.0907953,23.5992156
node/2669186576,Găneasa halta,halt,,44.3950559,24.273235
node/2669191437,Găneasa Olt,halt,,44.4005337,24.2657392
node/2669196602,Arcești,station,,44.453766,24.2571073
node/2669198928,Drăgășani,station,,44.6629934,24.2574504
node/2669201448,Călina,halt,,44.71128,24.2569037
node/2669202768,Zăvideni,station,,44.7543878,24.2480414
node/2669209636,Ionești,station,,44.8731803,24.2312231
node/2669213310,Băbeni,station,,44.9593304,24.2387289
node/2669214002,Tătărani,halt,,44.9827709,24.2459017
node/2669215108,Govora,station,,45.0240276,24.2832415
node/2669215937,Râureni,station,,45.0608548,24.3300346
node/2669215938,Râureni haltă,halt,,45.038527,24.3010264
node/2669222356,Călimănești,station,,45.2357801,24.354876
node/2669230519,Păușa H.,halt,,45.2631875,24.3232691
node/2669231099,Balota,halt,,45.4340531,24.2966645
node/2669234978,Mănăstirea Turnu,halt,,45.2890667,24.3030978
node/2669248288,Lotru,station,,45.3471276,24.2745529
node/2669262831,Cornet,station,,45.401117,24.300348
node/2669267222,Câineni,station,,45.4911554,24.3023007
node/2669277694,Valea Mărului,station,,45.601147,24.2641183
node/2669282351,Râu Vadului,halt,,45.524849,24.2719319
node/2669285763,Valea Fratelui,halt,,45.5478366,24.2690975
node/2669898915,PO Doclin,halt,,45.3069197,21.6368498
node/2670403441,Simeria Triaj,station,,45.8280952,23.0132346
node/2670404147,Băcia hm,stop,,45.7952532,23.0009782
node/2670406021,Măceu,halt,,45.6656939,22.993563
node/2670406769,Bretea Streiului,station,,45.6529215,22.9963271
node/2670408416,Covaragiu,halt,,45.6043812,23.0018142
node/2670410124,Băiești,halt,,45.5358526,23.0173055
node/2670410408,Rușor,halt,,45.5321613,23.0260634
node/2670412106,Ponor,halt,,45.5046806,23.1199079
node/2670413560,Baru Mare,station,,45.474956,23.1449281
node/2670414067,Baru Mare halta,halt,,45.467601,23.1592461
node/2670416341,Merișor,station,,45.4557289,23.2317824
node/2670416705,Crivadia,station,,45.4636024,23.197047
node/2673373726,Luica,halt,,44.2250994,26.5640214
node/2714570474,Țânțăreni,station,,44.5979301,23.5047175
node/2715765833,Florești,halt,,44.6237777,23.5139689
node/2715768079,Gilort,station,,44.6563311,23.5238283
node/2715777645,Turburea,station,,44.7145394,23.511224
node/2715782304,Musculești,halt,,44.8320313,23.5105241
node/2715782535,Bărbătești,station,,44.8718036,23.5114259
node/2715785096,Jupânești,station,,44.9093813,23.5189841
node/2719432215,Băbeni,stop,,44.9592278,24.2386281
node/2724122208,Pojogeni,station,,44.9921498,23.4853951
node/2724122780,Copăcioasa,station,,45.0245827,23.4312589
node/2724123772,Scoarța,halt,,45.0095082,23.459091
node/2724129349,Budieni,halt,,45.0212433,23.3983271
node/2724131774,Lunca Budieni,station,,45.0201907,23.3590256
node/2724147040,Ramificația C.A.M.,halt,,45.0435872,23.2851786
node/2724149279,Ezureni,halt,,45.0899959,23.325208
node/2724149796,Parangu,station,,45.1105544,23.3428211
node/2724160062,Km. 105+600,halt,,45.2845448,23.3894736
node/2724165140,Lunca Jiului,halt,,45.4025587,23.3726381
node/2724172982,Peștera Bolii,halt,,45.4504127,23.3185078
node/2724173835,Bănița,halt,,45.4477092,23.2622399
node/2727325201,Șirineasa,halt,,44.9384015,24.1723888
node/2727331229,Popești Vâlcea,station,,44.9862068,24.0854347
node/2727337427,Copăceni,station,,44.9888498,23.9724863
node/2727346695,Alunu,station,,44.9870442,23.8254883
node/2727352635,Cernișoara,halt,,44.9863513,24.0443581
node/2727358978,Vinerea,halt,,45.8826624,23.3487976
node/2727363707,Cugir,stop,,45.8316488,23.3737977
node/2727377252,Cugir Gr. A,halt,,45.8522813,23.3633896
node/2727377489,Bârcea Mică,station,,45.8314293,22.9486265
node/2727378784,Peștișu Mare,halt,,45.8019252,22.9316155
node/2727391029,Agârbiciu,halt,,46.0686245,24.1891332
node/2727571361,Antestație Bărăbanț,halt,,46.102052,23.6075629
node/2727572525,Bărăbanț Nord h,halt,,46.1066311,23.5813911
node/2727578403,Tăuțu Ampoilui,halt,,46.0968898,23.4670286
node/2727585351,Poiana Ampoiului,halt,,46.0884876,23.3930117
node/2727588334,Prisaca Ampoiului,halt,,46.0990443,23.331105
node/2727589740,Feneș,halt,,46.0929068,23.3016932
node/2727593589,Zlatna Technica,station,,46.0870625,23.2723698
node/2727599179,Zlatna h.,halt,,46.1071835,23.2264567
node/2727605231,Viile Giarmata,halt,,45.8002646,21.2918391
node/2727613168,Cerneteaz,halt,,45.8381837,21.2838626
node/2727621757,Bencei,halt,,45.9262728,21.3810945
node/2727628563,Șarlota,halt,,45.9800898,21.4969538
node/2727631779,Alluș,halt,,46.0419785,21.4992513
node/2727640545,Neudorf,halt,,46.0749535,21.6193813
node/2729092664,Ohaba,halt,,45.887207,22.4453261
node/2729101561,Holdea,station,,45.8943895,22.3934427
node/2753447523,Lupeni,station,,45.3431602,23.1847416
node/2787091204,Sândominic,halt,,46.5870951,25.773916
node/2798535984,Pirtești,halt,,47.6451704,25.9679497
node/2798789246,Sarateni Ialomița,halt,,44.6419743,26.9304364
node/2808004468,București Obor,stop,,44.4489751,26.1405023
node/2808008961,București Obor,stop,,44.4490559,26.1405624
node/2817755345,Politehnica,stop,,44.4352393,26.0555425
node/2817781098,Eroilor,station,,44.4350477,26.0756528
node/2817826933,Timpuri Noi,stop,,44.4165968,26.1137169
node/2817826951,Nicolae Grigorescu 2,station,,44.4133084,26.160902
node/2818112595,Basarab 2 - M4,station,,44.4508289,26.0684779
node/2818112596,Basarab 1 - M1,station,,44.4507456,26.068372
node/2818113803,Gara de Nord 2,station,,44.4473488,26.0738048
node/2818299447,Politehnica,stop,,44.4352968,26.0552254
node/2820148778,Cața,halt,,46.0919941,25.2703296
node/2820172655,Feldioara,station,,45.8252249,25.5867842
node/2820173903,Halta Rotbav,halt,,45.841333,25.5633342
node/2820175652,Apața Apáca,station,,45.9524742,25.5360275
node/2820179290,Ormeniș,halt,,46.000986,25.556739
node/2820179632,Gara Racoș,station,,46.0217515,25.4216291
node/2820180317,Mateiaș,halt,,46.0286672,25.3821922
node/2820181444,Rupea,station,,46.017855,25.2782599
node/2820186042,Paloș Ardeal,halt,,46.1161953,25.234484
node/2821065651,Daneș,station,,46.2250083,24.7033572
node/2821074576,Luna,halt,,46.2201499,24.6194862
node/2821081025,Ațel,station,,46.1966956,24.4746304
node/2821095136,Micăsasa,station,,46.089436,24.1119706
node/2821095599,Lunca,halt,,46.1031368,24.0518539
node/2821099030,Valea Lungă,station,,46.118771,24.035346
node/2821099032,Glogoveț,halt,,46.135062,24.0045567
node/2821099990,Mănărade,station,,46.1448915,23.9769604
node/2821103766,Câmpu Libertății,station,,46.1723393,23.9400997
node/2821113724,Crăciunel,station,,46.1726909,23.8433926
node/2844677026,Jiului,stop,,44.4822856,26.041123
node/2844677033,Jiului,stop,,44.4809419,26.0419778
node/2844729447,Grivița,stop,,44.4612896,26.0578037
node/2844885590,Gara de Nord 2,stop,M4,44.4477418,26.0730509
node/2871134997,București Sud Gr. Călători,station,,44.4247938,26.2250865
node/2914035054,Bota Sat,halt,,46.6605862,24.1757368
node/2914043536,Țăgșor,halt,,46.7965841,24.2133605
node/2914043794,Sânmihaiu de Câmpie,stop,,46.8939713,24.3397399
node/2914045554,Chiraleș,halt,,47.0843475,24.313887
node/2915035529,Dealu Robului h,halt,,44.1271282,23.694012
node/2915704087,Halta Bordei,halt,,44.3211446,23.8343839
node/2929550691,Titu,station,,44.6617532,25.5694886
node/2941528209,Slănic,station,,45.2317521,25.9387561
node/2964250652,Pescăruș Hc.,halt,,43.8996437,28.6138273
node/2970020493,Nimigea halta,halt,,47.2333332,24.2784605
node/2970033159,Cociu,halt,,47.1970757,24.2316985
node/2983660745,Preasna,station,,44.4450503,26.7523154
node/2985894494,Tirol,halt,,45.3376952,21.5997726
node/2998211894,Roșu,station,,47.3536883,25.3034735
node/3007969728,Pâncota,halt,,46.321579,21.6779422
node/3011981063,Surduc Banat,station,,45.2647053,21.5859201
node/3020799962,Măureni,halt,,45.4228072,21.5104931
node/3020799963,Gherteniș,halt,,45.421396,21.5878391
node/3020799964,Berzovia,station,,45.4185016,21.6326934
node/3020912472,Bocșa Română,halt,,45.3770451,21.7086705
node/3020912473,Moniom,station,,45.3529391,21.8292464
node/3020912475,Câlnic,halt,,45.3359297,21.85362
node/3020912476,Comoraste,halt,,45.1786317,21.5554506
node/3020912477,Gradinari Caras,station,,45.1174801,21.5957316
node/3020912478,Agadici h.,station,,45.076552,21.7027504
node/3046352504,Câmpu Cetății,halt,,46.660047,24.9726576
node/3046432482,Gara Mică Sovata,halt,,46.5989318,25.0679398
node/3048949696,Dealu Ștefăniței,station,,47.5812606,24.4219937
node/3085284941,Câmpina,station,,45.1321872,25.7116461
node/3099010373,Birda,halt,,45.4425346,21.3285483
node/3120773397,Florești Prahova,station,,45.0298603,25.8101181
node/3120794034,Breaza Nord,station,,45.2149552,25.6482366
node/3120794072,Nistorești,station,,45.1944782,25.6724006
node/3120796507,Sinaia Sud,halt,,45.3380981,25.5530085
node/3120802208,Bobolia,halt,,45.0909702,25.7467894
node/3120804410,Buda,station,,44.9635604,25.925618
node/3120807724,Valea Călugărească,station,,44.9516431,26.1660749
node/3120812929,Brazi,station,,44.8629401,26.0270088
node/3120813828,Crivina,station,,44.7594603,26.0261025
node/3120814040,Prahova,halt,,44.8079928,26.0308078
node/3120817918,Scroviștea,halt,,44.7207086,26.0240243
node/3120818759,Periș,station,,44.6780851,25.9970797
node/3120821641,Dârza,halt,,44.5998147,25.956828
node/3120826901,Cricov,station,,44.9439333,26.2363013
node/3120827916,Muru,halt,,44.9470638,26.2077121
node/3120831575,Tomșani,halt,,44.9559574,26.293664
node/3120836034,Săhăteni,station,,45.0296238,26.5181817
node/3120836035,Clondiru,halt,,45.0632639,26.6051244
node/3120838117,Cotești,station,,45.6316198,27.1494924
node/3120839492,Boboc Hm.,station,,45.2094997,26.9287514
node/3120839501,Sihlea,station,,45.5035801,27.1134516
node/3120840724,Băile Sărata Monteoru,station,,45.1006777,26.7020332
node/3120840743,Ulmeni,station,,45.0813409,26.6516177
node/3120847693,Gugești,station,,45.5670434,27.1311846
node/3120852640,Călimănești Vrancea,halt,,45.9607463,27.2107695
node/3120853712,Pădureni Putna,station,,45.9320367,27.2159546
node/3120855207,Pufești,station,,46.005358,27.2006881
node/3120856788,Domnesti Tirg,halt,,46.0283047,27.1915986
node/3120858417,Adjud,station,,46.0983775,27.1921939
node/3120864348,Adjud Vechi,halt,,46.1310655,27.1696061
node/3120867429,Siscani,halt,,46.147068,27.1586584
node/3120867430,Orbeni,station,,46.2777049,27.0579584
node/3120868376,Sascut,station,,46.2073323,27.1095925
node/3120869837,Răcăciuni,station,,46.3321208,27.0116895
node/3120869916,Faraoani,halt,,46.4037431,26.9532674
node/3120874949,Siretu Bacău,halt,,46.4433643,26.9339243
node/3120880303,Valea Seacă,station,,46.4765538,26.9350382
node/3120884819,Letea,halt,,46.5064022,26.9395496
node/3120888695,Șerbești Bacău,halt,,46.6961975,26.8872951
node/3120891014,Itești,station,,46.6675123,26.897157
node/3120893175,Galbeni,station,,46.7474752,26.8820801
node/3120894157,Secuieni Roman,station,,46.8466073,26.8798769
node/3120894291,Mogoșești,halt,,47.1312835,26.773014
node/3120894309,Stoliceni,halt,,47.2006358,26.7497828
node/3120896180,Mircești,station,,47.0612475,26.8420053
node/3120896183,Hălăucești,station,,47.0939593,26.8181626
node/3120899285,Muncel,station,,47.1661567,26.747512
node/3120900494,Pașcani,station,,47.2569078,26.7245378
node/3120900685,Ruginoasa,station,,47.241113,26.8435472
node/3120905822,Budăi,halt,,47.2178187,27.2206118
node/3122349954,Episcopia Bihor,station,,47.099597,21.8763505
node/3122359995,Oradea Est,station,,47.0431436,21.9627639
node/3122362426,Oradea Est Triaj,halt,,47.0350239,21.9698845
node/3122363621,Oșorhei,station,,47.0394169,22.0340654
node/3122366659,Tileagd,station,,47.0538931,22.2094531
node/3122367041,Săbolciu,halt,,47.055234,22.1399024
node/3122371272,Telechiu,halt,,47.0466397,22.2669286
node/3122371933,Țețchea,station,,47.042815,22.3175494
node/3122372826,Aleșd halta,halt,,47.0373793,22.3895997
node/3122379472,Butani,station,,47.0195813,22.4423692
node/3122381251,Lacu Crișului,halt,,46.9597524,22.7353577
node/3122385278,Stina de Vale,halt,,46.9299254,22.6373177
node/3122386982,Bălnaca,halt,,46.9345395,22.5781702
node/3122388828,Bulz,station,,46.9337096,22.6621983
node/3122405181,Negreni,halt,,46.9518669,22.7815129
node/3122410037,Ciucea,station,,46.9546894,22.8105126
node/3122413640,Bologa,halt,,46.8931385,22.8800196
node/3122418037,Jebuc,halt,,46.8670361,23.0965174
node/3122423456,Gălășeni,stop,,46.8793206,23.1768717
node/3122425185,Aghireș,station,,46.8656327,23.2781727
node/3122430079,Gârbău,station,,46.831019,23.3589115
node/3122434186,Rădaia h,stop,,46.8010714,23.4628531
node/3122446654,Dezmir hc,halt,,46.7841205,23.7184033
node/3122742488,Livada Somes,halt,,47.0063923,23.8460998
node/3122752477,Coldău,station,,47.1810988,24.1188777
node/3122756171,Apahida h,halt,,46.8152451,23.758121
node/3122762818,Răscruci,halt,,46.9007759,23.7800166
node/3122763669,Bonțida,station,,46.9251591,23.7851207
node/3122764934,Iclod,station,,46.9782385,23.8164046
node/3122765103,Fundătura,station,,46.959009,23.800885
node/3122772943,Bunești,halt,,47.0668524,23.9138466
node/3122773137,Nima,halt,,47.0937275,23.9057684
node/3122778030,Ciceu Cristur,halt,,47.1891555,24.0959218
node/3122781779,Caila,halt,,47.1490722,24.2877492
node/3122784522,Arcalia,halt,,47.0884744,24.3705791
node/3122789676,Măgheruș Șieu,station,,47.1016231,24.3527782
node/3122791429,Sfântu,halt,,47.1339751,24.3012342
node/3122839815,Borzia,station,,46.9702342,24.9326797
node/3122850007,Voșlăbeni,station,,46.6458426,25.6177867
node/3122852934,Stinceni halta,halt,,46.9668115,25.1928095
node/3122855233,Stinceni,station,,46.954751,25.2405746
node/3122867852,Subcetate Mureș,station,,46.8624569,25.440163
node/3122869886,Lăzarea hc,station,,46.7425182,25.5289384
node/3122879754,Valea Strâmbă hc,halt,,46.6897324,25.5859901
node/3122890624,Izvoru Mureșului,station,,46.6267789,25.7159872
node/3122897363,Izvoru Oltului,station,,46.5677547,25.7953484
node/3122900769,Tomești,halt,,46.5481186,25.7806224
node/3122909751,Cârțani hc,stop,,46.5320679,25.7669187
node/3122918229,Dănești hc,stop,,46.5105142,25.7501521
node/3122943799,Caracău h,halt,,46.5298707,25.8591043
node/3122945404,Bolovăniș hc,halt,,46.5846156,26.0489691
node/3122950354,Utușoiu,halt,,46.5351406,25.9312845
node/3122959347,Asău,station,,46.4343341,26.3878084
node/3122960032,Simbrea,station,,46.4892596,26.2170971
node/3122969377,Caralița,halt,,46.444407,26.341875
node/3122974542,Valea Uzului,station,,46.3806995,26.4936602
node/3122974543,Valea Uzului halta,halt,,46.3705047,26.5004371
node/3122978750,Dofteana Bacău,station,,46.3313062,26.5340326
node/3122981576,Viișoara Hc,halt,,46.2762616,26.6583055
node/3122981649,Cireșoaia,station,,46.2956687,26.5619475
node/3123001102,Borzești Bacău halta,halt,,46.2436814,26.8168251
node/3123020503,Borzești Bacău,station,,46.2216667,26.8552172
node/3123021579,Căiuți,station,,46.1864511,26.9299232
node/3123021802,Urechești,station,,46.1320576,27.0909696
node/3123632859,Tușnad Sat,station,,46.1902771,25.8931601
node/3123633701,Chichiș hc,halt,,45.7712475,25.8051053
node/3123635569,Bodoc,station,,45.9445161,25.8430306
node/3123636737,Arcuș,halt,,45.9063189,25.8252064
node/3123650135,Decea,halt,,46.3778128,23.7664662
node/3123655103,Valea Viilor,halt,,46.0982223,21.3111672
node/3123655614,Tunel Hm,halt,,46.7319632,23.8137456
node/3123656033,Jena,station,,45.590266,22.0817246
node/3123656184,Șuștra,halt,,45.7767413,21.5823178
node/3123657715,Șag,station,,46.0590201,21.2704118
node/3123659410,Vinga,station,,46.0167991,21.1995901
node/3123661520,Băile Călacea,station,,45.9115825,21.1701086
node/3123661664,Orțișoara,station,,45.9633371,21.1902049
node/3123664690,Ghiroda,halt,,45.7788549,21.3078527
node/3123665564,Topolovăț,station,,45.7687527,21.6290038
node/3123665777,Izvin,station,,45.7943984,21.4613449
node/3123675327,Chizătău,station,,45.7500466,21.7115297
node/3123675669,Jabăr,station,,45.7267064,21.8265267
node/3123681029,Tapia,station,,45.6504942,21.9673083
node/3123683681,Balta Sărată,station,,45.3825951,22.2338002
node/3123684507,Sacu,halt,,45.5731686,22.1111305
node/3123684530,Găvojdia,station,,45.6225447,22.0245036
node/3123688766,Căvăran,station,,45.5486051,22.1387387
node/3123691057,Tibiscu,halt,,45.4556511,22.1829358
node/3123691264,Caransebeș hc,stop,,45.4074475,22.2047934
node/3123693248,Zăgujeni,halt,,45.4808193,22.1676646
node/3123698866,Valea Timișului,station,,45.3541184,22.2526748
node/3123703984,Petroșnița,halt,,45.3338047,22.2685592
node/3123705479,Armeniș,station,,45.1967272,22.3093545
node/3123706962,Vălișoara,station,,45.3049282,22.2822592
node/3123708400,Slatina-Timiș,station,,45.2495968,22.3029699
node/3123755123,Teregova,station,,45.1547148,22.3045686
node/3123756541,Poarta,station,,45.1110832,22.2959685
node/3123756889,Mehadia Nouă,station,,44.8788528,22.3834507
node/3123757173,Domașnea Cornea,station,,45.0595722,22.308327
node/3123758246,Cornea,halt,,45.0349938,22.3191245
node/3123758270,Crușovăț,station,,44.9958362,22.3284119
node/3123759158,Drobeta Turnu Severin Mf.,station,,44.6084665,22.7322036
node/3123760265,Iablanița,station,,44.9423183,22.3265964
node/3123760687,Valea Cernei,station,,44.7684311,22.3911536
node/3123761076,Topleț,station,,44.8065541,22.3855638
node/3123767035,Șantier Naval,halt,,44.7216325,22.4239925
node/3123767794,Virciorova,halt,,44.7074278,22.4910803
node/3123768007,Ilovița,halt,,44.7212152,22.4687544
node/3123768554,Gura Văii,station,,44.6600605,22.5603357
node/3123769230,Dinamica,halt,,44.6235244,22.6158783
node/3123771663,Drobeta Turnu Severin Est,station,,44.6223426,22.685024
node/3123773131,Valea Albă,station,,44.6008708,22.7948133
node/3123774688,Balota,station,,44.6182165,22.8012161
node/3123775154,Prunișor,station,,44.6065086,22.9218657
node/3123776819,Timna,station,,44.5909219,23.0388957
node/3123776826,Ciochiuța,station,,44.6031394,23.1255126
node/3123777178,Girnita,station,,44.6135827,22.8489765
node/3123777228,Igiroasa,station,,44.5888697,22.975199
node/3123792745,Strehaia,station,,44.6113512,23.2197059
node/3123797655,Butoiești,station,,44.5861387,23.3545169
node/3123800362,Canton 282,halt,,44.5458068,23.5222328
node/3123801553,Lunca Banului,halt,,44.602599,23.2760811
node/3123801968,Gura Motrului,station,,44.5734479,23.4322195
node/3123805060,Brădești,halt,,44.4901417,23.6183859
node/3123807250,Răcari,station,,44.5151924,23.574056
node/3123810994,Coțofeni,station,,44.460952,23.6669111
node/3123815944,Ișalnița,station,,44.4045292,23.7158048
node/3123819429,Ișalnița halta,halt,,44.3908824,23.7226126
node/3123820709,Craiova Triaj,station,,44.3417022,23.7819162
node/3123829170,Viaductu Cârcea,halt,,44.2691231,23.8865009
node/3123854911,Bumbești,station,,45.1560628,23.376692
node/3123857729,Ecaterina Teodoroiu,station,,45.0666479,23.3012511
node/3123878176,Drăguțești,halt,,44.9690195,23.2276511
node/3123880719,Cârbești,station,,44.9486194,23.1898123
node/3123882590,Rogojelu,station,,44.9260169,23.1350675
node/3123884329,Vârț,halt,,44.9457907,23.1410409
node/3123888220,Rovinari,station,,44.9048167,23.1478586
node/3123894053,Rovinari Sud,halt,,44.8999491,23.1655457
node/3123897429,Vlăduleni,station,,44.8847358,23.2346896
node/3123897757,Roșia Jiu,halt,,44.8971707,23.1887271
node/3123900205,Peșteana Jiu,halt,,44.846568,23.2923708
node/3123900650,Bâlteni,halt,,44.8586406,23.2761894
node/3123906988,Plopșoru,station,,44.8014775,23.3344676
node/3123910373,Sărdănești,halt,,44.7710967,23.3560547
node/3123913451,Turceni,station,,44.6770119,23.388511
node/3123917746,Termo Turceni,halt,,44.6483804,23.4119303
node/3123917978,Ionești Gorj,halt,,44.619308,23.4376501
node/3123918669,Mogoșeni,station,,47.2083194,24.251479
node/3123923582,Năsăud halta,halt,,47.2907767,24.384583
node/3123923591,Năsăud,station,,47.2811884,24.4105044
node/3123925032,Rebrișoara,station,,47.2877783,24.4717027
node/3123928070,Strâmba,halt,,47.3044311,24.6678054
node/3123929287,Leșu Ilvei,station,,47.3159814,24.6925182
node/3123930787,Poiana Ilvei,station,,47.3690649,24.7414461
node/3123930927,Măgura Ilvei,station,,47.3792962,24.7931575
node/3123933251,Ilva Mare,station,,47.363593,24.8719183
node/3123934968,Lunca Ilvei,station,,47.366648,24.9635671
node/3123936853,Silhoasa,station,,47.3480006,25.0117183
node/3123937841,Larion,station,,47.3316332,25.0154183
node/3123940248,Grădinița,station,,47.3417766,25.0647805
node/3123942346,Coșna,station,,47.3710349,25.1510767
node/3123945787,Argestru,station,,47.3818297,25.3207074
node/3123950394,Valea Putnei,halt,,47.4893681,25.383849
node/3123952053,Pojorâta,station,,47.525439,25.4755305
node/3123955017,Frasin,station,,47.5418683,25.7917346
node/3123955018,Cacica,station,,47.6386752,25.9299564
node/3123955488,Sadova,station,,47.5371696,25.5110599
node/3123955489,Molid,station,,47.5661915,25.7334432
node/3123960664,Prisaca Dornei,station,,47.5377904,25.6574224
node/3123961659,Vama,station,,47.5649471,25.6945165
node/3123964004,Virfu Dealului,station,,47.5993076,25.9382935
node/3123966680,Păltinoasa,halt,,47.5672674,25.9556382
node/3123978554,Dărmănești,station,,47.7129082,26.1409622
node/3123988106,Lucăcești,station,,47.5053277,26.1016747
node/3123993649,Ciprian Porumbescu,station,,47.5578591,26.1078292
node/3124004278,Stroiești,station,,47.6162863,26.1140715
node/3124005455,Suceava Vest,station,,47.6480099,26.2230578
node/3124007750,Liteni,station,,47.5176518,26.5335286
node/3124010999,Văratec,station,,47.6313936,26.3590828
node/3124014335,Bănești Suceava,halt,,47.5690174,26.5034066
node/3124017253,Corni,halt,,47.4751218,26.56454
node/3124019284,Dolhasca,station,,47.4267902,26.608518
node/3124024364,Lespezi,station,,47.3470602,26.6706789
node/3124026599,Lunca Siretului,station,,47.3064721,26.6948441
node/3124053682,Cristești Pașcani,halt,,47.2643819,26.5726613
node/3124057316,Timișești,station,,47.2412531,26.5241634
node/3124067647,Sfântu Mina,halt,,47.2217184,26.4578095
node/3124071005,Plăieșu,halt,,47.2363239,26.4942581
node/3124076060,Utvinișu Nou,station,,46.2397004,21.3547541
node/3124090694,Iscroni,station,,45.379544,23.3343218
node/3124094629,Coroiești,halt,,45.3787955,23.2965114
node/3124094756,Vulcan,station,,45.3789865,23.2858585
node/3124096433,Lupeni,station,,45.3433289,23.1849664
node/3124116544,Lupeni Gr. T,station,,45.3599759,23.2323188
node/3124126959,Ezeriș,station,,45.3998828,21.9070891
node/3124127198,Brebu,station,,45.428004,21.9786379
node/3124166501,Islaz h.,halt,,44.457313,26.3843839
node/3124166912,Pasărea,station,,44.4680596,26.265526
node/3124167581,Fundulea,station,,44.4510898,26.5113129
node/3124167606,Dor Mărunt Sat,station,,44.4355317,26.9264171
node/3124167629,Brănești,station,,44.4580764,26.3578921
node/3124167668,,halt,,44.4473063,26.5810256
node/3124167686,Sărulești,station,,44.4448664,26.6547082
node/3124173157,Bogdana,halt,,44.4316106,27.1459098
node/3124173324,Călărași Nord,station,,44.2646837,27.3249756
node/3124177591,Ivănești,halt,,44.4294241,27.2596992
node/3124177690,Km 25 + 700,halt,,44.2148981,27.3218643
node/3125536558,Ogoarele,halt,,44.4253299,27.4634509
node/3126109999,Făurei,station,,45.0827017,27.2748099
node/3137142082,Arad Vest,station,,46.1998155,21.2761369
node/3137147338,Pecica,station,,46.174133,21.0862703
node/3137147596,Sântoma,halt,,46.1846209,21.1822932
node/3137148920,Seitin,halt,,46.1181234,20.84099
node/3137148937,Canton nr. 9,halt,,46.1679606,20.9894935
node/3137149330,Semlac,halt,,46.1160212,20.9249172
node/3137151583,Nădlac,station,,46.1599863,20.7659337
node/3137166520,Ronaț Triaj Cabina 1,halt,,45.770995,21.1755051
node/3137167903,Ronaț Triaj,halt,,45.7852248,21.1702238
node/3137167904,Ronaț Triaj Gr. D,station,,45.7939661,21.1674023
node/3137178081,Hodoni,halt,,45.9018437,21.0829816
node/3137181498,Bărăteaz,halt,,45.9803299,21.068869
node/3137183393,Gelu,halt,,46.00281,21.044071
node/3137183487,Variaș,halt,,46.0165651,20.964676
node/3137186001,Pesac,halt,,45.9984199,20.8283875
node/3137191138,Gotlob,halt,,45.9352485,20.6987108
node/3137191150,Comloșu Mare,halt,,45.90035,20.6250352
node/3137198400,Biled,station,,45.8835636,20.9492018
node/3137202020,Șandra,halt,,45.9189905,20.8970892
node/3137203329,Pescărețu Mic,halt,,45.8276058,21.0518246
node/3137205029,Satu Nou,station,,45.963098,20.8180491
node/3137205241,Tomnatic,halt,,45.9920147,20.6724248
node/3137206412,Sânnicolau Nord,station,,46.0822502,20.6224283
node/3137207713,Zădăreni,station,,46.1291842,21.2210894
node/3137210115,Bodrogu Nou,halt,,46.1255375,21.1966042
node/3137211017,Secusigiu,station,,46.0842859,20.9882032
node/3137212816,Sânpetru German,halt,,46.1015116,21.0494354
node/3137214925,Secusigiu,stop,,46.0842151,20.988342
node/3137216075,Sânpetru,halt,,46.0380698,20.8141887
node/3137217827,Saravale,halt,,46.052121,20.7387986
node/3137218331,Dudeștii Vechi,halt,,46.0308715,20.4736362
node/3137221033,Vălcani,halt,,45.9923388,20.4048554
node/3137228122,Grabaț,halt,,45.86792,20.7418053
node/3137229480,Bulgăruș,halt,,45.916414,20.8107804
node/3137232230,Lenauheim,halt,,45.8781366,20.801324
node/3137232683,Checea,halt,,45.751433,20.8409615
node/3137239430,Pustiniș,halt,,45.63225,20.8597828
node/3137240729,Otelec,halt,,45.6105373,20.8568214
node/3137243474,Ionel,station,,45.5705403,20.8556921
node/3138053347,Giera,station,,45.3997062,20.9917811
node/3140822891,Utvin,halt,,45.7048858,21.1263295
node/3140823018,Sânmihai,halt,,45.6906952,21.1061381
node/3140827457,Parța,halt,,45.6438584,21.1280527
node/3140829861,Peciu Nou,station,,45.5980011,21.0537187
node/3140835161,Giulvaz,halt,,45.5488974,20.9946542
node/3140837173,Rudna,halt,,45.5033566,21.0043888
node/3140843785,Cruceni,station,,45.4712741,20.8710535
node/3142623923,Liebling,station,,45.5798448,21.3079774
node/3142627022,Jebelu de Sus,halt,,45.5656284,21.2251191
node/3142631240,Obadeni,halt,,45.5354841,21.1698935
node/3142631371,Livezile Banat,halt,,45.3962549,21.0522784
node/3142635236,Denta,halt,,45.3463364,21.2355445
node/3144116009,Halta Gătaia,halt,,45.4286865,21.4445863
node/3144116089,Nichisoara,halt,,45.5821013,21.5257403
node/3144116528,Șoșdea,halt,,45.4591782,21.5012617
node/3144118809,Ferendia,halt,,45.321019,21.4728101
node/3144119519,Șemlacu Mare,halt,,45.354628,21.4490929
node/3144120588,Clopodia,halt,,45.2848599,21.4488896
node/3144131925,Semenic,station,,45.7017003,21.2640119
node/3144135319,Uliuc,halt,,45.680518,21.366439
node/3144138350,Sacoșu Mic,station,,45.6645188,21.4261249
node/3144139540,Bacova,halt,,45.6590544,21.552135
node/3144142054,Căpăt,halt,,45.6903224,21.6576022
node/3144143067,Sinia,station,,45.6847456,21.7179749
node/3144144673,Boldur,halt,,45.6766972,21.7955989
node/3144152197,Berliște,halt,,44.9998201,21.4723834
node/3144154635,Răcășdiuța,halt,,44.9888475,21.6262103
node/3144156260,Vrăniuți,halt,,44.9937256,21.5350422
node/3144157330,Răcășdia,station,,44.9837241,21.6059394
node/3144163737,Milcoveni,halt,,45.0057998,21.4453122
node/3144166692,Iam,station,,45.0064027,21.4008365
node/3144199928,Podari,station,,44.2432866,23.783533
node/3144201668,Segarcea Nord hc,halt,,44.0893796,23.7301563
node/3144204164,Segarcea,station,,44.0812838,23.7241499
node/3144205101,Cerăt h,halt,,44.0622558,23.6898454
node/3144209540,Urzica Mare h,halt,,44.0305385,23.6022347
node/3144209871,Afumați,station,,44.0313537,23.525011
node/3144210382,Boureni hcv,halt,,44.0325255,23.4374855
node/3144210956,Siliștea Crucii hc,halt,,44.032191,23.4676056
node/3144212864,Băilești,station,,44.0334673,23.3489731
node/3144213350,Moțăței,station,,44.0349342,23.1888338
node/3144215979,Maglavit hcv,station,,44.0100438,23.1220854
node/3144222562,Cobuz h,halt,,43.9788817,22.9566689
node/3144239259,Canton 239+700,halt,,44.1087099,24.3698671
node/3144244414,Gr. Th. Caracal,station,,44.0871106,24.3802587
node/3144375147,Deveselu,halt,,44.0577282,24.3942873
node/3144375829,Frăsinet,halt,,44.0011336,24.4216458
node/3144380496,Vișina Veche,halt,,43.8644276,24.4415224
node/3144380637,Studinița,halt,,43.9741451,24.4317766
node/3144382454,Vișina,halt,,43.8866099,24.4359098
node/3144382498,Studina,halt,,43.9403482,24.4247545
node/3144388375,Bratcov,halt,,44.0707483,24.9879149
node/3144396495,Km. 200+400 P. Aj. M.,halt,,44.0644802,24.9838941
node/3144397262,Troian,station,,44.0092144,24.9467257
node/3144404361,Salcia Teleorman,station,,43.9326551,24.9332332
node/3144405476,Km. 231+600,halt,,43.8328408,24.8490554
node/3144430607,Curcani,halt,,44.2067629,26.5927041
node/3144432221,Budești,station,,44.2397131,26.4662359
node/3144434749,Valea Roșie,halt,,44.169094,26.6155301
node/3144436856,Negoești,halt,,44.2335491,26.5014786
node/3144439170,Vasilați,halt,,44.2861182,26.4424012
node/3144444237,Cucuieți Sudiți,halt,,44.3312391,26.3872687
node/3144445200,Plătărești,halt,,44.3557065,26.3708567
node/3144448804,Căldăraru,halt,,44.411157,26.2581587
node/3144449598,Tânganu,halt,,44.3938572,26.3202648
node/3144458495,Neptun h.c.,halt,,43.8748755,28.5972697
node/3144466028,Târgușor Dobrogea,station,,44.4641666,28.438723
node/3144467026,Nicolae Bălcescu,station,,44.3766402,28.3803857
node/3144469017,Baia Dobrogea,station,,44.7283456,28.6836683
node/3144469658,Cogealac,station,,44.5706766,28.5661239
node/3144469911,Mihai Viteazu,station,,44.6505682,28.6789843
node/3144475904,Codru,halt,,44.8402584,28.7004678
node/3144478854,Zebil,station,,44.9640013,28.7187665
node/3144479875,Mihail Kogălniceanu,halt,,45.0378273,28.7460064
node/3144483996,Tulcea Mărfuri,station,,45.1619177,28.7690392
node/3145900507,Frumușița,halt,,45.6571269,28.0714896
node/3145902475,Foltești,station,,45.7386602,28.0696108
node/3145902894,Fârțănești,halt,,45.7890485,27.9810904
node/3145903466,Chiraftei,halt,,45.7701139,28.0140728
node/3145905585,Băleni,halt,,45.8129458,27.9480138
node/3145906951,Târgu Bujor,station,,45.866796,27.9226128
node/3145907286,Umbrărești Sat,halt,,45.8489473,27.9210351
node/3145912954,Moscu,halt,,45.9056582,27.9328897
node/3145920360,Balintești,halt,,46.0235769,27.9229948
node/3145923537,Berești,station,,46.0831527,27.8912579
node/3145925084,Tălășmani,halt,,46.1319832,27.8407424
node/3145930324,Docăneasa,halt,,46.1135155,27.7836884
node/3145934829,Lungești,halt,,46.1153487,27.7519011
node/3145941187,Bălăbănești,halt,,46.1356182,27.6895693
node/3145953236,Grivița,halt,,46.1608972,27.6559167
node/3145970381,Banca,station,,46.3355246,27.7913595
node/3145977166,Frunzeasca,station,,45.9016338,27.4198553
node/3145978793,Ghidigeni,station,,46.0752612,27.4789133
node/3145979148,Rateș Munteni,halt,,45.9286923,27.4315986
node/3145986019,Nichișeni,halt,,46.0444905,27.4578667
node/3145988720,Zorleni,station,,46.2668893,27.7263361
node/3145992278,Dodești,halt,,46.3755322,27.8209953
node/3145993842,Roșiești,station,,46.4300976,27.8340494
node/3145995640,Bulboaca,halt,,46.5584039,27.7842291
node/3146000205,Bălteni,station,,46.6902333,27.6428807
node/3146002037,Munteni,station,,46.591213,27.7575042
node/3146005070,Brăhășoaia,halt,,46.719032,27.608019
node/3146007268,Birzești,halt,,46.7442298,27.5879135
node/3146007319,Buhăiești,station,,46.7969372,27.5600303
node/3146011257,Rateșu Cuzei,halt,,46.8314227,27.5643567
node/3146013251,Scinteia,station,,46.9235249,27.5680254
node/3146016906,Picioru Lupului,station,,47.0554274,27.5728055
node/3146042829,Negrești Vaslui,station,,46.8231662,27.4533758
node/3146047695,Dumești,halt,,46.8370358,27.3291239
node/3146053401,Rafaila,halt,,46.8328682,27.3983453
node/3146055200,Dagâța,station,,46.917319,27.2044233
node/3146058865,Bălușești,halt,,46.8892349,27.2150192
node/3146060156,Suhuleț,halt,,46.8626874,27.2225491
node/3146060207,Marseal C-tin Prezan,station,,46.8295734,27.2600181
node/3146063913,Zece Prăjini,halt,,46.9362833,27.1831551
node/3146068393,Piscu Rusului,halt,,46.9582617,27.1338962
node/3146071809,Vulpășești,halt,,46.9866167,27.0620265
node/3146077081,Erbiceni,halt,,47.2485143,27.2489243
node/3146078677,Spinoasa,halt,,47.2546605,27.1843006
node/3146080520,Răuseni,halt,,47.5638616,27.2062312
node/3146081978,Podu Ulmi,halt,,47.3055104,27.058386
node/3146083582,Ceplenița,halt,,47.380835,26.9626295
node/3146083583,Bădeni,halt,,47.4060223,26.9495775
node/3146084840,Cotnari,station,,47.3492678,26.9717614
node/3146087302,Hârlău,station,,47.4184991,26.9214388
node/3146100636,Rediu,station,,47.5416046,27.2459913
node/3146101808,Șoldana,stop,,47.4832856,27.2997287
node/3146104318,Andrieșeni,halt,,47.5145776,27.2732706
node/3146110903,Todireni,station,,47.598157,27.1528571
node/3146113044,Buhăceni,halt,,47.8073908,26.9950287
node/3146113170,Dângeni,station,,47.8518878,26.9600266
node/3146119238,Ungureni,station,,47.8855297,26.7956444
node/3146122541,Dângeni Nord,halt,,47.8733369,26.8324871
node/3146128268,Mateieni,halt,,47.9196467,26.6017223
node/3146407690,Corlăteni,halt,,47.9222236,26.5483993
node/3146409821,Carasa,halt,,47.9301979,26.5129282
node/3147825627,Brăești,halt,,47.8614504,26.4680641
node/3149573039,Dornești,station,,47.8723312,25.9998678
node/3149577200,Țibeni,halt,,47.8210749,26.0257719
node/3149578060,Milișăuți,station,,47.7730482,26.0516485
node/3149579152,Vicșani,station,,47.9416355,25.9670904
node/3149587102,Fiad,station,,47.4949341,24.3903991
node/3149590023,Petrova,halt,,47.8286988,24.2112466
node/3149594037,Vișeu Bistra,halt,,47.8636437,24.1908958
node/3149601993,Tisa,halt,,47.9460751,23.9627256
node/3149603659,Cămara Sighet,station,,47.9433419,23.9093609
node/3149606114,Coplean,halt,,47.2003783,23.8244326
node/3149615563,Cășeiu,station,,47.1886995,23.8514502
node/3149620284,Căpâlna pe Someș,halt,,47.2484316,23.7302741
node/3149622350,Glodu Someșului,station,,47.2815602,23.6455136
node/3149622375,Bizușa,halt,,47.3416577,23.6028774
node/3149623524,Ileanda,station,,47.3263184,23.6092178
node/3149629044,Răstoci,station,,47.3545541,23.541072
node/3149630849,Letca,station,,47.3381249,23.4658346
node/3149633760,Țicău,halt,,47.443816,23.3033181
node/3149637468,Var,halt,,47.2376295,23.298717
node/3149638882,Satulung pe Someș,station,,47.5774827,23.4169573
node/3149640177,Inău,halt,,47.3623631,23.2705521
node/3149640776,Aluniș Sălaj,halt,,47.3841363,23.2784739
node/3149643027,Ulmeni Sălaj,station,,47.4618899,23.2986295
node/3149643810,Fersig,halt,,47.5400047,23.3748894
node/3149644707,Bușag,station,,47.6647195,23.4282446
node/3149648073,Cicirlău,halt,,47.6860879,23.4008583
node/3149648411,Săbișa,halt,,47.7258755,23.3250748
node/3149649067,Odoreu,halt,,47.800488,22.9927167
node/3149652607,Micula,station,,47.9006353,22.9612438
node/3149655948,Porumbești,station,,47.9510994,22.9855709
node/3149655987,Halmeu,station,,47.9845258,22.9978055
node/3149662030,Diosig,station,,47.2970446,22.0126136
node/3149664419,Giorocuta,halt,,47.4334641,22.7778143
node/3149666062,Sătmărel,station,,47.741798,22.7956336
node/3149667295,General Gheorghe Avramescu,station,,47.6998171,22.6795222
node/3149667810,Marna,halt,,47.6614929,22.3874629
node/3149667955,Sanislău,station,,47.6318688,22.3373749
node/3149670557,Curtuișeni,halt,,47.5584822,22.2009522
node/3149672358,Simion,halt,,47.4839293,22.0902833
node/3149677027,Roșiori Bihor,halt,,47.264036,21.9439709
node/3149679287,Tămășeu,halt,,47.2189572,21.9134032
node/3149708899,Tiream,station,,47.6067918,22.4834431
node/3149710430,Hotoan,halt,,47.5579553,22.5032126
node/3149711707,Santău,halt,,47.5153283,22.5174405
node/3149711997,Tășnad,station,,47.4953963,22.5788634
node/3149712840,Săcășeni,halt,,47.513426,22.6462615
node/3149713144,Acâș,station,,47.5269811,22.7750552
node/3149713898,Supur halta,halt,,47.4649027,22.794287
node/3149713899,Supur,halt,,47.4524072,22.7860559
node/3149716037,Șărmășag haltă,halt,,47.3580268,22.8147752
node/3149722056,Guruslău,halt,,47.2558783,22.9769811
node/3149728523,Cuceu Sălaj,halt,,47.2539169,23.2014037
node/3149748287,Uilacu Șimleului,halt,,47.2770385,22.7591748
node/3149752465,Porți hc,halt,,47.2289259,22.5524056
node/3149753571,Giurtelec,halt,,47.2982746,22.7834516
node/3149753896,Abrami,station,,47.3144749,22.3799696
node/3149754842,Șimleu Silvaniei,station,,47.249733,22.7697007
node/3149757634,Ipu,station,,47.2207271,22.6078058
node/3149761796,Chiribiș,halt,,47.322204,22.342852
node/3149765333,Marghita,station,,47.3393891,22.3281708
node/3149765695,Petreu,halt,,47.3354957,22.298061
node/3149768910,Bolcas,halt,,47.3530895,22.2320254
node/3149779776,Socodor,halt,,46.5007504,21.4324999
node/3149780141,Nădab,station,,46.4861685,21.5022555
node/3149789235,Șiclău,halt,,46.5002277,21.3636498
node/3150206486,Oradea Vest,station,,47.0594851,21.8932105
node/3150217691,Zerind,station,,46.5933359,21.5454135
node/3150218086,Ociu,halt,,46.2094837,22.572127
node/3150218124,Ribița,halt,,46.1637089,22.762966
node/3150218195,Finiș,halt,,46.6587956,22.3171469
node/3150218204,Tărcaia,halt,,46.6339011,22.3843274
node/3150218903,Tămașda,halt,,46.6556003,21.5533178
node/3150221115,Leș Bihor,station,,46.9810799,21.8083001
node/3150221227,Zimandu Nou,halt,,46.2828274,21.3953361
node/3150221443,Boiu Bihor,halt,,46.6927288,21.5857598
node/3150222190,Șimand,station,,46.4239631,21.4701998
node/3150222698,Comlăuș,halt,,46.3613284,21.5202155
node/3150225044,Utviniș,halt,,46.2676739,21.3640689
node/3150242083,Batăr,station,,46.723938,21.7676932
node/3150243442,Gurbediu,halt,,46.7724596,21.8928153
node/3150243472,Râpa,halt,,46.7767492,22.0327486
node/3150244286,Sudrigiu,station,,46.6047394,22.4185252
node/3150244881,Holod Vest,station,,46.7757726,22.1052389
node/3150246119,Holod,station,,46.7816818,22.1303907
node/3150246531,Suplacu de Tinca,halt,,46.706582,22.124901
node/3150246532,Șoimi,halt,,46.6884288,22.1209491
node/3150247881,Borz,halt,,46.6738047,22.1866183
node/3150248627,Gurahonț,station,,46.274011,22.3437092
node/3150248628,Ocișor,halt,,46.2233605,22.5596281
node/3150248793,Târnova Zarand,station,,46.3382394,21.7883486
node/3150249740,Rieni Bihor,halt,,46.5756597,22.4394896
node/3150250725,Șiria,station,,46.2832848,21.6361384
node/3150252934,Mâsca Măderat,halt,,46.2994008,21.6649243
node/3150253955,Seleuș,halt,,46.3443038,21.6983573
node/3150254102,Bocsig,station,,46.4391974,21.9650478
node/3150254839,Mocrea,halt,,46.3891828,21.8097422
node/3150254898,Tamand,halt,,46.4437889,21.9183551
node/3150255527,Răpsig,halt,,46.4235867,22.0240491
node/3150256196,Joia Mare,halt,,46.3026981,22.1810598
node/3150256197,Almaș,halt,,46.2964389,22.247187
node/3150257915,Romanița,halt,,46.2914746,22.4020235
node/3150258682,Cariera Leasa,halt,,46.2667626,22.5409844
node/3150258853,Vârfurile,station,,46.291327,22.520541
node/3150261088,Vața,station,,46.1837683,22.5999165
node/3150261194,Birtin,halt,,46.1767737,22.6380964
node/3150261458,Baia de Criș,halt,,46.1797296,22.7113999
node/3150261467,Țebea,halt,,46.1710127,22.7359954
node/3150261529,Lunca Moților,halt,,46.1802728,22.6814342
node/3150427346,Coșteiu Mare,station,,45.7494948,21.8590925
node/3150434497,Cliciova,station,,45.8122705,21.9571177
node/3150443026,Balinț,station,,45.796714,21.8638628
node/3150448426,Lugoj Nord,halt,,45.707145,21.8885577
node/3150451614,Păru,halt,,45.7652082,21.8611289
node/3150452031,Nevrincea,halt,,45.8041009,21.9014816
node/3150454148,Mănăștur,station,,45.8276988,22.0681981
node/3150457962,Margina,station,,45.8566765,22.2650435
node/3150461289,Coșteiu,halt,,45.8974078,22.3702583
node/3151217981,Răstoaca,halt,,45.0715447,24.3448445
node/3151223118,Strejești,station,,44.5582485,24.2591503
node/3151224053,Zlătărei,station,,44.6064251,24.259915
node/3151226751,Canton 217,halt,,44.3354982,24.137384
node/3151236597,Criva,halt,,44.3728391,24.2969647
node/3151238775,Slătioara,station,,44.3818323,24.3333699
node/3151240025,Milcov,halt,,44.3871803,24.3888853
node/3151243687,Stolnici,station,,44.5491106,24.7813603
node/3151243822,Hârșești,station,,44.5170586,24.7558205
node/3151248830,Fâlfani Hm.,station,,44.6093971,24.8239312
node/3151254286,Beuca Sat,halt,,44.2541044,24.9696232
node/3151255199,Pârvu Hm.,halt,,44.7331158,24.8968367
node/3151255823,Pârvu Hc.,station,,44.771142,24.9051665
node/3151264239,Km. 109,halt,,44.8398998,24.9008252
node/3151269778,Bascov,station,,44.8954427,24.8211767
node/3151274448,C.I.L.,halt,,44.8851871,24.8349182
node/3151277943,Clucereasa,station,,44.9799564,24.9443996
node/3151284911,Pescăreasa,halt,,45.2294188,25.0168401
node/3151298762,Ram. Golesti,halt,,44.8273256,24.9336518
node/3151299853,Canton 97+770,halt,,44.8294993,24.9970527
node/3151300286,Călinești,station,,44.8103158,25.0629243
node/3151303445,Leordeni Argeș,station,,44.7837681,25.1241506
node/3151305961,Pătroaia,station,,44.7438434,25.2085821
node/3151306329,Găești Sud,halt,,44.7105663,25.3254865
node/3151307573,Fusea,station,,44.6740562,25.5029121
node/3151308758,Cojocaru,halt,,44.6996869,25.3778695
node/3151309017,Mătăsaru,station,,44.6859233,25.4431447
node/3151312854,Boteni,halt,,44.6601113,25.6246693
node/3151313796,Conțești,halt,,44.6570471,25.6516155
node/3151315004,Ghergani,station,,44.6424532,25.7166526
node/3151315633,Ciocănești,station,,44.5805562,25.8507381
node/3151318334,Săbăreni,station,,44.5316744,25.9336718
node/3152747769,Dimbovicioara,halt,,44.678805,25.5600081
node/3152747838,Podu Rizii,halt,,44.7130526,25.5573942
node/3152748256,Văcărești,station,,44.8594178,25.4967408
node/3152748650,Bănești,station,,44.7374516,25.5692664
node/3152753232,Movila Dimbovița,halt,,44.7677425,25.5620315
node/3152757192,Nucet,station,,44.7887389,25.5535066
node/3152759708,Cazaci,halt,,44.7987977,25.5475458
node/3152782892,Mogoșoaia,station,,44.5353131,26.0234625
node/3152788842,Odăile,halt,,44.5649772,26.0485242
node/3152791624,Otopeni Nord PO,halt,,44.5845901,26.0723667
node/3152793494,Căciulați,station,,44.6102285,26.1575514
node/3152793546,Fierbinți,station,,44.666269,26.3682779
node/3152794786,Greci,station,,44.6523976,26.2934377
node/3152796806,Bărbulești,halt,,44.7217672,26.6023248
node/3152797871,Moldoveni,station,,44.717813,26.509012
node/3152797890,Armășești,station,,44.728861,26.5632544
node/3152797954,Manasia,station,,44.7325024,26.7068427
node/3152800314,Cotorca,station,,44.8142215,26.8633783
node/3152800353,Scutelnici,station,,44.851811,26.9351299
node/3152808198,Brâncoveni Hc.,halt,,44.4775377,27.368748
node/3152813321,Slobozia Sud,station,,44.5251128,27.3705479
node/3152817578,Dâmbu,station,,44.9226741,26.0722961
node/3152818304,Râfov,halt,,44.8910358,26.1401686
node/3152819167,Cornurile,halt,,44.8425928,26.2552369
node/3152820606,Ialomița,station,,44.7486505,26.5064455
node/3152827524,Ciorani,station,,44.7890991,26.3851275
node/3152827709,Hătcărău,halt,,44.8134285,26.3254701
node/3152828930,Andrășești,station,,44.5802389,27.1480385
node/3152829099,Drăgănești Prahova,station,,44.8276711,26.3010203
node/3152829787,Fulga,halt,,44.7730991,26.43279
node/3152831786,Saratuica,station,,44.6388671,26.9018228
node/3152832065,Alexeni,station,,44.6861658,26.701337
node/3152832491,Broșteni,station,,44.6683976,26.7690254
node/3152832687,Malu,halt,,44.6537419,26.8240441
node/3152832923,Km 74 + 600,halt,,44.648936,26.8656834
node/3152835377,Munteni Buzău,halt,,44.6476114,26.9722474
node/3152836037,Căzănești,station,,44.6344147,27.0044499
node/3152836640,Ciochina,halt,,44.6069024,27.0585001
node/3152837580,Perieți,station,,44.5812787,27.2542243
node/3152837945,Bucu,station,,44.6056124,27.4828964
node/3152840120,Fundata,halt,,44.580479,27.1940915
node/3152840633,Ograda,station,,44.6311719,27.5906647
node/3158231201,Vernești,station,,45.2043835,26.7318382
node/3158237917,Unguriu,halt,,45.2828181,26.6181053
node/3158241295,Ojasca,halt,,45.2804636,26.6485994
node/3158241733,Berca,station,,45.2782773,26.6748697
node/3158243512,Viperești,halt,,45.2309701,26.4560424
node/3158243843,Bădila,halt,,45.2570578,26.5092881
node/3158245799,Măgura,halt,,45.2814138,26.5816366
node/3158246752,Rușavățu,halt,,45.2412445,26.489734
node/3158248838,Cislău,halt,,45.2466159,26.377599
node/3158249286,Gura Bascii,halt,,45.2589285,26.3638832
node/3158249630,Șețu,halt,,45.3813097,26.3229066
node/3158250266,Valea Sibiciului,halt,,45.3507784,26.3477259
node/3158250446,Mărunțișu,station,,45.2917474,26.3623519
node/3158250574,Nehoiu,halt,,45.4163562,26.3069558
node/3158251503,Păltineni,halt,,45.399479,26.3196356
node/3158261076,Plopeni Sat,station,,45.060467,25.96922
node/3158265261,Găvănel,halt,,45.0799119,25.994635
node/3158266873,Coțofenești,station,,45.1303304,25.9998309
node/3158267472,Prăjani,stop,,45.2057462,25.950188
node/3158273082,Valea Teliului,halt,,45.6854158,25.8910035
node/3158273365,Teliu,halt,,45.6944,25.8534349
node/3158274236,Poiana Florilor,halt,,45.6809098,25.9346267
node/3158277278,Zăbala,halt,,45.8913623,26.1627206
node/3158277782,Poienița,halt,,46.0619574,26.1673851
node/3158280364,Mereni Lutoasa,halt,,46.0732765,26.2299664
node/3158281174,Bălani,halt,,46.0785833,26.1892161
node/3158281696,Lemnia,halt,,46.0565816,26.2565354
node/3158284474,Brețcu,station,Linia 2,46.0455599,26.2958639
node/3158573917,Buhuși,station,,46.7090774,26.7046696
node/3158574127,Hămeiuș h,halt,,46.6301987,26.8572528
node/3158576648,Săvinești hc,halt,,46.8658042,26.4694239
node/3158576989,Gărleni,station,,46.6570721,26.813549
node/3158577155,Racova Hm,halt,,46.6868518,26.7418625
node/3158580360,Costișa Hm,station,,46.7532214,26.6542694
node/3158582920,Podoleni,station,,46.7964462,26.6154922
node/3158583059,Zănești Neamț hc,halt,,46.8217971,26.5493093
node/3158584954,Roznov,station,,46.8385027,26.5092092
node/3158587477,Dumbrava Hm,station,,46.9005675,26.4187864
node/3158588388,Pângărați,station,,46.9302059,26.2041531
node/3158589500,Stejaru,halt,,46.9159416,26.1768519
node/3158589679,Tarcău Neamț Hm,station,,46.8935318,26.1477613
node/3159842873,Vămeni,halt,,47.4339415,26.552966
node/3159848536,Dolhești,halt,,47.4465693,26.5100768
node/3159851259,Arghira,halt,,47.4587923,26.4592388
node/3159852806,Preotești,halt,,47.456732,26.4166825
node/3159859907,Viișoara H,halt,,47.1017515,24.4528806
node/3159870796,Bistrița Fabrici,halt,,47.1276042,24.4767967
node/3159940637,Rusu Bârgăului,halt,,47.2000251,24.6325232
node/3159950103,Mijlocenii Bârgăului,halt,,47.2162196,24.6906262
node/3159954235,Josenii Bârgăului,halt,,47.2144306,24.6687544
node/3159958509,Susenii Bârgăului,station,,47.2177745,24.7150987
node/3159965607,Prundu Bârgăului,stop,,47.21786,24.7430361
node/3159968952,Bistrița Bârgăului Sat,halt,,47.209212,24.7612087
node/3159972372,Bistrița Bârgăului,station,,47.1828834,24.8055786
node/3159973963,Bistrița Bârgăului halta,halt,,47.1984987,24.7877486
node/3160003774,Sântămăria,halt,,46.2799973,25.0067338
node/3160020268,Porumbenii Mici,halt,,46.2765891,25.1037154
node/3160046370,Dobeni,halt,,46.2566482,25.2074117
node/3160062196,Șona,station,,46.2220082,24.0095473
node/3160064674,Pănade,halt,,46.2183374,23.9671915
node/3160065167,Bălcaci,halt,,46.2316602,24.0720215
node/3160065811,Sfântu Nicolae,halt,,46.2322942,24.0494413
node/3160068762,Jidvei,station,,46.229982,24.1080349
node/3160069577,Feisa,halt,,46.2310272,24.1353177
node/3160069583,Cetatea de Baltă,halt,,46.2454628,24.164299
node/3160069642,Adămuș,halt,,46.3143108,24.2360668
node/3160070048,Crăiești,halt,,46.2914688,24.2025633
node/3160070585,Cornești Târnava,halt,,46.3011138,24.2118765
node/3160071160,Târnăveni Vest,station,,46.3237942,24.2682603
node/3160072119,Gănești,halt,,46.3433594,24.3651412
node/3160072120,Deaj,halt,,46.3516192,24.3961671
node/3160076569,Târnăveni,station,,46.3281604,24.2982988
node/3160076596,Seuca,halt,,46.3352471,24.3333274
node/3160080673,Mica,halt,,46.3600797,24.4211898
node/3160081117,Bernadea,halt,,46.3735017,24.4488216
node/3160083518,Bahnea,station,,46.3827273,24.4889986
node/3160898981,Coroiu,station,,46.4021547,24.6127638
node/3160900874,Laslău,halt,,46.3920028,24.5422707
node/3160901052,Bălăușeri,station,,46.4068466,24.6997699
node/3160901383,Șoimuș,halt,,46.3969798,24.5921692
node/3160902383,Fântânele,station,,46.4165515,24.7609414
node/3160902407,Praid,station,,46.5514565,25.1141706
node/3160902417,Gura Arieșului,halt,,46.4268978,23.955846
node/3160902431,Bogata Mureș,halt,,46.4620283,24.1183006
node/3160902663,Sângeorgiu de Pădure,halt,,46.4258406,24.8473304
node/3160902781,Cioc,halt,,46.4728182,24.9008392
node/3160902882,Chibed,halt,,46.5313436,24.961925
node/3160904475,Sărățeni,halt,,46.5569087,25.0047985
node/3160904746,Sovata,station,,46.5794909,25.0496132
node/3160905164,Ghindari,halt,,46.5000445,24.9285531
node/3160908890,Lunca Mureș,halt,,46.4176921,23.9146206
node/3160909844,Chețani,halt,,46.4644978,24.0185507
node/3160911952,Ogra,halt,,46.4430848,24.3200839
node/3160912077,Sinpaul,station,,46.4475449,24.3398987
node/3160912083,Vidrasău,halt,,46.4722742,24.4142792
node/3160912484,Chirileu,halt,,46.465059,24.3772728
node/3160913280,Târgu Mureș Sud,station,,46.5052404,24.4958665
node/3160930779,Dumbrăvioara,station,,46.6418208,24.6398848
node/3160932642,Gornești Mureș,halt,,46.6706043,24.6558487
node/3160933182,Petelea,halt,,46.7302432,24.7029876
node/3160933697,Periș Mureș,halt,,46.7018734,24.6724158
node/3160933729,Brincovenești,halt,,46.8551159,24.7701746
node/3160940135,Rușii Munți,halt,,46.9143608,24.8426617
node/3161207149,Luduș Sat,halt,,46.4850829,24.1009498
node/3161208870,Tăureni,halt,,46.5780784,24.0866775
node/3161210390,Melini Valea Larga,halt,,46.5935672,24.1086556
node/3161212387,Miheșu de Câmpie,halt,,46.6797835,24.1622149
node/3161221072,Sărmașel Gaz Metan,halt,,46.7674017,24.1876489
node/3161224731,Țagu Sat,halt,,46.819637,24.2269407
node/3161227702,Budești Cluj,halt,,46.840952,24.2364119
node/3161234064,Țagu,halt,,46.8288972,24.234599
node/3161235180,Brăteni,halt,,46.9295501,24.3720375
node/3161235780,Miceștii de Câmpie,halt,,46.8694358,24.3099873
node/3161238257,Țigău,halt,,47.0574938,24.3235279
node/3161241824,Vermeș,halt,,47.0028319,24.3187734
node/3161243573,Lechința,station,,47.0178128,24.334444
node/3161251946,Chintelnic,halt,,47.1036123,24.3271778
node/3166638669,Acățari,station,,46.4732327,24.633461
node/3175717381,Giarmata,stop,,45.8333601,21.3070614
node/3179785689,Peștera Bolii h.,station,,45.4477934,23.3206608
node/3257978304,Poarta Albă Hc.,halt,,44.2072466,28.3899369
node/3336953198,Piața Iancului,stop,,44.4419493,26.1320171
node/3442660466,Valea Sadului,stop,,45.1829421,23.3849051
node/3473124866,Poiana Stampei,station,,47.3124815,25.1313636
node/3512379190,Frasin,stop,,47.5418724,25.791818
node/3644562120,Baza I.F.F.,halt,,45.0730708,27.2234432
node/3684829726,Alțâna,station,,45.9270265,24.4667333
node/3684829727,Benești,station,,45.9592195,24.4937735
node/3684829728,Cornățel,station,,45.8026344,24.3527013
node/3684829729,Nocrich,station,,45.894071,24.4601229
node/3693316741,Câmpulung la Tisa,station,,47.9835102,23.7657685
node/3715615983,Abrud,station,,46.2799431,23.0594544
node/3715615984,Câmpeni,station,,46.358745,23.0731411
node/3720324940,Vicovu de Jos,stop,1,47.9029459,25.720423
node/3815559322,Vatra Dornei Băi,halt,,47.346146,25.3569581
node/3874806030,Ram. M. Kogălniceanu P. Aj. Mac.,halt,,44.3969996,28.4388508
node/3874806055,Ceamurlia de Jos Hm,station,,44.7658045,28.7220515
node/3889081033,Turnu Roșu,stop,,45.6432315,24.2958445
node/3898802220,Mugeni,halt,,46.2584843,25.2180489
node/3898805119,Porumbenii Mari,halt,,46.2684314,25.1388584
node/3922142526,,stop,,45.2676619,26.0164399
node/4041670209,Dragosa,halt,,47.617657,25.6133182
node/4146046698,Râșnov,station,,45.594848,25.4581653
node/4290854886,Gheorgheni,station,,46.7193148,25.5737057
node/4349617411,,stop,,46.3107966,25.853852
node/4462736349,Odorhei,station,,46.3106544,25.3013918
node/4464192402,Feliceni,halt,,46.2671749,25.2618966
node/4487451478,Giroc,halt,,45.7064384,21.2351079
node/4513205925,Meri,stop,,45.2204393,23.3822416
node/4517189350,Reșița Noua h,halt,,45.3099919,21.8797376
node/4523991168,Rădăuți,station,,47.8395728,25.9093297
node/4540973876,Cisnădie,station,,45.71654,24.1606343
node/4675605368,Pitești,stop,,44.8474925,24.8877144
node/4729254029,Ghighiu,station,,44.9084154,26.0585363
node/4786918775,Laminorului,station,,44.4943376,26.0319543
node/4786918776,Străulești,station,,44.5016554,26.0262412
node/4807987549,Comana,station,,44.1710563,26.1467153
node/4876789058,Mestecăniș,station,,47.4506882,25.3395139
node/5039434735,Sângeorz - Băi,station,,47.3711941,24.6735492
node/5039540645,Măgura Ilvei,stop,,47.3793135,24.7931991
