osm_id,name,type,ref,lat,lon
node/660921,Oslo S,station,03010010,59.9110251,10.7531379
node/24986362,Nydalen,stop,,59.9516656,10.7720813
node/24986574,Kjelsås,stop,,59.9662393,10.7831465
node/25041423,Blindern,stop,,59.9401125,10.7160898
node/25047615,Ullevål stadion,stop,,59.9467771,10.7321676
node/25049175,,stop,,59.9512875,10.7463455
node/25050729,,stop,,59.9543235,10.7520597
node/25298228,,stop,,59.9674613,10.7339106
node/25298233,,stop,,59.9641559,10.7348332
node/25298243,,stop,,59.9606886,10.740094
node/25298260,,stop,,59.9573421,10.749285
node/25313788,Vollebekk,stop,,59.9358803,10.8310597
node/25313797,Risløkka,stop,,59.9325223,10.8231081
node/25313799,Økern,stop,,59.9282792,10.8062685
node/25313876,Linderud,stop,,59.9409761,10.8385349
node/25313891,Veitvet,stop,,59.9445427,10.846913
node/25313920,Rødtvet,stop,,59.9514129,10.8594076
node/25314427,Gaustad,stop,,59.9455922,10.7098301
node/25316972,Borgen,stop,,59.9346305,10.6957237
node/25319427,Sinsen,stop,301210001,59.9373856,10.7818292
node/25319431,Storo,stop,,59.9446397,10.7786176
node/25320465,Høyenhall,stop,,59.9059128,10.8198288
node/25320621,Brynseng,stop,4,59.9093101,10.8119476
node/25321112,Manglerud,stop,,59.897992,10.8127818
node/25321169,Ryen,stop,,59.8956541,10.8047372
node/25340002,Nydalen,stop,,59.9493675,10.7659619
node/25649578,Ris,stop,,59.9479354,10.7049337
node/25680509,Nyland,stop,,59.9436958,10.8707533
node/25681258,Hanaborg,stop,1,59.9388567,10.9664944
node/25701674,Lysaker,stop,,59.9134861,10.6372305
node/25702382,Gulleråsen,halt,,59.9557434,10.6970247
node/25703253,Skogen,halt,,59.9750503,10.6474955
node/25703429,Lillevann,halt,,59.9807091,10.652584
node/25703622,Voksenkollen,halt,,59.9800631,10.6652973
node/25703752,Frognerseteren,halt,,59.9791178,10.6766344
node/25704990,Snippen,stop,,60.0237508,10.8100637
node/25713529,Holmen,halt,,59.9459164,10.6677377
node/25713549,,stop,,59.9463222,10.6540359
node/25713616,Røa,halt,,59.9467468,10.6442729
node/25713621,Ekraveien,halt,,59.9497938,10.6377336
node/25713630,Eiksmarka,stop,,59.9473269,10.6239328
node/25713731,Bjørnsletta,stop,,59.9265368,10.6344447
node/25713750,Jar,stop,,59.9257828,10.6182824
node/25714527,Brattlikollen,stop,,59.8874006,10.8011094
node/25714550,Karlsrud,stop,,59.8807186,10.8053038
node/25714564,Lambertseter,stop,,59.8733679,10.8104035
node/25714578,Bergkrystallen,stop,,59.8671388,10.8209367
node/25727081,Hellerud,stop,,59.9100516,10.8298455
node/25727138,Skøyenåsen,stop,,59.8992349,10.8367208
node/25727222,Bøler,stop,,59.8842885,10.8455328
node/25727275,Bogerud,stop,,59.8762172,10.8421528
node/25727284,Skullerud,stop,,59.866799,10.8401183
node/26106239,Eidsvoll verk,stop,,60.287982,11.1697382
node/26283056,Ljan,stop,301082002,59.8530147,10.7847936
node/26283208,Hauketo,stop,301091001,59.8459891,10.8030002
node/26283493,Rosenholm,stop,310093001,59.8239968,10.7979074
node/26283705,Solbråtan,stop,217020002,59.8016792,10.8043902
node/26351038,Greverud,stop,217030001,59.7727944,10.8066552
node/26351366,Langhus,stop,213050001,59.7496759,10.8366585
node/26362900,Vestby,stop,211010002,59.6036831,10.7484117
node/26394505,Ås,stop,214020002,59.6632736,10.7946087
node/26550675,Stabekk,stop,219010001,59.9080701,10.6071419
node/26559640,Bryne,stop,,58.7347251,5.649678
node/26560744,Sandvika,station,02190400,59.8925948,10.524522
node/26560773,Billingstad,station,02200100,59.874796,10.4830758
node/26560811,Hvalstad,station,02200200,59.8587664,10.4618904
node/26560822,Vakås,halt,02200300,59.8496567,10.4669927
node/26636018,Ganddal,stop,,58.8232369,5.716955
node/26636024,Øksnavadporten,stop,,58.7862497,5.7011569
node/26639182,Grønland,stop,,59.9128099,10.7601473
node/26639185,Carl Berners plass,halt,,59.9258326,10.7795926
node/26639186,Hasle,stop,,59.9243441,10.7947264
node/26640766,Helsfyr,stop,,59.9127162,10.8009919
node/26681684,Nationaltheatret,halt,03010030,59.9153959,10.7281931
node/31375241,Vikersund,stop,,59.9692886,9.9982213
node/31375286,Geithus,stop,,59.9332301,9.9698513
node/31375855,Åmot,stop,,59.8913386,9.9134381
node/31376071,Daler,stop,,59.7481081,10.0797016
node/31376090,Gulskogen,stop,1,59.7438575,10.1594235
node/31376093,Sundland,stop,,59.7428826,10.1763387
node/31376137,Brakerøya,stop,602902002,59.7436847,10.2329144
node/31875974,Moss,stop,1,59.4320347,10.657003
node/32641847,Svingen,stop,,59.9290484,11.1774509
node/33044639,Sokna,stop,,60.241187,9.9262395
node/33054032,Ål,stop,06193170,60.6262595,8.5623562
node/33054648,Flå,stop,,60.4321488,9.4734287
node/33055127,Haugastøl,stop,,60.5113972,7.8700003
node/33055220,Nesbyen,stop,06163130,60.5768332,9.1132224
node/33055273,Ustaoset,stop,06203200,60.4964305,8.0451188
node/33055413,Gol,stop,06173150,60.6990565,8.9714018
node/33226160,Sarpsborg,stop,105527002,59.2860585,11.1181871
node/33765679,Makrellbekken,halt,,59.9417607,10.6738684
node/34550232,Lilleby,stop,,63.4399212,10.4321989
node/34846073,Lademoen,stop,,63.4372698,10.4165025
node/35219495,Gullhella,stop,220070001,59.806917,10.4362352
node/35219524,Heggedal,station,02200800,59.787028,10.4311279
node/35219560,Røyken,halt,06274340,59.7468031,10.3899346
node/36408716,Hakadal,stop,1,60.1174726,10.829088
node/36408795,Stryken,stop,,60.1657345,10.7201442
node/36425444,Monsrud,stop,,60.1928462,10.723467
node/36425462,Harestua,stop,,60.2074769,10.7236
node/36425532,Bjørgeseter,stop,,60.2334733,10.7134392
node/36425661,Lunner,stop,,60.3050327,10.5847539
node/36425787,Gran,stop,,60.3591673,10.5695883
node/43107147,Ammerud,stop,,59.9582672,10.871907
node/51982356,Movatn,stop,,60.0377431,10.8131429
node/89441529,Storlien,stop,1,63.3161314,12.0998548
node/190950654,Alvdal,stop,04381072,62.1088018,10.6331987
node/198022469,Vikhammer,stop,,63.4388565,10.6234905
node/227004719,Høn,halt,02200400,59.8436813,10.4560688
node/240487830,Høvik,station,02190200,59.9009344,10.5821874
node/240488207,Stabekk,station,02190100,59.9080486,10.6073323
node/240488633,Lysaker,stop,,59.9132904,10.637213
node/240488929,Skøyen,station,03012500,59.9224287,10.6784991
node/243474549,Alna,stop,,59.932533,10.8354877
node/243476380,Bryn,stop,,59.9084246,10.8194147
node/248123742,Vassijaure,station,Vj,68.4293906,18.2595792
node/248124326,Abisko Östra,stop,,68.3498222,18.8254163
node/248495533,Bodø - Bådåddjo,stop,,67.2864101,14.3917526
node/248571728,Tynset,stop,04371000,62.2747809,10.7761596
node/248583265,Hanestad,stop,04321662,61.8381549,10.8790256
node/248735889,Løten,stop,04158066,60.8188337,11.342532
node/248736650,Hamar,stop,403910001,60.7913969,11.077021
node/249591938,Tønsberg,stop,,59.2720987,10.409423
node/249593941,Sem,stop,,59.2810485,10.3332807
node/249755768,Røros,station,,62.5745704,11.3790134
node/249755778,Os,stop,04412015,62.4974009,11.2271016
node/250910589,Lunde,stop,,59.2988823,9.1008698
node/250911204,Gyland,stop,,58.3842033,6.8375127
node/250911243,Bøylestad,stop,,58.5766171,8.7058309
node/250911315,Arendal,stop,,58.4650354,8.7696417
node/250918240,Gausel,stop,,58.9002759,5.7400344
node/251683605,Braskereidfoss,stop,,60.7231257,11.7932508
node/257435956,Mortensrud,stop,,59.8492926,10.8297294
node/261734286,Munkelia,stop,,59.868965,10.8126312
node/283062255,Larvik,stop,,59.0500401,10.0316665
node/283062257,Torp,stop,,59.1662475,10.267176
node/287962219,Lillehammer,stop,,61.1142507,10.4612694
node/287962276,Fåberg,stop,,61.1708981,10.4054194
node/287962324,Hunderfossen,stop,05017285,61.2230411,10.4387397
node/290640613,Furuset,station,,59.9410674,10.8963987
node/296092184,Nelaug,stop,3,58.6575066,8.6300627
node/296423636,Østerås,stop,,59.9394304,10.6087705
node/297983274,Brøttum,stop,,61.0076139,10.5599212
node/298000298,Stange,stop,,60.7178877,11.1949187
node/298000544,Tangen,stop,,60.6159013,11.2699869
node/298016502,Fåvang,stop,,61.449016,10.1851783
node/298016548,Kvitfjell,stop,,61.4722406,10.1658121
node/298016652,Ringebu,stop,05209104,61.5291335,10.1391188
node/298911887,Grorud,stop,,59.9614424,10.8806958
node/298912549,Romsås,stop,,59.9625545,10.8926908
node/298913139,Rommen,stop,,59.9620548,10.9095944
node/298913708,Stovner,stop,,59.9621589,10.922809
node/298914141,Vestli,stop,,59.9727529,10.929614
node/299755468,Tolga,stop,04361960,62.4088168,10.9981059
node/302728074,Sira,stop,,58.4175784,6.6609055
node/304660586,Brumunddal,stop,,60.8802255,10.937887
node/305444816,Flesberg,stop,,59.8628529,9.4274586
node/305730863,Sandnes sentrum,stop,,58.8522249,5.7364903
node/305946708,Lijordet,stop,,59.940846,10.6164305
node/306215792,Kambo,station,,59.4776453,10.6923218
node/307905216,Skeiane,stop,,58.8475199,5.7335909
node/307905350,Skeiane,stop,,58.847506,5.733901
node/343353925,Varhaug,stop,,58.6182161,5.6464637
node/364506845,Notodden stasjon,stop,,59.5570879,9.2571898
node/364507330,Trykkerud,stop,,59.51214,9.336172
node/367553676,Nisterud,stop,,59.3003905,9.4851118
node/371401066,Elverum,stop,04279001,60.8829542,11.5460413
node/381097089,Katterjåkk,halt,Kjå,68.4197533,18.1613197
node/381097479,Riksgränsen,halt,Rgn,68.4266175,18.1207193
node/388484555,Abisko Turiststation,halt,Akt,68.3574419,18.7825146
node/409005205,Nærbø,stop,,58.6654878,5.6402576
node/409022264,Nodeland,station,,58.1570145,7.83505
node/436528745,Björkliden,stop,1,68.4065232,18.6857989
node/440659975,Godlia,stop,,59.9072012,10.8358679
node/450204466,Lindeberg,station,,60.0396913,11.1284355
node/461991273,Ilseng,stop,04177336,60.7767757,11.2227745
node/462000575,Rudstad,stop,,61.0131272,11.3972462
node/463174797,Gausel,stop,,58.9002791,5.7402587
node/522701555,Storekvina,stop,,58.3796833,6.9577176
node/527384457,Snartemo,stop,,58.3315778,7.2110974
node/527384554,Audnedal,stop,,58.318917,7.3671438
node/541638753,Geilo,stop,06203190,60.5347119,8.2067242
node/587764385,Paradis,stop,,58.9560329,5.7423909
node/633353587,Brekket,stop,,59.8520625,8.6695154
node/633353588,Øvre stasjon,stop,,59.8505398,8.6558375
node/637948120,Bryne,stop,,58.7347515,5.6494358
node/638975290,Haugenstua,halt,,59.9514742,10.9085404
node/654440002,Oppsal,stop,,59.8929813,10.839809
node/654440007,Ulsrud,stop,,59.8895678,10.8494141
node/660867661,Storo,stop,,59.9446075,10.7784095
node/663040484,Sinsen,stop,301210002,59.9373533,10.7816216
node/667948100,Jåttåvågen,stop,,58.9140639,5.7289157
node/668188767,Tveita,stop,,59.9140186,10.8422797
node/668188769,Lindeberg,stop,,59.933167,10.88268
node/668188776,Ellingsrudåsen,station,,59.9367405,10.9152505
node/668215342,Kalbakken,stop,,59.9547836,10.8669173
node/672560811,Ogna,stop,,58.5196987,5.8032775
node/672560834,Sirevåg,stop,,58.5027885,5.8071029
node/672560864,Hellvik,stop,,58.4858795,5.8975161
node/673396035,Vigrestad,stop,,58.5703499,5.6873118
node/674946616,Steinvik,stop,04301533,61.2511703,11.3241702
node/674948035,Opphus,stop,04301506,61.3317524,11.2606781
node/674948545,Evenstad,stop,04301487,61.4232721,11.0997153
node/674949811,Stai,stop,04301485,61.4943062,11.0590016
node/674950114,Koppang,stop,04301475,61.5726238,11.0447486
node/690171777,Grorud,station,,59.9498787,10.8879024
node/690232909,Hanaborg,stop,2,59.9388952,10.9665134
node/718440141,Skatval,stop,,63.5086384,10.8260289
node/721744992,Leirsund,halt,,59.9999567,11.0870456
node/739542122,Kløfta,stop,4,60.0755759,11.1390057
node/739542280,Gardermoen tankterminal,stop,,60.1818854,11.0923543
node/767001291,Strømmen,stop,2,59.9493761,11.0019618
node/825158742,Moi,stop,,58.458139,6.5512929
node/836611842,Brusand,stop,,58.5405072,5.7489009
node/861972705,Mariero,stop,,58.9332054,5.7539693
node/861972991,Mariero,stop,,58.9332002,5.7538883
node/883497141,Skeie,halt,,59.9100951,8.7202583
node/888934184,Lilleby,halt,,63.4399006,10.4324488
node/1017941300,Porsgrunn,stop,,59.1391778,9.6591797
node/1022219651,Hamar,stop,403910004,60.7912015,11.0769657
node/1022255482,Hamar,stop,403910003,60.7912473,11.07698
node/1059122405,Stoa,stop,,58.4660179,8.7092137
node/1064432576,Froland,stop,,58.5294951,8.6544117
node/1064432636,Rise,stop,,58.4683953,8.6237285
node/1064432677,Bråstad,stop,,58.4626986,8.6895762
node/1064432797,Flaten,stop,,58.6362188,8.6808013
node/1069972499,Slependen,halt,02190600,59.885722,10.5026937
node/1071452229,Stabekk,stop,219010001,59.9079621,10.6072697
node/1073811214,Ål,station,ÅL,60.6264752,8.5625708
node/1077168534,Hvalstad,stop,220020001,59.8587545,10.4617625
node/1077839163,Fredrikstad,stop,106522002,59.2090525,10.9503261
node/1077844517,Fredrikstad,stop,106522002,59.2090919,10.9503453
node/1082270624,Frøen,stop,,59.9344125,10.7093989
node/1104758563,Sagdalen,stop,2,59.9562287,11.0160969
node/1107748838,Blommenholm,stop,219030001,59.8973251,10.5550205
node/1107837010,Filipstad,stop,,59.9111576,10.7140188
node/1169019445,Drangedal,stop,,59.0962088,9.0645817
node/1169937671,Vinstra,stop,05169304,61.5953579,9.7469186
node/1179025879,Ullevål stadion,stop,,59.9468184,10.7321477
node/1179025885,Blindern,stop,,59.9401489,10.7160414
node/1188302842,,stop,,59.963187,10.7350426
node/1188303013,,stop,,59.9664876,10.7341118
node/1188309538,,stop,,59.956327,10.7505155
node/1188309539,,stop,,59.9601784,10.7416221
node/1188309542,,stop,,59.951221,10.7442087
node/1188309552,,stop,,59.9534265,10.7524511
node/1239137972,Kvam,stop,05169408,61.6647823,9.7013677
node/1239143658,Auma,stop,04371030,62.2207579,10.6588176
node/1239143667,Atna,stop,04301435,61.7325164,10.8348175
node/1239143668,Bellingmo,stop,04381411,62.0301133,10.7852212
node/1239160554,Tuen,halt,,59.9430116,11.102268
node/1242144312,Tønsberg,stop,,59.2721214,10.4094931
node/1249864126,Nærbø,stop,,58.6654565,5.6404007
node/1256053909,Bjørnsletta,stop,,59.9265081,10.6344868
node/1256054112,Borgen,stop,,59.9345955,10.6957092
node/1256285531,Makrellbekken,stop,,59.9418582,10.6737647
node/1256285589,Holmen,stop,,59.9458823,10.6676693
node/1256285789,,stop,,59.9464404,10.6559573
node/1256626227,Jar,stop,,59.9257603,10.6183445
node/1269891465,Brusand,stop,,58.5405565,5.7489631
node/1275012086,Jar,stop,,59.9249064,10.6165213
node/1275012193,Jar,stop,,59.9248331,10.616676
node/1291093054,Skotterud,stop,,59.9833054,12.1206161
node/1307182870,Lillestrøm,stop,231030001,59.9535885,11.0447476
node/1307182900,Lillestrøm,stop,231030008,59.952969,11.0451936
node/1315527594,Lijordet,stop,,59.9408375,10.6165006
node/1315527632,Østerås,stop,,59.9393986,10.6087591
node/1319452549,Steinerud,stop,,59.9389885,10.7044583
node/1330276371,Ammerud,stop,,59.9582382,10.8719539
node/1330276478,Grorud,stop,,59.9614055,10.8806957
node/1332842597,Voksenkollen,stop,,59.9800387,10.6653414
node/1336437223,Dilling,stop,,59.3981674,10.693636
node/1339016755,Ås,stop,214020001,59.6632617,10.7945204
node/1339017068,Vestby,stop,211010002,59.6037133,10.7483567
node/1339424145,Vevelstad,stop,213070001,59.7562669,10.8374195
node/1339424159,Myrvoll,stop,217050001,59.7864933,10.8004255
node/1339424167,Langhus,stop,213050001,59.7496832,10.8365785
node/1339424313,Oppegård,stop,217040001,59.7651085,10.8130379
node/1339424375,Myrvoll,stop,217050001,59.7865052,10.8005525
node/1339478296,Rosenholm,stop,310093001,59.823998,10.7978267
node/1339478491,Hauketo,stop,301091001,59.8460033,10.8028596
node/1339478952,Nordstrand,stop,301081001,59.8631886,10.7856109
node/1345581797,Hønefoss,stop,,60.1690644,10.2486027
node/1347436475,Steinerud,halt,,59.9389824,10.7043885
node/1347436486,Voksenlia,halt,,59.9668957,10.6548282
node/1347436489,Midtstuen,halt,,59.9613099,10.6830798
node/1347436530,Gaustad,halt,,59.9460976,10.710358
node/1347436532,Gråkammen,halt,,59.9549101,10.7013945
node/1347436638,Gulleråsen,stop,,59.9559774,10.696072
node/1347436674,Besserud,halt,,59.9576815,10.6733667
node/1347436719,Gråkammen,stop,,59.9549473,10.7015336
node/1347436762,Vinderen,halt,,59.9428015,10.7049884
node/1347436771,Holmenkollen,halt,,59.9602991,10.6627086
node/1347436816,Ris,halt,,59.9481707,10.704165
node/1347436843,Vettakollen,halt,,59.9601463,10.6955077
node/1347436922,Slemdal,halt,,59.9509017,10.6943596
node/1347436972,Skådalen,halt,,59.9617087,10.6908389
node/1347468834,Munkelia,stop,,59.8689578,10.8125661
node/1347468861,Ryen,stop,,59.8956883,10.8047194
node/1347468873,Lambertseter,stop,,59.8733567,10.8103315
node/1347468892,Manglerud,stop,,59.8980132,10.8127255
node/1347468914,Karlsrud,stop,,59.8807141,10.8052349
node/1347468966,Brattlikollen,stop,,59.8874082,10.8010417
node/1347468985,Bergkrystallen,stop,,59.867173,10.8209536
node/1347469050,Høyenhall,stop,,59.9059025,10.8197607
node/1347715138,Godlia,stop,,59.9072038,10.835934
node/1347715177,Hellerud,stop,,59.9100822,10.8298327
node/1347991864,Skøyenåsen,stop,,59.899242,10.8366511
node/1347991952,Oppsal,stop,,59.893003,10.8398649
node/1348612381,Ulsrud,stop,,59.8895888,10.8494745
node/1348612653,Bøler,stop,,59.8842557,10.8455565
node/1370376365,Lillehammer,stop,,61.1142464,10.4609859
node/1374738694,Kalbakken,stop,,59.954773,10.8669968
node/1374738695,Linderud,stop,,59.9410052,10.8384864
node/1374738696,Risløkka,stop,,59.9324941,10.8231582
node/1374738697,Rødtvet,stop,,59.9513746,10.8594265
node/1374738698,Veitvet,stop,,59.9445167,10.8469651
node/1374738699,Vollebekk,stop,,59.9358722,10.8311317
node/1374738861,Økern,stop,,59.9282441,10.8062869
node/1376133037,Bogerud,stop,,59.8762217,10.8420799
node/1376133045,Mortensrud,stop,,59.8492806,10.8296673
node/1376133046,Skullerud,stop,,59.8667927,10.840185
node/1399122793,Mørkved,halt,,67.2838445,14.5561096
node/1412656442,Jåttåvågen,stop,,58.9140407,5.7288258
node/1413356944,Lysaker,stop,,59.9134373,10.637227
node/1470837129,Lier,stop,626417001,59.7634562,10.290448
node/1471000179,Høn,stop,220040001,59.8436549,10.456133
node/1471000208,Vakås,stop,220030001,59.8496979,10.4669154
node/1471000261,Vakås,stop,220030001,59.8496443,10.4671283
node/1471000269,Høn,stop,220040001,59.8437106,10.4559687
node/1471040093,Hvalstad,stop,220020001,59.8587824,10.4620036
node/1471067679,Billingstad,stop,220010001,59.8748413,10.4830346
node/1473398098,Røyken,stop,627434001,59.7468501,10.3898523
node/1473398112,Heggedal,stop,220080002,59.7868336,10.4311615
node/1477789875,Brakerøya,stop,602902001,59.7437596,10.2327707
node/1480364055,Breland,station,,58.1995761,7.7202238
node/1489137128,Frøen,halt,,59.9344845,10.7089418
node/1496681330,Marnardal,stop,,58.2128265,7.5123339
node/1575238878,Brumunddal,stop,,60.8801996,10.937819
node/1590843706,Haugerud,stop,,59.9221249,10.8544957
node/1612020256,Tangen,station,04177446,60.6161199,11.2695636
node/1663357270,Haugerud,stop,,59.9221069,10.8545517
node/1664784002,Lindeberg,stop,,59.9331422,10.8827347
node/1676397916,Hasle,stop,,59.924379,10.7946991
node/1687397331,Bekkestua,station,,59.9173125,10.5900467
node/1713101327,Ringstabekk,stop,,59.9201078,10.6043817
node/1713101508,Ringstabekk,stop,,59.9201463,10.6043914
node/1758985465,Holmlia,stop,301092001,59.8344044,10.7970829
node/1758985466,Holmlia,stop,301092001,59.8344146,10.796853
node/1759965001,Nationaltheatret,stop,,59.9155489,10.7319033
node/1759965002,Jernbanetorget,stop,,59.9121868,10.7516885
node/1759965004,Stortinget,stop,1,59.913427,10.7431953
node/1759965009,Stortinget,stop,2,59.9134588,10.7432059
node/1759965067,Nationaltheatret,stop,,59.9156013,10.7319389
node/1759965176,Jernbanetorget,stop,,59.9122248,10.7516943
node/1776221265,Oslo S,stop,8,59.9103386,10.7562283
node/1776221266,Oslo S,stop,11,59.9101623,10.7560602
node/1776221267,Oslo S,stop,12,59.9100593,10.7559633
node/1776221268,Oslo S,stop,3,59.9107188,10.7565907
node/1776221269,Oslo S,stop,2,59.9107569,10.7566268
node/1776221270,Oslo S,stop,7,59.9104432,10.7563266
node/1776221271,Oslo S,stop,5,59.9105794,10.7564553
node/1776221272,Oslo S,stop,6,59.9104771,10.7563628
node/1776221273,Oslo S,stop,4,59.9106179,10.7564891
node/1776221274,Oslo S,stop,17,59.9097462,10.7556583
node/1776221275,Oslo S,stop,10,59.9101984,10.7560957
node/1776221276,Oslo S,stop,19,59.9096077,10.7555249
node/1776221277,Oslo S,stop,9,59.910301,10.7561934
node/1776221278,Oslo S,stop,15,59.9098828,10.7557939
node/1776221279,Oslo S,stop,16,59.909782,10.7556931
node/1776221280,Oslo S,stop,14,59.9099206,10.7558282
node/1776221281,Oslo S,stop,18,59.9096422,10.7555593
node/1776221282,Oslo S,stop,1,59.9108577,10.7567188
node/1776221283,Oslo S,stop,13,59.9100239,10.7559291
node/1820624776,Barkåker,stop,,59.3072838,10.3872116
node/1828743600,Tveita,stop,,59.9140434,10.8422047
node/1873358537,Bjørkhaug,halt,,59.8799378,8.6420617
node/1895970465,Eidsvoll verk,stop,,60.2879988,11.1696609
node/1901215519,Skoppum,stop,2,59.391189,10.4108853
node/1901229671,Skoppum,stop,1,59.3911877,10.4109941
node/1921906890,Vegårshei,stop,,58.7608576,8.8553573
node/1921906923,Vegårshei,stop,,58.7608078,8.8554178
node/1940622903,Kjelsås,stop,,59.9662011,10.7831871
node/1947924880,Brynseng,stop,1,59.9091713,10.8119133
node/1947924885,Brynseng,stop,2,59.909208,10.8119276
node/1947924887,Brynseng,stop,3,59.9092737,10.8119396
node/1951708217,Reli Safari,station,,58.1834614,8.1451178
node/1957339164,Avløs,stop,,59.913079,10.5483334
node/1957339165,Avløs,stop,,59.913108,10.5482869
node/1992629655,Geilo,stop,06203190,60.5347527,8.2066672
node/2005496012,Arneberg,halt,,60.5595309,12.0684103
node/2005496026,Kirkenær,stop,,60.4563249,12.0608418
node/2005496030,Namnå,halt,,60.4974012,12.0789948
node/2005496033,Roverud,station,,60.2560936,12.0529108
node/2009165622,Greverud,stop,217030001,59.7727768,10.8065863
node/2009165633,Ljan,stop,301082001,59.8530386,10.7846087
node/2009165677,Skøyen,stop,,59.9223114,10.6783561
node/2009165698,Solbråtan,stop,217020001,59.8016791,10.8043196
node/2011317766,Bryn,station,03011460,59.9083893,10.8194377
node/2011317814,Bryn,stop,,59.9083627,10.8194796
node/2012791840,Alna,halt,03012050,59.9324168,10.8352756
node/2012791841,Alna,stop,,59.9325723,10.8352382
node/2012791842,Fjellhamar,stop,,59.9406436,10.9818283
node/2012791843,Fjellhamar,station,02300200,59.9407104,10.9818174
node/2012791844,Fjellhamar,stop,,59.9407631,10.9817148
node/2012791848,Hanaborg,station,02300230,59.9388643,10.9662389
node/2012791851,Høybråten,stop,,59.9480276,10.9280137
node/2012791852,Høybråten,halt,03011660,59.9479953,10.9276201
node/2012791853,Høybråten,stop,,59.9480708,10.9280369
node/2012791854,Lørenskog,stop,,59.9448676,10.9455047
node/2012791855,Lørenskog,station,03011770,59.9449342,10.944804
node/2012791856,Lørenskog,stop,,59.9449084,10.9455409
node/2012791863,Strømmen,stop,1,59.9494245,11.0017589
node/2012791887,Lørenskog,stop,,59.9450037,10.9456156
node/2012791969,Grorud,stop,,59.9499338,10.887734
node/2012791970,Grorud,stop,,59.9499709,10.8875819
node/2014100258,Lillestrøm,stop,231030007,59.9530772,11.0451156
node/2014100259,Lillestrøm,stop,231030006,59.9531192,11.0450833
node/2014100260,Lillestrøm,stop,231030005,59.9532337,11.0450032
node/2014100261,Lillestrøm,stop,231030004,59.9533133,11.0449478
node/2014100262,Lillestrøm,stop,231030003,59.9534289,11.0448622
node/2014100263,Lillestrøm,stop,231030002,59.9534713,11.0448313
node/2014208499,Blommenholm,stop,219030001,59.8972028,10.5550875
node/2014208500,Høvik,stop,219020001,59.9004433,10.5804183
node/2014208502,Høvik,stop,219020001,59.9006059,10.5802824
node/2014208506,Sandvika,stop,219040002,59.8924689,10.5248761
node/2014208507,Sandvika,stop,219040002,59.8925602,10.5247795
node/2014208508,Sandvika,stop,219040002,59.892594,10.5247405
node/2014208509,Sandvika,stop,219040001,59.8926769,10.5246105
node/2014813973,Asker,stop,220050006,59.832887,10.4343491
node/2014813974,Asker,stop,220050005,59.8329165,10.4342558
node/2014813975,Asker,stop,220050004,59.8329833,10.4340606
node/2014813976,Asker,stop,220050003,59.8330098,10.433987
node/2014813979,Asker,station,02200500,59.8334885,10.4344797
node/2014813984,Asker,stop,220050002,59.833071,10.4338269
node/2014813986,Asker,stop,220050001,59.8331066,10.4337026
node/2014813987,Billingstad,stop,220010001,59.8747415,10.4831252
node/2014813994,Slependen,stop,219060001,59.8857141,10.5025613
node/2014813998,Slependen,stop,219060001,59.8857432,10.5028183
node/2015100953,Bondivann,halt,02200600,59.8206027,10.4327869
node/2015100959,Gullhella,halt,02200700,59.8069218,10.4363004
node/2015100964,Heggedal,stop,220080002,59.7868135,10.4312354
node/2015100974,Spikkestad,stop,,59.745302,10.3421473
node/2015100978,Spikkestad,stop,,59.7453419,10.3421805
node/2015100982,Spikkestad,station,06274360,59.7450395,10.3431444
node/2015101169,Bondivann,stop,220060001,59.8206293,10.432908
node/2015155923,Sagdalen,halt,02310200,59.956314,11.0157525
node/2017996665,Grorud,stop,,59.9499157,10.887812
node/2063682079,Ensjø,stop,,59.9137566,10.78769
node/2063682081,Helsfyr,stop,,59.9127496,10.8010183
node/2063682082,Majorstuen,stop,1,59.9300835,10.7147203
node/2063682084,Majorstuen,stop,2,59.9301335,10.7148295
node/2064795819,Bekkestua,stop,1,59.9171728,10.5898405
node/2064795831,Bekkestua,stop,2,59.9174492,10.5902447
node/2064795834,Bekkestua,stop,4,59.917595,10.5909901
node/2064795838,Bekkestua,stop,3,59.9177943,10.5914978
node/2064795842,Trosterud,stop,,59.927158,10.8652355
node/2064795848,Trosterud,stop,,59.9271969,10.865216
node/2068529358,Rommen,stop,,59.9620899,10.9096185
node/2068529654,Stovner,stop,,59.9621202,10.9228329
node/2069277000,Moi,stop,,58.4581902,6.5513958
node/2069277001,Sira,stop,,58.417571,6.660802
node/2135313625,Ski,stop,6,59.7195369,10.8348843
node/2163214016,Løren,stop,,59.9297807,10.7902281
node/2163214017,Løren,stop,,59.9298875,10.7903944
node/2189004948,Carl Berners plass,stop,,59.9258223,10.7796724
node/2189004955,Grønland,stop,,59.9127748,10.7601448
node/2195652495,Nydalen,stop,,59.9494409,10.7659768
node/2202378932,Glåmos,stop,,62.6744967,11.4163986
node/2208923449,Eiksmarka,stop,,59.9466651,10.6225018
node/2208923456,Ekraveien,stop,,59.9506083,10.636518
node/2242827241,Nationaltheatret,stop,4,59.9152474,10.7275065
node/2242827242,Nationaltheatret,stop,3,59.9153748,10.7275629
node/2242827243,Nationaltheatret,stop,2,59.9154347,10.7285149
node/2242827244,Nationaltheatret,stop,1,59.9155599,10.7285525
node/2242827245,Tøyen,stop,,59.9156025,10.7758679
node/2242827246,Tøyen,stop,,59.9156223,10.7758131
node/2242827247,Tøyen,stop,,59.9161876,10.7761151
node/2274012035,Majorstuen,halt,,59.9301113,10.7147788
node/2321462131,Hafjell,halt,,61.2396968,10.4300315
node/2366226822,Nordby,halt,,60.1554036,11.1816312
node/2372517008,Kambo,stop,104020002,59.4777862,10.6925743
node/2372517011,Kambo,stop,104020001,59.4778338,10.6923212
node/2372517014,Moss,stop,1,59.4319641,10.6568055
node/2372517021,Moss,stop,1,59.43201,10.6569318
node/2372517025,Sonsveien,stop,211030001,59.5155079,10.7258955
node/2372517028,Sonsveien,stop,211030001,59.5155427,10.7256241
node/2372517031,Sonsveien,halt,,59.5159237,10.7260291
node/2373597937,Hokksund,stop,624660002,59.7670803,9.9107704
node/2374086240,Askim,stop,,59.5818032,11.1631461
node/2374086242,Askim,stop,,59.5818442,11.1631724
node/2374086245,Kråkstad,stop,213040001,59.6835755,10.8908959
node/2374086246,Kråkstad,stop,213040001,59.6835529,10.890825
node/2374086248,Mysen,stop,125010001,59.5543146,11.323837
node/2374086252,Slitu,stop,1255340,59.5669738,11.2617657
node/2374086253,Spydeberg,stop,123060001,59.620821,11.0790114
node/2374086255,Spydeberg,stop,123060001,59.6208611,11.0789669
node/2374086257,Tomter,stop,138010001,59.6599762,11.0023576
node/2374086258,Tomter,stop,138010001,59.6600111,11.0023749
node/2374086298,Mysen,stop,125010001,59.5543111,11.3236358
node/2375332465,Eidsberg,stop,,59.5134279,11.3035903
node/2375332466,Heia,halt,,59.473014,11.3297163
node/2375332467,Heia,stop,,59.4729486,11.3298343
node/2375332468,Rakkestad,stop,128539001,59.427216,11.339219
node/2375332469,Rakkestad,stop,128539001,59.4272078,11.3391043
node/2395120032,Strandlykkja,stop,,60.5323261,11.2421435
node/2395120034,Strandlykkja,stop,,60.5323277,11.2420582
node/2399893576,Gjerstad,stop,,58.870077,9.0230355
node/2408227285,Halden,stop,101546001,59.1203168,11.3838811
node/2408227286,Halden,stop,101546001,59.1203777,11.3838299
node/2408227287,Halden,stop,101546001,59.1202789,11.3839128
node/2408227289,Rygge,stop,136518001,59.3776471,10.7483286
node/2408227290,Rygge,station,,59.3779677,10.7480223
node/2408227291,Rygge,stop,136518002,59.3776814,10.7483986
node/2408227292,Sarpsborg,stop,105527002,59.2860869,11.1182728
node/2408227293,Sarpsborg,station,01055270,59.2862211,11.1177632
node/2408227335,Råde,stop,135519002,59.3475892,10.8652217
node/2409183968,Frogner,stop,2,60.0228954,11.1030166
node/2409183970,Jessheim,station,,60.142311,11.1768609
node/2409183972,Kløfta,station,02350005,60.0753432,11.1391499
node/2409183973,Kløfta,stop,3,60.0755704,11.139321
node/2409183974,Leirsund,stop,1,60.0000038,11.0869142
node/2409183975,Lier,station,06264170,59.7633538,10.2900159
node/2409183981,Lier,stop,626417001,59.7634899,10.2904075
node/2409184629,Frogner,stop,1,60.0228627,11.1030893
node/2409184817,Lindeberg,stop,1,60.0399183,11.1285188
node/2409857393,Brakerøya,station,06029020,59.7437025,10.2328155
node/2409857408,Drammen,stop,602100006,59.7398986,10.205258
node/2409857412,Drammen,stop,602100005,59.7399316,10.2053105
node/2410171846,Oslo lufthavn,station,02350350,60.1931498,11.0968156
node/2410171847,Oslo Lufthavn,stop,1,60.1928778,11.0970739
node/2410171848,Oslo Lufthavn,stop,2,60.1929196,11.0967803
node/2410171849,Oslo Lufthavn,stop,3,60.1929555,11.0965598
node/2410171850,Oslo Lufthavn,stop,4,60.1929905,11.0962934
node/2411364279,Eidsvoll verk,halt,02370430,60.2878638,11.1694069
node/2411364285,Eidsvoll,station,04127160,60.3296757,11.2476689
node/2411364291,Eidsvoll,stop,1,60.3298834,11.2480064
node/2411364295,Eidsvoll,stop,2,60.3298848,11.2480997
node/2411364299,Eidsvoll,stop,3,60.3298907,11.2482639
node/2411364303,Gulskogen,stop,3,59.7437075,10.1594002
node/2411364308,Gulskogen,stop,2,59.7438206,10.1594227
node/2412119860,Darbu,stop,,59.7016266,9.8000048
node/2412119863,Kongsberg,stop,1,59.6720191,9.6511135
node/2412119865,Kongsberg,stop,2,59.6720514,9.6511971
node/2412119872,Kongsberg,stop,3,59.672118,9.6513418
node/2412119874,Mjøndalen,stop,1,59.7509402,10.0114625
node/2412119878,Mjøndalen,stop,2,59.7510181,10.0115019
node/2412119882,Vestfossen,stop,,59.734438,9.8671593
node/2443139435,Fetsund,stop,1,59.9268515,11.1622772
node/2443139437,Nerdrum,stop,,59.922647,11.1417486
node/2443139506,Fetsund,stop,2,59.9268141,11.1623578
node/2443139577,Roven,stop,,59.9586381,11.1969258
node/2443139629,Sørumsand,stop,3,59.9857909,11.2410789
node/2468977076,Romsås,stop,,59.9625193,10.8927177
node/2580696502,Sandvatn,stop,,58.3677558,7.0178717
node/2588297789,Ensjø,stop,,59.913791,10.7877305
node/2670845681,Meheia,stop,,59.6301344,9.5009675
node/2687579655,Hval,stop,,60.1885339,10.3062842
node/2716886031,Tretten,stop,,61.312111,10.2954165
node/2721711209,Gjettum,stop,,59.9085085,10.5306674
node/2721711210,Gjettum,stop,,59.908543,10.5306453
node/2742861169,Asper,stop,,60.112065,11.1399123
node/2744691990,Stryken,stop,,60.165748,10.7202145
node/2752526789,Rudshøgda,stop,,60.9157787,10.8172301
node/2752526928,Moelv,stop,,60.9292796,10.6992205
node/2752527069,Bergsvika,stop,,60.9821732,10.6422643
node/2756896679,Tangen,stop,,60.6164357,11.2695298
node/2756896859,Espa,stop,,60.5815872,11.2710189
node/2756896861,Espa,stop,,60.5816062,11.2709221
node/2756897149,Tangen,stop,,60.6158878,11.2698893
node/2759271745,Stange,station,04177400,60.7177512,11.1948919
node/2759272081,Steinsrud,stop,,60.6582087,11.2239648
node/2759272083,Steinsrud,stop,,60.6582078,11.2240528
node/2759272237,Sørli,stop,,60.6867631,11.2131442
node/2759495502,Stortinget,stop,4,59.9139172,10.7440489
node/2770721510,Vennesla,stop,,58.2530482,7.9677109
node/2770844464,Hamar,stop,403910002,60.7913578,11.0770111
node/2770844472,Hamar,station,04039100,60.7914244,11.0771685
node/2773190859,Bergsvika,stop,,60.982131,10.6422415
node/2776232692,Brumunddal,station,,60.8804239,10.9377046
node/2776233358,Moelv,stop,,60.9292475,10.6991206
node/2777819514,Lillehammer,stop,,61.1142495,10.4611524
node/2778334154,Auli,halt,,60.039276,11.3520367
node/2778334156,Bodung,stop,,60.0849607,11.4195908
node/2778334157,Haga,stop,,60.0538421,11.3731462
node/2778334159,Rånåsfoss,stop,2,60.0293461,11.3277377
node/2778334160,Rånåsfoss,stop,1,60.0293032,11.3278155
node/2778334235,Blaker,stop,1,60.0049383,11.3012863
node/2778334828,Årnes,stop,1,60.1239886,11.4650046
node/2778334831,Årnes,stop,2,60.1240076,11.4649017
node/2779721895,Skarnes,stop,,60.2537164,11.6805806
node/2779722311,Seterstøa,stop,,60.1709988,11.5672372
node/2779723132,Skarnes,stop,,60.253681,11.6806234
node/2779926802,Kongsvinger,stop,,60.1876166,12.0035929
node/2779926803,Kongsvinger,stop,,60.1876536,12.0035902
node/2779926804,Kongsvinger,stop,,60.1877443,12.0035894
node/2779927011,Galterud,stop,,60.1972277,11.8806975
node/2779927194,Sander,stop,,60.2263161,11.8097228
node/2780242974,Jessheim,stop,,60.1417462,11.1769119
node/2780243091,Jessheim,stop,,60.1417595,11.1767962
node/2780243300,Nordby,stop,,60.1553515,11.1817224
node/2780243671,Hauerseter,stop,,60.1848624,11.195177
node/2780243674,Hauerseter,stop,,60.184873,11.1952958
node/2780243678,Hauerseter,stop,,60.1848729,11.1953814
node/2786413454,Dal,stop,,60.2491331,11.2029108
node/2786413537,Sand,stop,,60.2188314,11.1813115
node/2786413728,Dal,stop,,60.2491061,11.2029597
node/2786413734,Dal,stop,,60.24918,11.2028289
node/2790615665,Lysaker,stop,,59.9136107,10.6372433
node/2793357892,Sande,halt,,59.5858539,10.2044219
node/2793357893,Sande,stop,,59.586044,10.2041966
node/2793357894,Sande,stop,,59.5860691,10.2043739
node/2802324063,Skoppum,station,07015070,59.3914629,10.4111458
node/2804550199,Vevelstad,stop,213070001,59.7562787,10.8374883
node/2809156565,Oppegård,stop,217040001,59.7651251,10.8131079
node/2809399640,Hauketo,halt,,59.8460114,10.8031111
node/2811385243,Nordstrand,halt,,59.8635246,10.7858304
node/2811385278,Nordstrand,stop,301081001,59.8631994,10.7857905
node/2811386274,Bekkelaget,stop,,59.8776541,10.7764792
node/2811775854,Tønsberg,station,07045100,59.2720603,10.4093157
node/2824949856,Sandefjord,station,07065140,59.1354204,10.2228969
node/2824949857,Sandefjord,stop,,59.1353268,10.222854
node/2824949858,Sandefjord,stop,,59.135369,10.2228661
node/2824949859,Sandefjord,stop,,59.1354641,10.2229104
node/2824949860,Stokke,stop,,59.2214193,10.300289
node/2824949861,Stokke,stop,,59.2214615,10.3002228
node/2824949862,Stokke,station,07205120,59.2212464,10.3001656
node/2824949863,Torp,halt,07069800,59.165649,10.2663576
node/2828420786,Rena,stop,04290500,61.1345827,11.3695282
node/2828420800,Rena,stop,,61.1345875,11.3694444
node/2848811253,Larvik,stop,,59.0499113,10.0315909
node/2848811254,Larvik,stop,,59.0500013,10.0316469
node/2848811255,Larvik,station,07095190,59.0501491,10.0313875
node/2865174864,Porsgrunn,stop,,59.1391648,9.6590956
node/2867762205,Klepp,stop,,58.7715588,5.6780278
node/2867762209,Klepp,stop,,58.771589,5.6779139
node/2867762212,Klepp,stop,,58.7716104,5.6778377
node/2873194596,Borgestad,stop,,59.166975,9.6449172
node/2873199519,Skien,stop,1,59.2190544,9.603893
node/2873199520,Skien,stop,,59.2190076,9.6037123
node/2881982089,Nordagutu,stop,,59.4180974,9.3228403
node/2881983944,Valebø,stop,,59.3418224,9.3469366
node/2881985059,Nordagutu,stop,,59.4181082,9.3229661
node/2881985077,Nordagutu,stop,,59.4181203,9.3230591
node/2883839782,Hjuksebø,stop,,59.4923715,9.3340649
node/2883839783,Hjuksebø,stop,,59.4924026,9.3339766
node/2897222105,Jaren,stop,1,60.3929834,10.5560178
node/2897222106,Nordtangen,stop,,60.3743621,10.5606476
node/2897222107,Roa,stop,2,60.2834671,10.6205613
node/2897222108,Roa,stop,2,60.2835092,10.6206217
node/2897222109,Roa,stop,2,60.2834196,10.6205031
node/2897582427,Monsrud,stop,,60.1928488,10.7235527
node/2897587726,Grua,stop,1,60.2590534,10.664752
node/2897587727,Grua,stop,1,60.259075,10.6646722
node/2899223984,Hakadal,stop,1,60.1174458,10.8290263
node/2899223985,Stryken,station,,60.165517,10.720238
node/2899223986,Varingskollen,stop,,60.1062252,10.846732
node/2899224294,Åneby,stop,2,60.0856335,10.8625726
node/2899225469,Åneby,stop,2,60.0856338,10.8624653
node/2901483147,Movatn,station,,60.0378275,10.8130061
node/2901483148,Nittedal,stop,,60.0581279,10.8648143
node/2901483149,Nittedal,stop,,60.0581823,10.8648178
node/2901483962,Sandermosen,stop,,60.009016,10.8045604
node/2901484300,Movatn,stop,,60.0377828,10.8130721
node/2905600809,Grefsen,stop,,59.9416079,10.7802262
node/2905600810,Grefsen,stop,,59.9416169,10.7803272
node/2905600811,Tøyen,stop,,59.9209682,10.7805952
node/2905600812,Tøyen,stop,,59.9209656,10.7805201
node/2906330544,Bleiken,stop,,60.4687243,10.5005668
node/2908190634,Eina,stop,,60.6304641,10.5974031
node/2908190638,Eina,stop,,60.6304734,10.5973136
node/2908190643,Eina,stop,,60.6304977,10.5971806
node/2911709228,Raufoss,stop,,60.7221314,10.6136276
node/2911709229,Reinsvoll,stop,,60.6787531,10.6164179
node/2917746331,Gjøvik,stop,,60.7972851,10.694581
node/2917746332,Gjøvik,stop,,60.7972942,10.6946621
node/2927606214,Skotbu,stop,213060001,59.6657816,10.9460631
node/2933281739,Knapstad,stop,138012001,59.6264313,11.032443
node/2961682270,Kornsjø,stop,,58.9413009,11.6591935
node/2966426891,Berg,stop,,59.1255622,11.2915519
node/2982892214,Øysteinstul,stop,,59.5658572,9.3848954
node/2986569883,Saggrenda,stop,,59.6330235,9.6050876
node/3016297356,Darbu,stop,,59.7016527,9.7999527
node/3016297714,Krekling,stop,,59.6693183,9.7669533
node/3016298522,Vestfossen,stop,,59.7344167,9.8672429
node/3037272687,Hokksund,stop,624660003,59.7670332,9.9106364
node/3037280221,Hokksund,stop,624660001,59.7671009,9.9108353
node/3039704282,Steinberg,stop,1,59.7594239,9.9616874
node/3039708225,Steinberg,stop,2,59.759384,9.9616779
node/3050356012,Blakstad,stop,,58.507509,8.648621
node/3059769717,Hauger,stop,,59.9111521,10.5097813
node/3059769718,Hauger,stop,,59.9111855,10.5098084
node/3088222120,Lillestrøm,station,02310300,59.9534148,11.0451526
node/3088222509,Sørumsand,stop,1,59.9858757,11.24104
node/3099155579,Magnor,stop,,59.9513849,12.201847
node/3099155615,Magnor,stop,,59.9513544,12.201791
node/3099160276,Åbogen,stop,,60.1109586,12.114633
node/3111444163,Lindeberg,stop,2,60.0398908,11.1286687
node/3121109743,Bø,stop,,59.4092363,9.0694552
node/3121109744,Bø,stop,,59.4091831,9.069471
node/3122567926,Gvarv,stop,,59.389273,9.1778328
node/3122567931,Gvarv,stop,,59.3893218,9.1777856
node/3124038811,Lunde,stop,,59.2988953,9.1009671
node/3145427534,Drangedal,stop,,59.0962383,9.0644724
node/3145667921,Nakksjø,stop,,59.185979,9.0879295
node/3145667922,Nakksjø,stop,,59.1859991,9.0878607
node/3156508706,Neslandsvatn,stop,1,58.9713211,9.1561529
node/3156508707,Neslandsvatn,stop,2,58.9712938,9.1559591
node/3156508708,Neslandsvatn,stop,1,58.9713054,9.1560605
node/3187193087,Stortinget,stop,3,59.9131326,10.7424751
node/3238357484,Skøyen,stop,3,59.9224162,10.6784691
node/3238357486,Skøyen,stop,2,59.9224528,10.6785018
node/3238357504,Skøyen,stop,1,59.922588,10.6786296
node/3269232610,Helldalsmo,stop,,58.6285931,8.5234707
node/3309283764,Rollag,stop,,59.9849938,9.2946163
node/3329614263,Gjerstad,stop,,58.8701298,9.0230687
node/3399978330,Nedre stasjon,stop,,59.8537188,8.6844124
node/3447640401,Storlien,stop,3,63.315843,12.1004403
node/3447640402,Storlien,stop,2,63.3159218,12.1005278
node/3735274606,Elverum,stop,,60.8829307,11.5458348
node/3977660861,Egersund,stop,,58.4612886,6.0023605
node/3986698654,Paradis,stop,,58.955985,5.7421275
node/4033454033,Hønefoss,stop,1,60.1693435,10.2485597
node/4040564790,Sagdalen,stop,1,59.9561918,11.0160771
node/4068963423,Ski,stop,5,59.7195553,10.8346066
node/4270049284,Vinstra,stop,05169304,61.5953069,9.7468592
node/4333984279,Kringsjå,halt,,58.3152067,7.9592963
node/4352888893,Drammen,station,,59.7401567,10.203823
node/4353505986,Gulskogen,station,,59.7438429,10.1607895
node/4353513414,Hokksund,station,,59.7672653,9.9107409
node/4353516731,Kongsberg,station,,59.6721966,9.6505586
node/4381896050,Grovane,station,,58.2950219,7.9803581
node/4407285962,Bøn,stop,,60.2922959,11.2126249
node/4456605116,Ingolfsland,station,,59.8778353,8.621448
node/4456605117,Rjukan,station,,59.8771065,8.583652
node/4478970436,Holmestrand,stop,,59.4902827,10.3107876
node/4478970437,Holmestrand,stop,,59.4901992,10.3104746
node/4556482033,Fron,stop,,61.5737374,9.8687077
node/4695340610,Haugastøl,stop,,60.5114357,7.8700067
node/4710194147,Tretten,stop,,61.3120968,10.2953262
node/4745270627,Snarum,stop,,60.0235274,9.8766476
node/4746636626,Hensmoen,stop,,60.2314997,10.2451798
node/4748834854,Hen,stop,,60.2189145,10.2261772
node/4750674568,Fåberg,stop,,61.1708811,10.4055152
node/4790089944,Tynset,stop,,62.2748343,10.7760359
node/4790187579,Hanestad,stop,,61.8382092,10.8789862
node/4790190161,Atna,stop,,61.7325533,10.8349125
node/4801012849,Fron,stop,,61.5737762,9.8687483
node/4801489282,Ringebu,stop,05209104,61.5290802,10.1390973
node/4801512589,Losna,stop,,61.3849942,10.2259793
node/4805384153,Flisa,stop,,60.5988209,12.0201067
node/4889717460,Råde,stop,135519002,59.3475451,10.8651908
node/4906817008,Sokna,stop,,60.2412211,9.9263191
node/4917260247,Lyser,stop,,58.9141496,9.1057168
node/4917260271,Lyser,stop,,58.9141244,9.1057838
node/4994321018,Koppang,stop,,61.5725635,11.0445414
node/4994659803,Alvdal,stop,,62.1088369,10.6332986
node/4997100475,Os,stop,04412015,62.4974531,11.2270359
node/5006614495,Ustaoset,stop,,60.4964015,8.0450371
node/5053327617,Hellvik,stop,,58.4858546,5.8974242
node/5058410539,Sandnes sentrum,stop,,58.8522713,5.7364716
node/5063637098,Ogna,stop,,58.5196629,5.8031899
node/5068786069,Ganddal,stop,,58.8232599,5.7168623
node/5083354570,Haugenstua,stop,,59.9515384,10.9082008
node/5103169681,Nyland,stop,,59.9436528,10.8707967
node/5103170034,Haugenstua,stop,,59.9515718,10.9082395
node/5148363495,Fossum,station,,59.9873909,11.282541
node/5148364153,Bingsfos,station,,59.9904108,11.2719056
node/5148364154,Urskog-Hølandsbanen (Tertitten),station,,59.9864229,11.2441608
node/5206900305,Karlsrud,station,,59.8807166,10.8052744
node/5206912738,Hellerud,station,,59.9100673,10.8298389
node/5206918160,Kolsås,station,,59.9140604,10.5017133
node/5218231660,Nationaltheatret,station,,59.9155792,10.7319265
node/5218231661,Smestad,station,,59.9372195,10.6841674
node/5218231662,Forskningsparken,station,,59.9437046,10.7208514
node/5218231663,Blindern,station,,59.9401338,10.716072
node/5218231664,Sinsen,station,301210001,59.9371663,10.78183
node/5218231665,Grønland,station,,59.9127909,10.7601469
node/5218231666,Ullevål stadion,station,,59.9467461,10.7320518
node/5218231667,Nydalen,station,,59.9494009,10.7659732
node/5218231668,Jernbanetorget,station,,59.9122056,10.75169
node/5218231669,Storo,station,,59.944587,10.7785491
node/5218231670,Helsfyr,station,,59.9127328,10.801005
node/5218231672,Borgen,station,,59.9346211,10.695638
node/5218231673,Stortinget,station,,59.9135655,10.7433418
node/5268967301,Ål,stop,06193170,60.6265136,8.5621194
node/5323598248,Miland,halt,,59.9224555,8.7447911
node/5359891568,Furuset,stop,,59.9410757,10.8963787
node/5359891586,Ellingsrudåsen,stop,,59.9367547,10.9152724
node/5359891588,Furuset,stop,,59.9410503,10.8964337
node/5359891589,Ellingsrudåsen,stop,,59.9367263,10.9152286
node/5359891613,Lindeberg,station,,59.9331552,10.882706
node/5359891614,Trosterud,station,,59.9271775,10.8652257
node/5359891615,Haugerud,station,,59.9221162,10.854522
node/5359891616,Tveita,station,,59.9140313,10.8422413
node/5359891617,Brattlikollen,station,,59.8874032,10.8010829
node/5359891618,Ryen,station,,59.8956702,10.8047288
node/5359891619,Manglerud,station,,59.8980022,10.8127548
node/5359891629,Høyenhall,station,,59.9059078,10.8197957
node/5359891692,Brynseng,station,,59.9092386,10.81193
node/5359891693,Lambertseter,station,,59.8733636,10.8103713
node/5359891694,Munkelia,station,,59.8689616,10.8126003
node/5359891695,Bergkrystallen,station,,59.8671534,10.8209472
node/5359891696,Godlia,station,,59.9072025,10.835902
node/5359891697,Skøyenåsen,station,,59.8992384,10.8366859
node/5359891698,Oppsal,station,,59.8929922,10.839837
node/5359891699,Ulsrud,station,,59.8895783,10.8494443
node/5359891700,Bøler,station,,59.8842714,10.8455452
node/5359891701,Bogerud,station,,59.8762194,10.8421165
node/5359891702,Skullerud,station,,59.8667959,10.8401513
node/5359891703,Mortensrud,station,,59.8492866,10.8296983
node/5402584536,Hol,stop,,60.5758216,8.3668882
node/5440780581,Veme,stop,,60.2065746,10.0925947
node/5460200898,Ski,station,,59.7190333,10.8342804
node/5462253232,Vestli,stop,,59.9727541,10.9296858
node/5463924740,Vestli,station,,59.9727535,10.9296499
node/5478620916,Stovner,station,,59.9621403,10.9228232
node/5480418907,Løren,station,,59.9298342,10.7903109
node/5480418908,Hasle,station,,59.9243612,10.794713
node/5480418909,Økern,station,,59.9282615,10.8062778
node/5480418910,Risløkka,station,,59.9325069,10.8231305
node/5480418911,Vollebekk,station,,59.9358146,10.8310497
node/5480418912,Linderud,station,,59.9409633,10.8384197
node/5480418913,Veitvet,station,,59.9445298,10.8469389
node/5480418914,Kalbakken,station,,59.9547781,10.8669584
node/5480418915,Rødtvet,station,,59.9513937,10.8594171
node/5480418916,Ammerud,station,,59.9583008,10.8720569
node/5480418917,Grorud,station,,59.9614243,10.8805488
node/5480418918,Romsås,station,,59.9625369,10.8927042
node/5480418919,Rommen,station,,59.9620728,10.9096067
node/5487374937,Tøyen,station,,59.9157566,10.7757946
node/5526330000,Tinnoset,station,,59.7237592,9.0256463
node/5526330422,Snarum,halt,,60.0234479,9.876585
node/5526330441,Røyknes,station,,58.3434638,7.9003359
node/5526330458,Kløftefoss,halt,,60.089086,9.8351774
node/5526330483,Paulen gård,halt,,58.3116845,7.9602324
node/5526330493,Paulen,halt,,58.3105425,7.961612
node/5526330734,Beihøldalen,station,,58.3299257,7.9270102
node/5526330745,Beihølen dam,halt,,58.3264946,7.9304533
node/5526330777,Krøderen,station,,60.1274694,9.7800969
node/5526330792,Sysle,halt,,59.9940805,9.9165344
node/5526330801,Løyning,halt,,58.3239794,7.9346889
node/5526330804,Vrengen,halt,,58.3161107,7.9453307
node/5526331839,Fredrikstad,station,,59.2089926,10.950307
node/5526331846,Paradis,halt,,58.9560163,5.7422568
node/5526331849,Koppang,station,,61.5729073,11.0444912
node/5526331851,Sandnes sentrum,halt,,58.8523426,5.7366268
node/5526331853,Klepp,station,,58.7716627,5.6776808
node/5526331854,Mariero,halt,,58.9333051,5.754031
node/5526331856,Varingskollen,halt,,60.106014,10.8471558
node/5526331857,Snippen,halt,,60.0239105,10.8099796
node/5526331859,Steinvik,halt,,61.2513109,11.3241327
node/5526331860,Gol,station,,60.6990723,8.970919
node/5526331864,Bryne,station,,58.7347738,5.6495592
node/5526331866,Strømmen,station,,59.9494597,11.0019064
node/5526331870,Knapstad,halt,,59.6263395,11.0323459
node/5526331873,Skatval,station,,63.5086174,10.8264336
node/5526331874,Blakstad,halt,,58.5074795,8.6487176
node/5526331876,Bøylestad,halt,,58.5765989,8.705686
node/5526331878,Løten,station,,60.8187866,11.3422745
node/5526331879,Blaker,station,,60.0049145,11.3013489
node/5526331881,Haga,station,,60.0537415,11.373128
node/5526331882,Ustaoset,station,UST,60.4965404,8.0450665
node/5526331885,Bodø - Bådåddjo,station,BO,67.286319,14.390816
node/5526331886,Os,station,,62.4973588,11.2271258
node/5526331887,Glåmos,station,,62.6744364,11.416766
node/5526331891,Svingen,halt,,59.9289768,11.177339
node/5526331895,Harestua,halt,,60.2068168,10.7232151
node/5526331896,Bråstad,halt,,58.4627579,8.6895152
node/5526331898,Leangen,station,,63.4375592,10.4616227
node/5526331900,Hanestad,station,,61.8380448,10.8786528
node/5526331902,Atna,station,,61.7324758,10.8347076
node/5526331903,Vikhammer,station,,63.4388509,10.6236273
node/5526331904,Gausel,halt,,58.899959,5.7401874
node/5526331905,Marnardal,station,,58.2127346,7.5125673
node/5526331908,Tøyen,halt,,59.9209602,10.7806784
node/5526331910,Alvdal,station,,62.1088871,10.6328822
node/5526331911,Nisterud,halt,,59.3004576,9.4850126
node/5526331915,Rena,station,,61.1347225,11.3697589
node/5526331917,Hellvik,station,,58.4856738,5.8974457
node/5526332021,Nærbø,station,,58.6656716,5.640495
node/5526332023,Kvam,station,,61.6648014,9.7010324
node/5526332024,Rosenholm,halt,,59.8239225,10.7977401
node/5526332026,Øksnavadporten,halt,,58.7866931,5.7016733
node/5526332030,Vevelstad,halt,,59.7564007,10.8372425
node/5526332033,Egersund,station,,58.461243,6.0019004
node/5526332034,Ilseng,halt,,60.776837,11.2224477
node/5526332035,Brusand,station,,58.5403239,5.7491718
node/5526332040,Ogna,station,,58.5197043,5.8034036
node/5526332041,Nyland,halt,,59.9436106,10.8708453
node/5526332043,Ringebu,station,,61.5291744,10.1393172
node/5526332044,Vegårshei,station,,58.7608186,8.8556899
node/5526332045,Trykkerud,halt,,59.5120678,9.3362176
node/5526332049,Solbråtan,halt,,59.8009843,10.8045047
node/5526332050,Froland,halt,,58.5294503,8.654452
node/5526332055,Hønefoss,station,,60.1692786,10.2490896
node/5526332057,Bodung,halt,,60.0851073,11.419931
node/5526332059,Stoa,halt,,58.4659857,8.7094256
node/5526332060,Lysaker,station,,59.9135555,10.6370189
node/5526332061,Sira,station,,58.4176303,6.6606467
node/5526332062,Gyland,station,,58.3843305,6.8377206
node/5526332064,Lademoen,halt,,63.4372254,10.4166393
node/5526332065,Opphus,station,,61.3315584,11.2606781
node/5526332067,Tynset,station,,62.2747634,10.7762481
node/5526332069,Stai,halt,,61.4944534,11.0589211
node/5526332074,Geilo,station,,60.5345261,8.2063719
node/5526332075,Auma,halt,,62.2206604,10.6586164
node/5526332077,Arendal,station,,58.4650241,8.7695237
node/5526332078,Nydalen,halt,,59.9517781,10.7717037
node/5526332081,Evenstad,halt,,61.4232503,11.0995624
node/5526332082,Skeiane,station,,58.8474949,5.733783
node/5526332084,Vikersund,station,,59.969149,9.9982696
node/5526332085,Varhaug,station,,58.618218,5.6463368
node/5526332086,Ganddal,station,,58.8234188,5.7172555
node/5526332088,Jåttåvågen,halt,,58.914057,5.7288647
node/5526332093,Greverud,halt,,59.7729875,10.8062184
node/5526332094,Flå,station,,60.4322693,9.4730746
node/5526332095,Nelaug,station,,58.6574728,8.6307293
node/5526332096,Kvitfjell,halt,,61.4725915,10.1658523
node/5526332097,Sirevåg,halt,,58.502654,5.807304
node/5526332099,Vigrestad,station,,58.5703429,5.6875586
node/5526332103,Myrvoll,halt,,59.7860145,10.8004843
node/5526332105,Skotbu,halt,,59.6657321,10.9460631
node/5526332106,Holmlia,halt,,59.834725,10.7970435
node/5526332107,Flaten,halt,,58.6361993,8.6807236
node/5526332109,Elverum,station,,60.8828217,11.5465831
node/5526332115,Tolga,station,,62.4085448,10.9979838
node/5526332118,Lillehammer,station,,61.1147456,10.4613069
node/5526332221,Hunderfossen,halt,,61.2233355,10.4386163
node/5526332222,Audnedal,station,,58.3188255,7.367471
node/5526332223,Bellingmo,halt,,62.0301008,10.7851336
node/5526332228,Nerdrum,halt,,59.9229324,11.1410435
node/5526332230,Notodden kollektivterminal,halt,,59.5569873,9.2569804
node/5527685977,Holmestrand,station,,59.4901464,10.3107247
node/5542796337,Hove,stop,,61.1394742,10.4221207
node/5551484082,Selåsvatn,stop,,58.6911515,8.7262891
node/5551484099,Selåsvatn,stop,,58.6912076,8.7261983
node/5594217578,Marnardal,stop,,58.21282,7.5122204
node/5594217579,Breland,stop,,58.1995706,7.7195947
node/5594217580,Vigrestad,stop,,58.5702749,5.6872232
node/5594217582,Stavanger,stop,,58.9662259,5.7331014
node/5594217583,Stavanger,stop,,58.9661902,5.7329122
node/5594217584,Stavanger,stop,,58.9661286,5.7325985
node/5594217585,Stavanger,stop,,58.9661158,5.7325179
node/5594217587,Varhaug,stop,,58.6182229,5.646563
node/5594217591,Skeiane,stop,,58.8475173,5.7336885
node/5594217592,Heskestad,stop,,58.4736325,6.3635556
node/5594217593,Gyland,stop,,58.3841472,6.8375415
node/5594217594,Nodeland,stop,,58.1572226,7.8349914
node/5594217595,Snartemo,stop,,58.3315167,7.2111149
node/5594217597,Helleland,stop,,58.5336119,6.1549924
node/5594217598,Audnedal,stop,,58.318931,7.3672624
node/5594217605,Egersund,stop,,58.461351,6.0023805
node/5594217610,Breland,stop,,58.1996255,7.7195828
node/5594217615,Stavanger,stop,,58.9661758,5.7328295
node/5594217617,Ualand,stop,,58.5286871,6.3432723
node/5594217619,Bjørkevoll,stop,,58.4094655,6.7367222
node/5594218121,Heskestad,stop,,58.4736406,6.3636655
node/5594218123,Helleland,stop,,58.5336761,6.1549851
node/5594218124,Nodeland,stop,,58.1572438,7.8350876
node/5594450651,Herefoss,stop,,58.535887,8.3520998
node/5594450652,Herefoss,stop,,58.5358529,8.3521559
node/5594450655,Oggevatn,stop,,58.444101,8.1111999
node/5594450657,Dalane,stop,,58.1625607,7.9516715
node/5594450658,Dalane,stop,,58.1625777,7.9517546
node/5594450672,Dalane,stop,,58.1625979,7.9518696
node/5594450680,Skorstøl,stop,,58.7883529,9.0209354
node/5594450685,Langemyr,stop,,58.1795283,7.9387258
node/5594450689,Grovane,stop,,58.2951179,7.9801005
node/5594450690,Grovane,stop,,58.2951126,7.9802202
node/5594450691,Kristiansand,stop,,58.1457738,7.9881519
node/5594450694,Nelaug,stop,4,58.657466,8.6300008
node/5594450695,Nelaug,stop,,58.6575964,8.6301859
node/5594450707,Oggevatn,stop,,58.4440546,8.1112535
node/5594450709,Fidjetun,stop,,58.5227367,8.234189
node/5594450710,Skorstøl,stop,,58.7883735,9.0208669
node/5594450711,Langemyr,stop,,58.1795452,7.9388242
node/5594450717,Grovane,stop,,58.2951065,7.9803044
node/5594450719,Kristiansand,stop,,58.1457327,7.9881556
node/5594451721,Nelaug,stop,2,58.657557,8.6301346
node/5594451722,Helldalsmo,stop,,58.6286395,8.523549
node/5594451728,Vennesla,stop,,58.2530329,7.9678148
node/5594658991,Flå,stop,,60.4321721,9.4734999
node/5594658993,Nesbyen,stop,06163130,60.576856,9.113304
node/5594658995,Bergheim,stop,,60.4761389,9.2482594
node/5594658996,Bergheim,stop,,60.4761763,9.2482897
node/5594659002,Gol,stop,06173150,60.6990137,8.9714232
node/5594659008,Torpo,stop,,60.6597134,8.7160876
node/5594659010,Gulsvik,stop,,60.3830904,9.6057549
node/5594662238,Veme,stop,,60.2066193,10.0925758
node/5594662240,Trolldalen,stop,,60.3029906,9.6833584
node/5594662244,Gulsvik,stop,,60.3831356,9.605797
node/5594662246,Torpo,stop,,60.6596727,8.7161071
node/5594662248,Hol,stop,,60.5758661,8.3669048
node/5595129346,Vikhammer,stop,,63.4388056,10.6235399
node/5595129347,Bodø - Bådåddjo,stop,,67.2865049,14.391662
node/5595130548,Skatval,stop,,63.5085941,10.8260312
node/5595130959,Mørkved,stop,,67.2840092,14.5586715
node/5596699203,Øyer,stop,,61.2636155,10.4068261
node/5596700047,Ottestad,stop,,60.7466334,11.1402051
node/5596700056,Jessnes,stop,,60.8285968,10.9854946
node/5596700066,Brøttum,stop,,61.007646,10.5599669
node/5596700100,Bergseng,stop,,61.0362492,10.4859768
node/5596700235,Kvam,stop,05169408,61.6647287,9.7013998
node/5596700236,Hove,stop,,61.139448,10.4220048
node/5596700240,Fåvang,stop,,61.449008,10.1850718
node/5596700248,Hundorp,stop,,61.5472537,9.9681549
node/5596700249,Hundorp,stop,,61.5472339,9.9681785
node/5596700282,Øyer,stop,,61.2636387,10.4069002
node/5596700285,Ottestad,stop,,60.7466819,11.1402683
node/5596700287,Rudshøgda,stop,,60.9157223,10.8172427
node/5596700290,Jessnes,stop,,60.8286353,10.98554
node/5596700291,Bergseng,stop,,61.0362811,10.4860323
node/5596700296,Losna,stop,,61.3849404,10.2259346
node/5649073884,Kolbotn,station,,59.8107255,10.801122
node/5708922580,Løten,stop,,60.8187988,11.3426147
node/5708922584,Elverum,stop,,60.8829649,11.5462134
node/5708922596,Koppang,stop,,61.5726032,11.0446779
node/5708922615,Tolga,stop,,62.4087946,10.9981956
node/5708922952,Røros,stop,,62.5745197,11.3789874
node/5709159949,Disenå,stop,,60.2090614,11.6424189
node/5709159950,Matrand,stop,,60.0274193,12.1245098
node/5709339715,Rolvsøy,stop,,59.2589917,11.0093772
node/5709339829,Onsøy,stop,,59.2692877,10.9066333
node/5709339834,Aspedammen,stop,,59.0589658,11.4831329
node/5709339835,Lisleby,stop,,59.234124,10.9785996
node/5709339838,Sandesund,stop,,59.2764179,11.0903405
node/5709339839,Haug,stop,,59.3536122,10.8156614
node/5709339840,Skjeberg,stop,,59.2106747,11.1895779
node/5709339841,Ingedal,stop,,59.1586661,11.2395597
node/5709339842,Ise,stop,,59.3002912,11.219565
node/5709373901,Skollenborg,stop,,59.6223384,9.6951639
node/5711841426,Grenlandsterminalen,stop,,59.0664222,9.6980522
node/5712103005,Jensrud,stop,,60.1464722,10.7710551
node/5712251488,Grindvoll,stop,,60.2961214,10.4890572
node/5712251489,Jevnaker,stop,,60.2401906,10.4048822
node/5712251490,Hønefoss,stop,5,60.1691311,10.2485892
node/5712251492,Vikersund,stop,,59.9693127,9.9981138
node/5712251497,Skotselv,stop,,59.8461599,9.8959537
node/5712251498,Tyristrand,stop,,60.0840755,10.1064471
node/5712315751,Krøderen,stop,,60.127576,9.7798975
node/5712315756,Kløftefoss,stop,,60.0890917,9.8352152
node/5712315757,Kløftefoss,stop,,60.0891208,9.8352793
node/5712315758,Sysle,stop,,59.994049,9.9164432
node/5712315764,Sysle,stop,,59.9940034,9.9164528
node/5713779315,Mæl,station,,59.929437,8.8112702
node/5713779316,Øverland,halt,,59.8851301,8.6835551
node/5713779317,Buslåtten,halt,,59.9256108,8.8010984
node/5720557859,Kråkstad,station,,59.6833949,10.8909032
node/5720557860,Kristiansand,station,,58.14564,7.987168
node/5720557861,Haugastøl,station,HAU,60.5112865,7.8705212
node/5720557862,Nittedal,station,,60.0582746,10.8644754
node/5720557865,Raufoss,station,,60.7222414,10.6135011
node/5720557866,Reinsvoll,halt,,60.6789834,10.6164542
node/5720557868,Blommenholm,halt,,59.8972154,10.5547312
node/5720557869,Frogner,station,02260060,60.022807,11.1031812
node/5720557870,Slitu,halt,,59.5668864,11.2620807
node/5720557871,Kjelsås,station,,59.9660621,10.7830301
node/5720557872,Stavanger,station,,58.9665765,5.7322159
node/5720557873,Oppegård,station,,59.7651684,10.8132693
node/5720557874,Hakadal,station,,60.1173418,10.8294457
node/5720557875,Gjerstad,station,,58.8698595,9.0233347
node/5720557876,Moelv,station,,60.9296203,10.6989536
node/5720557877,Rakkestad,station,,59.4271248,11.339398
node/5720557878,Nordagutu,station,,59.4180062,9.3226987
node/5720557879,Drangedal,station,08179100,59.0961078,9.0641311
node/5720557880,Kongsvinger,station,,60.1875079,12.0035962
node/5720557881,Bleiken,halt,,60.4686476,10.5004591
node/5720557882,Skarnes,station,,60.2538602,11.6804033
node/5720557883,Halden,station,01015460,59.1199744,11.3833541
node/5720557884,Spydeberg,station,,59.6207942,11.0793391
node/5720557885,Eina,station,,60.6303188,10.5974936
node/5720557886,Nesbyen,station,,60.5769153,9.1128628
node/5720557887,Gjøvik,station,,60.7970075,10.6945413
node/5720557889,Langhus,station,,59.7496731,10.836611
node/5720557890,Neslandsvatn,station,,58.9715169,9.1561657
node/5720557891,Sørumsand,station,,59.9858268,11.2408356
node/5720557893,Ås,station,,59.6630433,10.7944912
node/5720557894,Lunde,station,08199140,59.2988478,9.101159
node/5720557895,Vennesla,station,,58.2531752,7.9676253
node/5720557897,Åneby,station,,60.0854639,10.8627588
node/5720557898,Darbu,station,,59.7014181,9.7999147
node/5720557899,Eidsberg,halt,,59.5135508,11.3037863
node/5720557900,Bø,station,08219170,59.4093247,9.0695411
node/5720557901,Grefsen,station,,59.9418161,10.7804364
node/5720557902,Hauerseter,station,,60.1846114,11.1956584
node/5720557904,Vestby,station,,59.6035181,10.7483518
node/5720557905,Ljan,halt,,59.8527804,10.7849921
node/5720557906,Grua,station,,60.2590571,10.6649485
node/5720557907,Fetsund,station,,59.9270625,11.1623481
node/5720557908,Porsgrunn,station,,59.1400961,9.6585971
node/5720557909,Dal,station,,60.2489165,11.2028575
node/5720557910,Årnes,station,,60.1236367,11.4648744
node/5720557911,Lunner,halt,,60.3048253,10.5845332
node/5720557912,Mjøndalen,station,,59.7508637,10.0108436
node/5720557913,Roa,station,,60.2834922,10.6209335
node/5720557914,Rise,halt,,58.4686056,8.6234844
node/5720557915,Moss,station,01045160,59.431954,10.6573418
node/5720557916,Gran,station,,60.3588491,10.5698937
node/5720557917,Jaren,station,,60.3929443,10.5557772
node/5720557918,Steinberg,station,,59.7595237,9.96144
node/5720557919,Snartemo,station,,58.331673,7.2115856
node/5720559121,Tomter,station,,59.6598277,11.0026279
node/5720559122,Storekvina,halt,,58.3795631,6.9581544
node/5720559123,Mysen,station,,59.5537833,11.3240316
node/5720559124,Råde,station,,59.3474237,10.8654182
node/5720559125,Vestfossen,station,,59.7343521,9.8673454
node/5720559127,Askim,station,,59.5817506,11.163087
node/6009935309,Kristiansand,stop,,58.1456083,7.9857063
node/6184808734,Ensjø,station,,59.9137698,10.7877106
node/6436451255,Kristiansand,stop,,58.1455381,7.9861499
node/6731627183,Leangen,stop,,63.437341,10.4626236
node/6731627184,Leangen,stop,,63.4372409,10.4624787
node/6884273012,Voksenkollen,stop,,59.9800784,10.6653007
node/7544558177,Lena stasjon,stop,,60.6740423,10.8163512
node/7657048729,Ski,stop,1,59.718814,10.833652
node/7689308228,Ski,stop,2,59.7188416,10.8339532
node/7689308229,Ski,stop,3,59.7188498,10.8340424
node/7689308230,Ski,stop,4,59.718876,10.8343281
node/8008589692,Volvat stasjon,station,,59.93299,10.7042676
node/8444746218,Carl Berners plass,station,,59.925774,10.7796115
node/8494472482,Storlien,station,Str,63.3162624,12.0998936
node/9578899012,Gjønnes,station,,59.9150676,10.5800844
node/9578933793,Haslum,station,,59.9151601,10.5652938
node/9579541327,Åsjordet,station,,59.9288612,10.6483205
node/9579541520,Ullernåsen,station,,59.9314893,10.6559774
node/9579541560,Montebello,station,,59.9348374,10.6664078
node/9592809017,Jar,station,,59.9257716,10.6183135
node/9592809324,Bjørnsletta,station,,59.9265225,10.6344657
node/9594258774,Ringstabekk,station,,59.9201271,10.6043865
node/9604515447,Hauger,station,,59.9111688,10.5097948
node/9604515448,Gjettum,station,,59.9085257,10.5306564
node/9604515550,Avløs,station,,59.9130935,10.5483102
node/9611262217,Eiksmarka,station,,59.9470588,10.6232583
node/9611262219,Lijordet,station,,59.9408418,10.6164655
node/9611262220,Østerås,station,,59.9394145,10.6087648
node/9783304169,Jaren,stop,3,60.3928741,10.5564398
node/9956357940,Fall stasjon,station,,60.6794611,10.3710667
node/10690148105,Rånåfoss,station,,60.0293282,11.327766
node/11161033296,Jevnaker stasjon,station,,60.2400232,10.4048683
node/11161081063,Gunstad stasjon,halt,,60.2921611,10.4234695
node/11383125340,Björkliden,station,Bln,68.406528,18.6856266
node/11383125341,Abisko Östra,station,Ak,68.3490044,18.8286006
node/11990454554,,stop,,59.9864374,11.2438353
node/11990454555,,stop,,59.9864045,11.2438539
node/11990454563,,stop,,59.9904537,11.2718388
node/11990454564,,stop,,59.9904295,11.2718793
node/11990471772,Fossum,stop,,59.9874072,11.2826086
node/11990471773,Fossum,stop,,59.9874108,11.2826651
node/12155430074,Hovseter,halt,,59.9463688,10.6548809
node/12155483397,Sognsvann,halt,,59.9671378,10.7339696
node/12156340542,Kringsjå,halt,,59.9638324,10.7348835
node/12156367136,Holstein,halt,,59.9604561,10.7408722
node/12157563628,Østhorn,halt,,59.9568291,10.7499126
node/12157596277,Tåsen,halt,,59.9538576,10.7522665
node/12157661971,Berg,halt,,59.9512595,10.7452558
node/12177356790,,stop,,59.8106462,10.801304
node/12239665129,Årnes,stop,4,60.1236113,11.4649227
node/12247157777,Blaker,stop,2,60.0049623,11.3012169
node/12565339827,Låktatjåkka,halt,Låk,68.4236405,18.3249952
node/12809528726,Lillestrøm,stop,231030001,59.9106292,10.7562623
node/12809528727,Lillestrøm,stop,231030001,59.953605,11.0445703
node/12809700593,Drammen,stop,602100004,59.7400542,10.2053773
node/12809700594,Drammen,stop,602100003,59.7400857,10.2054342
node/12809700595,Drammen,stop,602100002,59.7401673,10.2056113
node/12809700596,Drammen,stop,602100001,59.7401961,10.2056852
node/13308780251,Abisko Östra,stop,,68.3497425,18.825246
