uri,uri_canonical,id,name,lat,lon,op_type,op_type_label,country,op_type_code,op_type_name
http://data.europa.eu/949/functionalInfrastructure/operationalPoints/4eeb2bfea8927471f3be0a753fcf6e04431d8bf0,http://data.europa.eu/949/functionalInfrastructure/operationalPoints/HR75060,HR75060,Karlovac,45.5001,15.5449,http://data.europa.eu/949/concepts/op-types/rinf/10,10,http://publications.europa.eu/resource/authority/country/HRV,10,station
http://data.europa.eu/949/functionalInfrastructure/operationalPoints/9788ee9a079042417c02929bfce93e8ec7886075,http://data.europa.eu/949/functionalInfrastructure/operationalPoints/HR72303,HR72303,Zagreb RK OS,45.7541,16.0276,http://data.europa.eu/949/concepts/op-types/rinf/40,40,http://publications.europa.eu/resource/authority/country/HRV,40,freight terminal
http://data.europa.eu/949/functionalInfrastructure/operationalPoints/a05c1cb0dc7c148b8ad6b3bcc42606a577909af6,http://data.europa.eu/949/functionalInfrastructure/operationalPoints/HR73160,HR73160,Koprivnica,46.1655,16.8168,http://data.europa.eu/949/concepts/op-types/rinf/10,10,http://publications.europa.eu/resource/authority/country/HRV,10,station
http://data.europa.eu/949/functionalInfrastructure/operationalPoints/b865099d471d202828c03bc89fce5d725484aa2a,http://data.europa.eu/949/functionalInfrastructure/operationalPoints/HR75560,HR75560,Rijeka,45.3301,14.4303,http://data.europa.eu/949/concepts/op-types/rinf/10,10,http://publications.europa.eu/resource/authority/country/HRV,10,station
http://data.europa.eu/949/functionalInfrastructure/operationalPoints/00cae7874e10eebf86ea106324ea87fabe2d93a5,http://data.europa.eu/949/functionalInfrastructure/operationalPoints/HR78651,HR78651,Kula Norinska,43.0297,17.6051,http://data.europa.eu/949/concepts/op-types/rinf/70,70,http://publications.europa.eu/resource/authority/country/HRV,70,passenger stop
http://data.europa.eu/949/functionalInfrastructure/operationalPoints/00f8c0db450dc3099779ae865ee6efa2c91bcf27,http://data.europa.eu/949/functionalInfrastructure/operationalPoints/EU00213,EU00213,Mursko Središće DG,46.51546,16.44405,http://data.europa.eu/949/concepts/op-types/rinf/90,90,http://publications.europa.eu/resource/authority/country/HRV,90,border point
http://data.europa.eu/949/functionalInfrastructure/operationalPoints/014087e4972006c3b87811fb79fbf174ef86a8a9,http://data.europa.eu/949/functionalInfrastructure/operationalPoints/HR72509,HR72509,Popovača,45.5592,16.6235,http://data.europa.eu/949/concepts/op-types/rinf/10,10,http://publications.europa.eu/resource/authority/country/HRV,10,station
http://data.europa.eu/949/functionalInfrastructure/operationalPoints/03991eacb91f3150e8c472b22ccf6a841548f660,http://data.europa.eu/949/functionalInfrastructure/operationalPoints/HR75605,HR75605,Šapjane,45.4766,14.2444,http://data.europa.eu/949/concepts/op-types/rinf/10,10,http://publications.europa.eu/resource/authority/country/HRV,10,station
http://data.europa.eu/949/functionalInfrastructure/operationalPoints/041854a981cef062e620e956fd136e1cd257bdc7,http://data.europa.eu/949/functionalInfrastructure/operationalPoints/HR72604,HR72604,Nova Gradiška,45.2534,17.3793,http://data.europa.eu/949/concepts/op-types/rinf/10,10,http://publications.europa.eu/resource/authority/country/HRV,10,station
http://data.europa.eu/949/functionalInfrastructure/operationalPoints/0480dad28be17b4355350f7e5466b9cdfb8939f0,http://data.europa.eu/949/functionalInfrastructure/operationalPoints/HR74007,HR74007,Zaprešić Savska,45.855,15.7948,http://data.europa.eu/949/concepts/op-types/rinf/70,70,http://publications.europa.eu/resource/authority/country/HRV,70,passenger stop
http://data.europa.eu/949/functionalInfrastructure/operationalPoints/05367d0e76bb2c9ba5f35013e14aa0c586f3536b,http://data.europa.eu/949/functionalInfrastructure/operationalPoints/HR72517,HR72517,Dugo Selo,45.8014,16.2347,http://data.europa.eu/949/concepts/op-types/rinf/10,10,http://publications.europa.eu/resource/authority/country/HRV,10,station
http://data.europa.eu/949/functionalInfrastructure/operationalPoints/054cdcb71fa490d90dd3360cca1b74abd232cf21,http://data.europa.eu/949/functionalInfrastructure/operationalPoints/HR71404,HR71404,Gradište,45.1444,18.6999,http://data.europa.eu/949/concepts/op-types/rinf/70,70,http://publications.europa.eu/resource/authority/country/HRV,70,passenger stop
http://data.europa.eu/949/functionalInfrastructure/operationalPoints/0638ca49f5d689250bb037c6e522bbc6cc3b065a,http://data.europa.eu/949/functionalInfrastructure/operationalPoints/HR72511,HR72511,Novoselec,45.6493,16.5299,http://data.europa.eu/949/concepts/op-types/rinf/10,10,http://publications.europa.eu/resource/authority/country/HRV,10,station
http://data.europa.eu/949/functionalInfrastructure/operationalPoints/074c6067963a877202baa644de56cd1ec0affc94,http://data.europa.eu/949/functionalInfrastructure/operationalPoints/HR71301,HR71301,Vrapčana,45.2609,18.8262,http://data.europa.eu/949/concepts/op-types/rinf/10,10,http://publications.europa.eu/resource/authority/country/HRV,10,station
http://data.europa.eu/949/functionalInfrastructure/operationalPoints/0912ebbe454a3d01a6378f7bc7580cdf50286beb,http://data.europa.eu/949/functionalInfrastructure/operationalPoints/HR72602,HR72602,Staro Petrovo Selo,45.2221,17.5259,http://data.europa.eu/949/concepts/op-types/rinf/10,10,http://publications.europa.eu/resource/authority/country/HRV,10,station
http://data.europa.eu/949/functionalInfrastructure/operationalPoints/09c19f8b334cd12639f6f1a88aa6750afe4eadb0,http://data.europa.eu/949/functionalInfrastructure/operationalPoints/HR73110,HR73110,Vrbovec,45.8736,16.4104,http://data.europa.eu/949/concepts/op-types/rinf/10,10,http://publications.europa.eu/resource/authority/country/HRV,10,station
http://data.europa.eu/949/functionalInfrastructure/operationalPoints/0adfc7b02a47d46354d94317470203ef6a555469,http://data.europa.eu/949/functionalInfrastructure/operationalPoints/HR76405,HR76405,Drniš,43.8637,16.1819,http://data.europa.eu/949/concepts/op-types/rinf/10,10,http://publications.europa.eu/resource/authority/country/HRV,10,station
http://data.europa.eu/949/functionalInfrastructure/operationalPoints/0aeeefc58814caac2e1a4882f4fe0c741f4900cf,http://data.europa.eu/949/functionalInfrastructure/operationalPoints/HR73806,HR73806,Jalžabet,46.2685,16.4717,http://data.europa.eu/949/concepts/op-types/rinf/10,10,http://publications.europa.eu/resource/authority/country/HRV,10,station
http://data.europa.eu/949/functionalInfrastructure/operationalPoints/0afe0466b25ae11701860cdc638879aeeb7ccf11,http://data.europa.eu/949/functionalInfrastructure/operationalPoints/EU00221,EU00221,Slavonski Šamac DG,45.061,18.49626,http://data.europa.eu/949/concepts/op-types/rinf/90,90,http://publications.europa.eu/resource/authority/country/HRV,90,border point
http://data.europa.eu/949/functionalInfrastructure/operationalPoints/0b1b94c21d1952a66995664e84a96d0c669a2410,http://data.europa.eu/949/functionalInfrastructure/operationalPoints/HR73101,HR73101,Mučna Reka,46.1231,16.7605,http://data.europa.eu/949/concepts/op-types/rinf/10,10,http://publications.europa.eu/resource/authority/country/HRV,10,station
http://data.europa.eu/949/functionalInfrastructure/operationalPoints/0b3b875976e290754f62414b15fbcca6f4f8d751,http://data.europa.eu/949/functionalInfrastructure/operationalPoints/HR77413,HR77413,Čabrunići,45.0416,13.866,http://data.europa.eu/949/concepts/op-types/rinf/70,70,http://publications.europa.eu/resource/authority/country/HRV,70,passenger stop
http://data.europa.eu/949/functionalInfrastructure/operationalPoints/0b46a104aabb340e0d0872e68990681f42ad9ff9,http://data.europa.eu/949/functionalInfrastructure/operationalPoints/EU00218,EU00218,Čakovec DG,46.38822,16.30414,http://data.europa.eu/949/concepts/op-types/rinf/90,90,http://publications.europa.eu/resource/authority/country/HRV,90,border point
http://data.europa.eu/949/functionalInfrastructure/operationalPoints/0ba7167a21bc38d8955e3c48d35019fc7e6db821,http://data.europa.eu/949/functionalInfrastructure/operationalPoints/HR72514,HR72514,Ivanić Grad,45.7074,16.3978,http://data.europa.eu/949/concepts/op-types/rinf/10,10,http://publications.europa.eu/resource/authority/country/HRV,10,station
http://data.europa.eu/949/functionalInfrastructure/operationalPoints/0bc8952f1d3e37be83f44510c914a0b7eab845b7,http://data.europa.eu/949/functionalInfrastructure/operationalPoints/HR76514,HR76514,Kaštel Gomilica,43.5535,16.4002,http://data.europa.eu/949/concepts/op-types/rinf/70,70,http://publications.europa.eu/resource/authority/country/HRV,70,passenger stop
http://data.europa.eu/949/functionalInfrastructure/operationalPoints/0c8a7caa8d8f1ce8c1e86074411e0d0dcf46664e,http://data.europa.eu/949/functionalInfrastructure/operationalPoints/HR74603,HR74603,Velika Ves,46.115,15.8877,http://data.europa.eu/949/concepts/op-types/rinf/70,70,http://publications.europa.eu/resource/authority/country/HRV,70,passenger stop
http://data.europa.eu/949/functionalInfrastructure/operationalPoints/0cd3b1d4ab7c1183bc176726b4b0564bb4cf33cc,http://data.europa.eu/949/functionalInfrastructure/operationalPoints/HR73720,HR73720,Potočani-Katinac,45.6501,17.3931,http://data.europa.eu/949/concepts/op-types/rinf/70,70,http://publications.europa.eu/resource/authority/country/HRV,70,passenger stop
http://data.europa.eu/949/functionalInfrastructure/operationalPoints/0d292da1d78ab6353a78f242bc5ca7405857def8,http://data.europa.eu/949/functionalInfrastructure/operationalPoints/HR75006,HR75006,Jastrebarsko,45.6572,15.6478,http://data.europa.eu/949/concepts/op-types/rinf/10,10,http://publications.europa.eu/resource/authority/country/HRV,10,station
http://data.europa.eu/949/functionalInfrastructure/operationalPoints/0d2c06c2294acc5c7481a928365696cfcaf442a9,http://data.europa.eu/949/functionalInfrastructure/operationalPoints/HR74104,HR74104,Laduč,45.8783,15.7203,http://data.europa.eu/949/concepts/op-types/rinf/70,70,http://publications.europa.eu/resource/authority/country/HRV,70,passenger stop
http://data.europa.eu/949/functionalInfrastructure/operationalPoints/0deb26d70e4c0a07f8a793007de9c4b98752c1df,http://data.europa.eu/949/functionalInfrastructure/operationalPoints/HR76702,HR76702,Dabar,43.6727,16.0107,http://data.europa.eu/949/concepts/op-types/rinf/70,70,http://publications.europa.eu/resource/authority/country/HRV,70,passenger stop
http://data.europa.eu/949/functionalInfrastructure/operationalPoints/0e368f72461fe7c35599fad683d389584eed57b4,http://data.europa.eu/949/functionalInfrastructure/operationalPoints/HR73604,HR73604,Dragovci,45.2146,17.7064,http://data.europa.eu/949/concepts/op-types/rinf/70,70,http://publications.europa.eu/resource/authority/country/HRV,70,passenger stop
http://data.europa.eu/949/functionalInfrastructure/operationalPoints/0f550f4ff7c56a02228fe95b388ef8c7ea444d48,http://data.europa.eu/949/functionalInfrastructure/operationalPoints/HR76402,HR76402,Kosovo,43.9497,16.2096,http://data.europa.eu/949/concepts/op-types/rinf/10,10,http://publications.europa.eu/resource/authority/country/HRV,10,station
http://data.europa.eu/949/functionalInfrastructure/operationalPoints/0fee856a6ff37bda9efe3b03a4862898ce87a52c,http://data.europa.eu/949/functionalInfrastructure/operationalPoints/HR74707,HR74707,Lepoglava,46.2131,16.0435,http://data.europa.eu/949/concepts/op-types/rinf/10,10,http://publications.europa.eu/resource/authority/country/HRV,10,station
http://data.europa.eu/949/functionalInfrastructure/operationalPoints/101d6bcfe5f11150e568e653e329f388c8837024,http://data.europa.eu/949/functionalInfrastructure/operationalPoints/HR75611,HR75611,Opatija-Matulji,45.3646,14.321,http://data.europa.eu/949/concepts/op-types/rinf/10,10,http://publications.europa.eu/resource/authority/country/HRV,10,station
http://data.europa.eu/949/functionalInfrastructure/operationalPoints/1023c8d85f9c270ca979d85d7abb9c0bd73b923e,http://data.europa.eu/949/functionalInfrastructure/operationalPoints/HR76312,HR76312,Prkos,44.0872,15.418,http://data.europa.eu/949/concepts/op-types/rinf/70,70,http://publications.europa.eu/resource/authority/country/HRV,70,passenger stop
http://data.europa.eu/949/functionalInfrastructure/operationalPoints/10429fc22cd662454b75c59aeb20b36ccfba28e5,http://data.europa.eu/949/functionalInfrastructure/operationalPoints/HR76309,HR76309,Raštević,44.0531,15.5443,http://data.europa.eu/949/concepts/op-types/rinf/70,70,http://publications.europa.eu/resource/authority/country/HRV,70,passenger stop
http://data.europa.eu/949/functionalInfrastructure/operationalPoints/105820881efc61ed2872e9c30f91fa2e6ccaffcc,http://data.europa.eu/949/functionalInfrastructure/operationalPoints/HR74801,HR74801,Macinec,46.3875,16.3249,http://data.europa.eu/949/concepts/op-types/rinf/70,70,http://publications.europa.eu/resource/authority/country/HRV,70,passenger stop
http://data.europa.eu/949/functionalInfrastructure/operationalPoints/10818a5ea9edcc5d2430d4dcfed3ad2c6b97ae6d,http://data.europa.eu/949/functionalInfrastructure/operationalPoints/EU00225,EU00225,Drenovci DG,44.86828,18.8309,http://data.europa.eu/949/concepts/op-types/rinf/90,90,http://publications.europa.eu/resource/authority/country/HRV,90,border point
http://data.europa.eu/949/functionalInfrastructure/operationalPoints/115fbe190a04d559907e66af6e0a7a54e52fdc4c,http://data.europa.eu/949/functionalInfrastructure/operationalPoints/HR72008,HR72008,Cerovljani,45.2226,16.773,http://data.europa.eu/949/concepts/op-types/rinf/70,70,http://publications.europa.eu/resource/authority/country/HRV,70,passenger stop
http://data.europa.eu/949/functionalInfrastructure/operationalPoints/11f6fd98a293a4c27dd90022fd75d0d336250890,http://data.europa.eu/949/functionalInfrastructure/operationalPoints/HR71502,HR71502,Gaboš,45.354,18.7432,http://data.europa.eu/949/concepts/op-types/rinf/70,70,http://publications.europa.eu/resource/authority/country/HRV,70,passenger stop
http://data.europa.eu/949/functionalInfrastructure/operationalPoints/129b382b5c9612a895d454bcd4e5342ab321415d,http://data.europa.eu/949/functionalInfrastructure/operationalPoints/HR73902,HR73902,Velimirovac,45.5125,18.0951,http://data.europa.eu/949/concepts/op-types/rinf/70,70,http://publications.europa.eu/resource/authority/country/HRV,70,passenger stop
http://data.europa.eu/949/functionalInfrastructure/operationalPoints/12a84381600488d85cb43a65755934c62d33d549,http://data.europa.eu/949/functionalInfrastructure/operationalPoints/HR75414,HR75414,Vrata,45.3177,14.7321,http://data.europa.eu/949/concepts/op-types/rinf/70,70,http://publications.europa.eu/resource/authority/country/HRV,70,passenger stop
http://data.europa.eu/949/functionalInfrastructure/operationalPoints/13a5f59566a6e8d8bffc1b379a3c891a6b28de5c,http://data.europa.eu/949/functionalInfrastructure/operationalPoints/HR75608,HR75608,Jurdani,45.3923,14.3086,http://data.europa.eu/949/concepts/op-types/rinf/10,10,http://publications.europa.eu/resource/authority/country/HRV,10,station
http://data.europa.eu/949/functionalInfrastructure/operationalPoints/1435ce173767666dfd3a79db4ad755717c9ed819,http://data.europa.eu/949/functionalInfrastructure/operationalPoints/HR73308,HR73308,Žabjak,45.9269,16.732,http://data.europa.eu/949/concepts/op-types/rinf/70,70,http://publications.europa.eu/resource/authority/country/HRV,70,passenger stop
http://data.europa.eu/949/functionalInfrastructure/operationalPoints/143e8a7db8304b68b538c9e5b2666652f0adccbb,http://data.europa.eu/949/functionalInfrastructure/operationalPoints/HR77405,HR77405,Pazin,45.2398,13.9462,http://data.europa.eu/949/concepts/op-types/rinf/10,10,http://publications.europa.eu/resource/authority/country/HRV,10,station
http://data.europa.eu/949/functionalInfrastructure/operationalPoints/1496ba8cf7241dac4689477a1d5647324ff3367f,http://data.europa.eu/949/functionalInfrastructure/operationalPoints/HR77401,HR77401,Hum u Istri,45.3438,14.073,http://data.europa.eu/949/concepts/op-types/rinf/70,70,http://publications.europa.eu/resource/authority/country/HRV,70,passenger stop
http://data.europa.eu/949/functionalInfrastructure/operationalPoints/14f3252020fabe8b7f91ef557d2316a3fed5c99e,http://data.europa.eu/949/functionalInfrastructure/operationalPoints/HR75405,HR75405,Vrbovsko,45.3727,15.0715,http://data.europa.eu/949/concepts/op-types/rinf/10,10,http://publications.europa.eu/resource/authority/country/HRV,10,station
http://data.europa.eu/949/functionalInfrastructure/operationalPoints/1569278232e3be779e55ba2c75bbcf74e8ffd8eb,http://data.europa.eu/949/functionalInfrastructure/operationalPoints/HR74606,HR74606,Đurmanec,46.1938,15.8432,http://data.europa.eu/949/concepts/op-types/rinf/10,10,http://publications.europa.eu/resource/authority/country/HRV,10,station
http://data.europa.eu/949/functionalInfrastructure/operationalPoints/157c4e87a439a42079e2062681b9a7bc5c5ce5c8,http://data.europa.eu/949/functionalInfrastructure/operationalPoints/HR72460,HR72460,Zagreb Borongaj,45.8165,16.0378,http://data.europa.eu/949/concepts/op-types/rinf/10,10,http://publications.europa.eu/resource/authority/country/HRV,10,station
http://data.europa.eu/949/functionalInfrastructure/operationalPoints/1625c26f36bc9552544eae4b55aa1a2befcaf563,http://data.europa.eu/949/functionalInfrastructure/operationalPoints/HR76660,HR76660,Split,43.5047,16.443,http://data.europa.eu/949/concepts/op-types/rinf/10,10,http://publications.europa.eu/resource/authority/country/HRV,10,station
http://data.europa.eu/949/functionalInfrastructure/operationalPoints/164cd639dd74388792f01604691191046b7a83a1,http://data.europa.eu/949/functionalInfrastructure/operationalPoints/HR94807,HR94807,Goričan,46.3644,16.6854,http://data.europa.eu/949/concepts/op-types/rinf/70,70,http://publications.europa.eu/resource/authority/country/HRV,70,passenger stop
http://data.europa.eu/949/functionalInfrastructure/operationalPoints/166df7039f326fb78ed30d4cd0ad20fab0a37ae2,http://data.europa.eu/949/functionalInfrastructure/operationalPoints/HR77417,HR77417,Pula,44.8798,13.8471,http://data.europa.eu/949/concepts/op-types/rinf/10,10,http://publications.europa.eu/resource/authority/country/HRV,10,station
http://data.europa.eu/949/functionalInfrastructure/operationalPoints/1722d1843dad732e547c51bc2c00eb6791615ea9,http://data.europa.eu/949/functionalInfrastructure/operationalPoints/EU00202,EU00202,Beli Manastir DG,45.79834,18.55795,http://data.europa.eu/949/concepts/op-types/rinf/90,90,http://publications.europa.eu/resource/authority/country/HRV,90,border point
http://data.europa.eu/949/functionalInfrastructure/operationalPoints/175fa842154092aaca95469948e1b4baa39ba88d,http://data.europa.eu/949/functionalInfrastructure/operationalPoints/HR76301,HR76301,Radučić,44.0226,16.0642,http://data.europa.eu/949/concepts/op-types/rinf/70,70,http://publications.europa.eu/resource/authority/country/HRV,70,passenger stop
http://data.europa.eu/949/functionalInfrastructure/operationalPoints/17af6d541b642092ac2ab07954211b7c2f163d3b,http://data.europa.eu/949/functionalInfrastructure/operationalPoints/HR71807,HR71807,Viškovci,45.3464,18.4265,http://data.europa.eu/949/concepts/op-types/rinf/70,70,http://publications.europa.eu/resource/authority/country/HRV,70,passenger stop
http://data.europa.eu/949/functionalInfrastructure/operationalPoints/17bb11240661e4195a48e6719979ed3357b75472,http://data.europa.eu/949/functionalInfrastructure/operationalPoints/HR76503,HR76503,Brdašce,43.6293,16.2016,http://data.europa.eu/949/concepts/op-types/rinf/70,70,http://publications.europa.eu/resource/authority/country/HRV,70,passenger stop
http://data.europa.eu/949/functionalInfrastructure/operationalPoints/187ca886fb4046f9e22859e929124e437e046483,http://data.europa.eu/949/functionalInfrastructure/operationalPoints/HR73002,HR73002,Suhopolje,45.794,17.4869,http://data.europa.eu/949/concepts/op-types/rinf/10,10,http://publications.europa.eu/resource/authority/country/HRV,10,station
http://data.europa.eu/949/functionalInfrastructure/operationalPoints/188b69e29f2f64b6249f2f601303fb45fd3c9577,http://data.europa.eu/949/functionalInfrastructure/operationalPoints/HR75418,HR75418,Zlobin,45.2881,14.6519,http://data.europa.eu/949/concepts/op-types/rinf/70,70,http://publications.europa.eu/resource/authority/country/HRV,70,passenger stop
http://data.europa.eu/949/functionalInfrastructure/operationalPoints/18c8210d230d8b4c4a2b4af1e4e459b1d2828146,http://data.europa.eu/949/functionalInfrastructure/operationalPoints/HR72480,HR72480,Zagreb GK,45.8045,15.9788,http://data.europa.eu/949/concepts/op-types/rinf/10,10,http://publications.europa.eu/resource/authority/country/HRV,10,station
http://data.europa.eu/949/functionalInfrastructure/operationalPoints/191a4c91f85ea405803d895fc2eaeb9a7b7ad471,http://data.europa.eu/949/functionalInfrastructure/operationalPoints/HR71603,HR71603,Osijek Donji grad,45.5522,18.7213,http://data.europa.eu/949/concepts/op-types/rinf/10,10,http://publications.europa.eu/resource/authority/country/HRV,10,station
http://data.europa.eu/949/functionalInfrastructure/operationalPoints/19587c50d296215658c94bda8b9436603af9cf54,http://data.europa.eu/949/functionalInfrastructure/operationalPoints/HR72101,HR72101,Brđani Krajiški,45.383,16.4946,http://data.europa.eu/949/concepts/op-types/rinf/70,70,http://publications.europa.eu/resource/authority/country/HRV,70,passenger stop
http://data.europa.eu/949/functionalInfrastructure/operationalPoints/19695f304e591f9d943f5503c7dd0bdb67311833,http://data.europa.eu/949/functionalInfrastructure/operationalPoints/HR73504,HR73504,Trenkovo,45.4009,17.6626,http://data.europa.eu/949/concepts/op-types/rinf/70,70,http://publications.europa.eu/resource/authority/country/HRV,70,passenger stop
http://data.europa.eu/949/functionalInfrastructure/operationalPoints/1a26a03b382c9e58cf858610ab9e7faeacc0d27f,http://data.europa.eu/949/functionalInfrastructure/operationalPoints/HR75107,HR75107,Donje Dubrave,45.312,15.3626,http://data.europa.eu/949/concepts/op-types/rinf/70,70,http://publications.europa.eu/resource/authority/country/HRV,70,passenger stop
http://data.europa.eu/949/functionalInfrastructure/operationalPoints/1a3a1767b37ba8b9bdb788c91310878cec882559,http://data.europa.eu/949/functionalInfrastructure/operationalPoints/HR72001,HR72001,Jasenovac,45.2761,16.9106,http://data.europa.eu/949/concepts/op-types/rinf/70,70,http://publications.europa.eu/resource/authority/country/HRV,70,passenger stop
http://data.europa.eu/949/functionalInfrastructure/operationalPoints/1aebe3d094e5ca1917aca260b86b1941296e6d6a,http://data.europa.eu/949/functionalInfrastructure/operationalPoints/HR74605,HR74605,Žutnica,46.1821,15.8536,http://data.europa.eu/949/concepts/op-types/rinf/70,70,http://publications.europa.eu/resource/authority/country/HRV,70,passenger stop
http://data.europa.eu/949/functionalInfrastructure/operationalPoints/1b16c2645ccd0ef467eb7b8a6b4a5b3685bfbb48,http://data.europa.eu/949/functionalInfrastructure/operationalPoints/HR73705,HR73705,Maslenjača,45.6425,17.296,http://data.europa.eu/949/concepts/op-types/rinf/10,10,http://publications.europa.eu/resource/authority/country/HRV,10,station
http://data.europa.eu/949/functionalInfrastructure/operationalPoints/1b44f72f19aaca2dbde4e7e504030c549b9664c5,http://data.europa.eu/949/functionalInfrastructure/operationalPoints/HR76205,HR76205,Prljevo,44.1536,16.093,http://data.europa.eu/949/concepts/op-types/rinf/70,70,http://publications.europa.eu/resource/authority/country/HRV,70,passenger stop
http://data.europa.eu/949/functionalInfrastructure/operationalPoints/1be8302cdfbe8edb3f933f05df6a758c76a102f4,http://data.europa.eu/949/functionalInfrastructure/operationalPoints/HR72504,HR72504,Ilova,45.4507,16.8343,http://data.europa.eu/949/concepts/op-types/rinf/70,70,http://publications.europa.eu/resource/authority/country/HRV,70,passenger stop
http://data.europa.eu/949/functionalInfrastructure/operationalPoints/1bfc39042ea20e4738e1b7e60b636161c950280e,http://data.europa.eu/949/functionalInfrastructure/operationalPoints/HR75307,HR75307,Bubnjarci,45.6442,15.35131,http://data.europa.eu/949/concepts/op-types/rinf/70,70,http://publications.europa.eu/resource/authority/country/HRV,70,passenger stop
http://data.europa.eu/949/functionalInfrastructure/operationalPoints/1c23efc104b17a531ff59111461a648fa8c32c7f,http://data.europa.eu/949/functionalInfrastructure/operationalPoints/HR71103,HR71103,Stari Mikanovci,45.2666,18.5397,http://data.europa.eu/949/concepts/op-types/rinf/10,10,http://publications.europa.eu/resource/authority/country/HRV,10,station
http://data.europa.eu/949/functionalInfrastructure/operationalPoints/1e43cb0c8c8755582fd70b33cbc36c45a201aed4,http://data.europa.eu/949/functionalInfrastructure/operationalPoints/HR71803,HR71803,Vladislavci,45.4755,18.5587,http://data.europa.eu/949/concepts/op-types/rinf/10,10,http://publications.europa.eu/resource/authority/country/HRV,10,station
http://data.europa.eu/949/functionalInfrastructure/operationalPoints/1e55e27b92c72b0262e035b305662a7b55eec551,http://data.europa.eu/949/functionalInfrastructure/operationalPoints/HR75407,HR75407,Brod Moravice,45.4649,14.9612,http://data.europa.eu/949/concepts/op-types/rinf/10,10,http://publications.europa.eu/resource/authority/country/HRV,10,station
http://data.europa.eu/949/functionalInfrastructure/operationalPoints/1e8d816d8629d3a39bf1aba4d4eda2a7f7816e59,http://data.europa.eu/949/functionalInfrastructure/operationalPoints/HR76412,HR76412,Perković,43.6756,16.1178,http://data.europa.eu/949/concepts/op-types/rinf/10,10,http://publications.europa.eu/resource/authority/country/HRV,10,station
http://data.europa.eu/949/functionalInfrastructure/operationalPoints/1f00c83433f7a44889ea3f89bf1c2fa3878dc1b2,http://data.europa.eu/949/functionalInfrastructure/operationalPoints/HR73808,HR73808,Novakovec,46.2642,16.4966,http://data.europa.eu/949/concepts/op-types/rinf/70,70,http://publications.europa.eu/resource/authority/country/HRV,70,passenger stop
http://data.europa.eu/949/functionalInfrastructure/operationalPoints/1f30978671cbd60b5ef400208f91e5c04f3a7a3a,http://data.europa.eu/949/functionalInfrastructure/operationalPoints/HR76109,HR76109,Bilaj-Ribnik,44.5059,15.445,http://data.europa.eu/949/concepts/op-types/rinf/70,70,http://publications.europa.eu/resource/authority/country/HRV,70,passenger stop
http://data.europa.eu/949/functionalInfrastructure/operationalPoints/2062ff845c46b91488d9f6df3643a0050336cf6f,http://data.europa.eu/949/functionalInfrastructure/operationalPoints/HR73703,HR73703,Đulovac,45.6643,17.4313,http://data.europa.eu/949/concepts/op-types/rinf/10,10,http://publications.europa.eu/resource/authority/country/HRV,10,station
http://data.europa.eu/949/functionalInfrastructure/operationalPoints/20819afb5d9ba48281ebde3c6730dccb6f8eb3fb,http://data.europa.eu/949/functionalInfrastructure/operationalPoints/HR75305,HR75305,Kamanje,45.6453,15.4084,http://data.europa.eu/949/concepts/op-types/rinf/10,10,http://publications.europa.eu/resource/authority/country/HRV,10,station
http://data.europa.eu/949/functionalInfrastructure/operationalPoints/20abd2eedeb063ce91ec18298d8c9de27b73f3dc,http://data.europa.eu/949/functionalInfrastructure/operationalPoints/HR73406,HR73406,Latinovac,45.337,17.9568,http://data.europa.eu/949/concepts/op-types/rinf/70,70,http://publications.europa.eu/resource/authority/country/HRV,70,passenger stop
http://data.europa.eu/949/functionalInfrastructure/operationalPoints/20ef237b3e44a991407d3a0cc5b72b94b7c2906f,http://data.europa.eu/949/functionalInfrastructure/operationalPoints/HR76112,HR76112,Raduč,44.4161,15.6029,http://data.europa.eu/949/concepts/op-types/rinf/70,70,http://publications.europa.eu/resource/authority/country/HRV,70,passenger stop
http://data.europa.eu/949/functionalInfrastructure/operationalPoints/212b40c4e7712b2066efae60cc20ef587ef2a9a6,http://data.europa.eu/949/functionalInfrastructure/operationalPoints/HR75408,HR75408,Žrnovac,45.4498,14.9375,http://data.europa.eu/949/concepts/op-types/rinf/70,70,http://publications.europa.eu/resource/authority/country/HRV,70,passenger stop
http://data.europa.eu/949/functionalInfrastructure/operationalPoints/215da5f23ec23109dd6344c63fa54736b0586f7e,http://data.europa.eu/949/functionalInfrastructure/operationalPoints/HR73001,HR73001,Pčelić,45.7801,17.5256,http://data.europa.eu/949/concepts/op-types/rinf/70,70,http://publications.europa.eu/resource/authority/country/HRV,70,passenger stop
http://data.europa.eu/949/functionalInfrastructure/operationalPoints/21698e8acb71f1b8c16f0801b6b74c6f046f303b,http://data.europa.eu/949/functionalInfrastructure/operationalPoints/HR74408,HR74408,Hrašćina-Trgovišće,46.1055,16.1997,http://data.europa.eu/949/concepts/op-types/rinf/70,70,http://publications.europa.eu/resource/authority/country/HRV,70,passenger stop
http://data.europa.eu/949/functionalInfrastructure/operationalPoints/21e54c258ec2b6cfa571c678866f73ab9d99b45f,http://data.europa.eu/949/functionalInfrastructure/operationalPoints/HR73401,HR73401,Našice Grad,45.4874,18.0882,http://data.europa.eu/949/concepts/op-types/rinf/70,70,http://publications.europa.eu/resource/authority/country/HRV,70,passenger stop
http://data.europa.eu/949/functionalInfrastructure/operationalPoints/21f6c715fea0f839d2c953faa3ae41299cac7673,http://data.europa.eu/949/functionalInfrastructure/operationalPoints/HR77407,HR77407,Heki stajalište,45.2155,13.8872,http://data.europa.eu/949/concepts/op-types/rinf/70,70,http://publications.europa.eu/resource/authority/country/HRV,70,passenger stop
http://data.europa.eu/949/functionalInfrastructure/operationalPoints/229d9616c3fe16fa869420bf867a10ac429811d8,http://data.europa.eu/949/functionalInfrastructure/operationalPoints/HR72510,HR72510,Ludina,45.6006,16.5696,http://data.europa.eu/949/concepts/op-types/rinf/10,10,http://publications.europa.eu/resource/authority/country/HRV,10,station
http://data.europa.eu/949/functionalInfrastructure/operationalPoints/22ffad7bb20f80129edae3fbf15c9abfeec859e1,http://data.europa.eu/949/functionalInfrastructure/operationalPoints/HR73012,HR73012,Novigrad Podravski,46.0846,16.955,http://data.europa.eu/949/concepts/op-types/rinf/70,70,http://publications.europa.eu/resource/authority/country/HRV,70,passenger stop
http://data.europa.eu/949/functionalInfrastructure/operationalPoints/230c6c20adbb5bf8477193fabb822a328955b931,http://data.europa.eu/949/functionalInfrastructure/operationalPoints/HR75612,HR75612,Krnjevo,45.3381,14.3997,http://data.europa.eu/949/concepts/op-types/rinf/70,70,http://publications.europa.eu/resource/authority/country/HRV,70,passenger stop
http://data.europa.eu/949/functionalInfrastructure/operationalPoints/2381afde5d789cd8f3b0e7ed3fe3f0e13d473306,http://data.europa.eu/949/functionalInfrastructure/operationalPoints/HR73409,HR73409,Knežci,45.3368,17.8979,http://data.europa.eu/949/concepts/op-types/rinf/70,70,http://publications.europa.eu/resource/authority/country/HRV,70,passenger stop
http://data.europa.eu/949/functionalInfrastructure/operationalPoints/23a9467ed1c56fcfd2ffb3ed09134b96197eb88a,http://data.europa.eu/949/functionalInfrastructure/operationalPoints/EU00227,EU00227,Erdut DG,45.52332,19.08632,http://data.europa.eu/949/concepts/op-types/rinf/90,90,http://publications.europa.eu/resource/authority/country/HRV,90,border point
http://data.europa.eu/949/functionalInfrastructure/operationalPoints/23aa0de6134f10e6e0beec1e85b44cd62fc3dbb2,http://data.europa.eu/949/functionalInfrastructure/operationalPoints/HR73103,HR73103,Lepavina,46.0979,16.685,http://data.europa.eu/949/concepts/op-types/rinf/10,10,http://publications.europa.eu/resource/authority/country/HRV,10,station
http://data.europa.eu/949/functionalInfrastructure/operationalPoints/240ef6b22b75e799e93cff82eb323156dcbc3d12,http://data.europa.eu/949/functionalInfrastructure/operationalPoints/HR74060,HR74060,Zagreb ZK,45.8091,15.9542,http://data.europa.eu/949/concepts/op-types/rinf/10,10,http://publications.europa.eu/resource/authority/country/HRV,10,station
http://data.europa.eu/949/functionalInfrastructure/operationalPoints/24595a7a0d80a251422557abe5f93d808270ca80,http://data.europa.eu/949/functionalInfrastructure/operationalPoints/HR72508,HR72508,Voloder,45.5376,16.6579,http://data.europa.eu/949/concepts/op-types/rinf/70,70,http://publications.europa.eu/resource/authority/country/HRV,70,passenger stop
http://data.europa.eu/949/functionalInfrastructure/operationalPoints/2491244913f143aeca088e066ae8b8c8ea22bf1b,http://data.europa.eu/949/functionalInfrastructure/operationalPoints/HR73407,HR73407,Ciglenik,45.3341,17.9171,http://data.europa.eu/949/concepts/op-types/rinf/70,70,http://publications.europa.eu/resource/authority/country/HRV,70,passenger stop
http://data.europa.eu/949/functionalInfrastructure/operationalPoints/2497db38ad8ee7d21fe637b2d4e1f4ad0ffc460b,http://data.europa.eu/949/functionalInfrastructure/operationalPoints/HR72708,HR72708,Nova Kapela Batrina,45.1898,17.6503,http://data.europa.eu/949/concepts/op-types/rinf/10,10,http://publications.europa.eu/resource/authority/country/HRV,10,station
http://data.europa.eu/949/functionalInfrastructure/operationalPoints/250339a4b7b36bcafc24ba81221d821145e5ed98,http://data.europa.eu/949/functionalInfrastructure/operationalPoints/HR73325,HR73325,Paulovac,45.9384,16.9744,http://data.europa.eu/949/concepts/op-types/rinf/70,70,http://publications.europa.eu/resource/authority/country/HRV,70,passenger stop
http://data.europa.eu/949/functionalInfrastructure/operationalPoints/25b09e2835f4ac8068f08bfefc1de812436d2a2a,http://data.europa.eu/949/functionalInfrastructure/operationalPoints/HR74416,HR74416,Doljan,46.2443,16.3364,http://data.europa.eu/949/concepts/op-types/rinf/70,70,http://publications.europa.eu/resource/authority/country/HRV,70,passenger stop
http://data.europa.eu/949/functionalInfrastructure/operationalPoints/25c369ac41dfa4824a071f9c81d9c1dd86fe208c,http://data.europa.eu/949/functionalInfrastructure/operationalPoints/HR71902,HR71902,Samatovci,45.5908,18.5026,http://data.europa.eu/949/concepts/op-types/rinf/70,70,http://publications.europa.eu/resource/authority/country/HRV,70,passenger stop
http://data.europa.eu/949/functionalInfrastructure/operationalPoints/2615de35abc5e470d5b607440c40729d120ab2d8,http://data.europa.eu/949/functionalInfrastructure/operationalPoints/HR71605,HR71605,Osijek OLT,45.5541,18.7055,http://data.europa.eu/949/concepts/op-types/rinf/70,70,http://publications.europa.eu/resource/authority/country/HRV,70,passenger stop
http://data.europa.eu/949/functionalInfrastructure/operationalPoints/27332047219b5d6cf9656c978fa8708c7a997bac,http://data.europa.eu/949/functionalInfrastructure/operationalPoints/HR72802,HR72802,Andrijevci,45.1908,18.2929,http://data.europa.eu/949/concepts/op-types/rinf/10,10,http://publications.europa.eu/resource/authority/country/HRV,10,station
http://data.europa.eu/949/functionalInfrastructure/operationalPoints/2748625a193914361508a52731876b1d703b46c8,http://data.europa.eu/949/functionalInfrastructure/operationalPoints/HR74201,HR74201,Sutla,45.8861,15.6951,http://data.europa.eu/949/concepts/op-types/rinf/70,70,http://publications.europa.eu/resource/authority/country/HRV,70,passenger stop
http://data.europa.eu/949/functionalInfrastructure/operationalPoints/2791283482e5d6320d6a7beec9f46517c222130f,http://data.europa.eu/949/functionalInfrastructure/operationalPoints/HR74409,HR74409,Budinšćina,46.1282,16.2137,http://data.europa.eu/949/concepts/op-types/rinf/10,10,http://publications.europa.eu/resource/authority/country/HRV,10,station
http://data.europa.eu/949/functionalInfrastructure/operationalPoints/2794b353633daf54209aa7f94f8b8b46063eba49,http://data.europa.eu/949/functionalInfrastructure/operationalPoints/HR77416,HR77416,Galižana,44.9335,13.8715,http://data.europa.eu/949/concepts/op-types/rinf/70,70,http://publications.europa.eu/resource/authority/country/HRV,70,passenger stop
http://data.europa.eu/949/functionalInfrastructure/operationalPoints/28e93cde29acb0490549f6450d265f7b949f2407,http://data.europa.eu/949/functionalInfrastructure/operationalPoints/HR71211,HR71211,Đergaj,45.4545,17.1717,http://data.europa.eu/949/concepts/op-types/rinf/40,40,http://publications.europa.eu/resource/authority/country/HRV,40,freight terminal
http://data.europa.eu/949/functionalInfrastructure/operationalPoints/296a287ac4951dfc89cd51a66d1cb5deeb5b9a45,http://data.europa.eu/949/functionalInfrastructure/operationalPoints/HR73309,HR73309,Hrsovo,45.9363,16.6879,http://data.europa.eu/949/concepts/op-types/rinf/70,70,http://publications.europa.eu/resource/authority/country/HRV,70,passenger stop
http://data.europa.eu/949/functionalInfrastructure/operationalPoints/2ad7b0037fb872d37c0888958b45d4285d4bb58e,http://data.europa.eu/949/functionalInfrastructure/operationalPoints/HR72002,HR72002,Višnjica,45.2565,16.8803,http://data.europa.eu/949/concepts/op-types/rinf/70,70,http://publications.europa.eu/resource/authority/country/HRV,70,passenger stop
http://data.europa.eu/949/functionalInfrastructure/operationalPoints/2af8fad867d90de3431634c8c141809f2478441b,http://data.europa.eu/949/functionalInfrastructure/operationalPoints/HR77428,HR77428,Nugla,45.4123,14.0143,http://data.europa.eu/949/concepts/op-types/rinf/70,70,http://publications.europa.eu/resource/authority/country/HRV,70,passenger stop
http://data.europa.eu/949/functionalInfrastructure/operationalPoints/2b8a3dfc2e7a1e1735bf602020d0c1be1cfee4af,http://data.europa.eu/949/functionalInfrastructure/operationalPoints/HR72702,HR72702,Sibinj,45.1809,17.9045,http://data.europa.eu/949/concepts/op-types/rinf/10,10,http://publications.europa.eu/resource/authority/country/HRV,10,station
http://data.europa.eu/949/functionalInfrastructure/operationalPoints/2bae0eb56d57fa35fedecf72643ad1c0566c9bc8,http://data.europa.eu/949/functionalInfrastructure/operationalPoints/HR73307,HR73307,Bjelovar,45.8941,16.8447,http://data.europa.eu/949/concepts/op-types/rinf/10,10,http://publications.europa.eu/resource/authority/country/HRV,10,station
http://data.europa.eu/949/functionalInfrastructure/operationalPoints/2bf10f4ab405a73e9b064f6521a0bb5a4f173c4a,http://data.europa.eu/949/functionalInfrastructure/operationalPoints/HR78801,HR78801,Kopanica Beravci,45.149,18.4145,http://data.europa.eu/949/concepts/op-types/rinf/10,10,http://publications.europa.eu/resource/authority/country/HRV,10,station
http://data.europa.eu/949/functionalInfrastructure/operationalPoints/2c3fdb228f5d5c1ecbf43f97fb8839dc77ef95a9,http://data.europa.eu/949/functionalInfrastructure/operationalPoints/HR76303,HR76303,Kistanje,43.9876,15.9576,http://data.europa.eu/949/concepts/op-types/rinf/10,10,http://publications.europa.eu/resource/authority/country/HRV,10,station
http://data.europa.eu/949/functionalInfrastructure/operationalPoints/2c7485f3ee4f222a941e60b9fcb589cfc10801d7,http://data.europa.eu/949/functionalInfrastructure/operationalPoints/HR73707,HR73707,Vukovje,45.6197,17.2723,http://data.europa.eu/949/concepts/op-types/rinf/70,70,http://publications.europa.eu/resource/authority/country/HRV,70,passenger stop
http://data.europa.eu/949/functionalInfrastructure/operationalPoints/2cd1cb05d8f5116ecd8fa7621cd0e57a7501c9ee,http://data.europa.eu/949/functionalInfrastructure/operationalPoints/HR91005,HR91005,Đeletovci stajalište,45.1942,19.0186,http://data.europa.eu/949/concepts/op-types/rinf/70,70,http://publications.europa.eu/resource/authority/country/HRV,70,passenger stop
http://data.europa.eu/949/functionalInfrastructure/operationalPoints/2d0f4e9e51741c31dd10ebbe1f28e06f7f5c5a21,http://data.europa.eu/949/functionalInfrastructure/operationalPoints/HR71204,HR71204,Vukovar-Borovo naselje,45.3734,18.9552,http://data.europa.eu/949/concepts/op-types/rinf/10,10,http://publications.europa.eu/resource/authority/country/HRV,10,station
http://data.europa.eu/949/functionalInfrastructure/operationalPoints/2d33f7faf60533bc913fdf48d3441438c92c0f33,http://data.europa.eu/949/functionalInfrastructure/operationalPoints/HR75562,HR75562,Rijeka Brajdica,45.3231,14.4532,http://data.europa.eu/949/concepts/op-types/rinf/40,40,http://publications.europa.eu/resource/authority/country/HRV,40,freight terminal
http://data.europa.eu/949/functionalInfrastructure/operationalPoints/2d4d7255875b6ab9f34e99a99285b16d2072d19f,http://data.europa.eu/949/functionalInfrastructure/operationalPoints/HR71901,HR71901,Josipovac,45.5742,18.5901,http://data.europa.eu/949/concepts/op-types/rinf/10,10,http://publications.europa.eu/resource/authority/country/HRV,10,station
http://data.europa.eu/949/functionalInfrastructure/operationalPoints/2eb15d5342e14bea9d180d5115998bd07a8a3e76,http://data.europa.eu/949/functionalInfrastructure/operationalPoints/HR75101,HR75101,Mrzlo Polje,45.4665,15.5359,http://data.europa.eu/949/concepts/op-types/rinf/10,10,http://publications.europa.eu/resource/authority/country/HRV,10,station
http://data.europa.eu/949/functionalInfrastructure/operationalPoints/2eff03574c84627992954a6ba71e46c2734f94ac,http://data.europa.eu/949/functionalInfrastructure/operationalPoints/HR77400,HR77400,Lupoglav,45.3555,14.1054,http://data.europa.eu/949/concepts/op-types/rinf/10,10,http://publications.europa.eu/resource/authority/country/HRV,10,station
http://data.europa.eu/949/functionalInfrastructure/operationalPoints/3111382b355dd2f480e75955ef08bc69359d7464,http://data.europa.eu/949/functionalInfrastructure/operationalPoints/HR71809,HR71809,Budrovci,45.261,18.4207,http://data.europa.eu/949/concepts/op-types/rinf/70,70,http://publications.europa.eu/resource/authority/country/HRV,70,passenger stop
http://data.europa.eu/949/functionalInfrastructure/operationalPoints/31c3bbd68c2209f2580241b6e9b5a4a7bb127b07,http://data.europa.eu/949/functionalInfrastructure/operationalPoints/HR72503,HR72503,Banova Jaruga,45.4457,16.8762,http://data.europa.eu/949/concepts/op-types/rinf/10,10,http://publications.europa.eu/resource/authority/country/HRV,10,station
http://data.europa.eu/949/functionalInfrastructure/operationalPoints/31d172e4671a0a7b3fe2d5a8340cb83d15dd1f43,http://data.europa.eu/949/functionalInfrastructure/operationalPoints/HR75406,HR75406,Moravice,45.423,15.0162,http://data.europa.eu/949/concepts/op-types/rinf/10,10,http://publications.europa.eu/resource/authority/country/HRV,10,station
http://data.europa.eu/949/functionalInfrastructure/operationalPoints/32717fb8ecf1b3dc62aa39c7815b70b4ec4bc1bf,http://data.europa.eu/949/functionalInfrastructure/operationalPoints/HR74702,HR74702,Cerje Tužno,46.2597,16.2187,http://data.europa.eu/949/concepts/op-types/rinf/10,10,http://publications.europa.eu/resource/authority/country/HRV,10,station
http://data.europa.eu/949/functionalInfrastructure/operationalPoints/32fbea472a429cbbae302c2ca334e7558ffed795,http://data.europa.eu/949/functionalInfrastructure/operationalPoints/HR75007,HR75007,Domagović,45.6333,15.6326,http://data.europa.eu/949/concepts/op-types/rinf/70,70,http://publications.europa.eu/resource/authority/country/HRV,70,passenger stop
http://data.europa.eu/949/functionalInfrastructure/operationalPoints/331a3b9a618a1e8b7e386de7737d26d58a58810e,http://data.europa.eu/949/functionalInfrastructure/operationalPoints/HR73909,HR73909,Slatina,45.7056,17.7063,http://data.europa.eu/949/concepts/op-types/rinf/10,10,http://publications.europa.eu/resource/authority/country/HRV,10,station
http://data.europa.eu/949/functionalInfrastructure/operationalPoints/3390c69c4522fab8a6a3c92a3a462d1abde3010f,http://data.europa.eu/949/functionalInfrastructure/operationalPoints/HR76502,HR76502,Bakovići,43.6416,16.1885,http://data.europa.eu/949/concepts/op-types/rinf/70,70,http://publications.europa.eu/resource/authority/country/HRV,70,passenger stop
http://data.europa.eu/949/functionalInfrastructure/operationalPoints/345c7b58b1231cf2deed1450af9176d8425bc0be,http://data.europa.eu/949/functionalInfrastructure/operationalPoints/HR76509,HR76509,Kaštel Sućurac,43.5489,16.4305,http://data.europa.eu/949/concepts/op-types/rinf/10,10,http://publications.europa.eu/resource/authority/country/HRV,10,station
http://data.europa.eu/949/functionalInfrastructure/operationalPoints/355b8c8da28664a2f60327a0f42c40c2d4b117a8,http://data.europa.eu/949/functionalInfrastructure/operationalPoints/HR73403,HR73403,Londžica,45.426,18.0409,http://data.europa.eu/949/concepts/op-types/rinf/70,70,http://publications.europa.eu/resource/authority/country/HRV,70,passenger stop
http://data.europa.eu/949/functionalInfrastructure/operationalPoints/3599dfff85aecb1c8ba84900c49dea5478e54891,http://data.europa.eu/949/functionalInfrastructure/operationalPoints/HR74002,HR74002,Podsused TV,45.8144,15.8585,http://data.europa.eu/949/concepts/op-types/rinf/40,40,http://publications.europa.eu/resource/authority/country/HRV,40,freight terminal
http://data.europa.eu/949/functionalInfrastructure/operationalPoints/35e19383692cf81f50111241af7114ff353dc33e,http://data.europa.eu/949/functionalInfrastructure/operationalPoints/HR76318,HR76318,Lepuri,43.9908,15.7174,http://data.europa.eu/949/concepts/op-types/rinf/70,70,http://publications.europa.eu/resource/authority/country/HRV,70,passenger stop
http://data.europa.eu/949/functionalInfrastructure/operationalPoints/371add3f1db3f80965e7688aaea57afbb903d203,http://data.europa.eu/949/functionalInfrastructure/operationalPoints/HR72003,HR72003,Hrvatska Dubica,45.2217,16.8062,http://data.europa.eu/949/concepts/op-types/rinf/10,10,http://publications.europa.eu/resource/authority/country/HRV,10,station
http://data.europa.eu/949/functionalInfrastructure/operationalPoints/374f7e8e91b35d9a43ec5d490aeebe095ea163f0,http://data.europa.eu/949/functionalInfrastructure/operationalPoints/HR71309,HR71309,Vinkovci Bolnica,45.2926,18.8226,http://data.europa.eu/949/concepts/op-types/rinf/70,70,http://publications.europa.eu/resource/authority/country/HRV,70,passenger stop
http://data.europa.eu/949/functionalInfrastructure/operationalPoints/38f5fb8cd12d4f1327a322921e7eb0fd732817e1,http://data.europa.eu/949/functionalInfrastructure/operationalPoints/HR75302,HR75302,Zorkovac,45.5912,15.5302,http://data.europa.eu/949/concepts/op-types/rinf/70,70,http://publications.europa.eu/resource/authority/country/HRV,70,passenger stop
http://data.europa.eu/949/functionalInfrastructure/operationalPoints/3a013b742f8d0dfa1824f034f5282b3d1a94dc2a,http://data.europa.eu/949/functionalInfrastructure/operationalPoints/HR71503,HR71503,Markušica-Antin,45.3814,18.7336,http://data.europa.eu/949/concepts/op-types/rinf/70,70,http://publications.europa.eu/resource/authority/country/HRV,70,passenger stop
http://data.europa.eu/949/functionalInfrastructure/operationalPoints/3a8f58c7dc8da9e0e7b65a24f779f2f9e38db69a,http://data.europa.eu/949/functionalInfrastructure/operationalPoints/HR77454,HR77454,Raša,45.0628,14.0423,http://data.europa.eu/949/concepts/op-types/rinf/10,10,http://publications.europa.eu/resource/authority/country/HRV,10,station
http://data.europa.eu/949/functionalInfrastructure/operationalPoints/3aa9f54be7d57cd5c58245ed79e9c9e1cc77d1f9,http://data.europa.eu/949/functionalInfrastructure/operationalPoints/HR76408,HR76408,Planjane,43.7668,16.1835,http://data.europa.eu/949/concepts/op-types/rinf/70,70,http://publications.europa.eu/resource/authority/country/HRV,70,passenger stop
http://data.europa.eu/949/functionalInfrastructure/operationalPoints/3cd1b77ddf6177249d03eba2235a124743ef58e2,http://data.europa.eu/949/functionalInfrastructure/operationalPoints/HR73721,HR73721,Škodinovac,45.6349,17.3171,http://data.europa.eu/949/concepts/op-types/rinf/70,70,http://publications.europa.eu/resource/authority/country/HRV,70,passenger stop
http://data.europa.eu/949/functionalInfrastructure/operationalPoints/3d7f3e27233975718b956d2896914c7cfe8ca812,http://data.europa.eu/949/functionalInfrastructure/operationalPoints/HR71906,HR71906,Koška,45.5415,18.2954,http://data.europa.eu/949/concepts/op-types/rinf/10,10,http://publications.europa.eu/resource/authority/country/HRV,10,station
http://data.europa.eu/949/functionalInfrastructure/operationalPoints/3dd9f76650a5a2ce0dfea7d52f058da8bafd0916,http://data.europa.eu/949/functionalInfrastructure/operationalPoints/EU00216,EU00216,Savski Marof DG,45.89068,15.68015,http://data.europa.eu/949/concepts/op-types/rinf/90,90,http://publications.europa.eu/resource/authority/country/HRV,90,border point
http://data.europa.eu/949/functionalInfrastructure/operationalPoints/3df41377d0e6bfbc554a47e078c54303f97c771c,http://data.europa.eu/949/functionalInfrastructure/operationalPoints/HR92921,HR92921,Zagreb Klara Mlaka-skretnica 1,45.7512,15.9876,http://data.europa.eu/949/concepts/op-types/rinf/120,120,http://publications.europa.eu/resource/authority/country/HRV,120,switch
http://data.europa.eu/949/functionalInfrastructure/operationalPoints/3e10f3fdedfa7852eecaf4d1e8a1263651c84810,http://data.europa.eu/949/functionalInfrastructure/operationalPoints/HR71805,HR71805,Hrastovac-Vučki,45.4432,18.5399,http://data.europa.eu/949/concepts/op-types/rinf/70,70,http://publications.europa.eu/resource/authority/country/HRV,70,passenger stop
http://data.europa.eu/949/functionalInfrastructure/operationalPoints/3e7e1a8f53355738e108272ead5f6fe0096220c6,http://data.europa.eu/949/functionalInfrastructure/operationalPoints/HR74904,HR74904,Mursko Središće,46.5083,16.4464,http://data.europa.eu/949/concepts/op-types/rinf/70,70,http://publications.europa.eu/resource/authority/country/HRV,70,passenger stop
http://data.europa.eu/949/functionalInfrastructure/operationalPoints/3f2fc53f44f074d77041aa60de52a18b19ccdcb9,http://data.europa.eu/949/functionalInfrastructure/operationalPoints/HR72901,HR72901,Sisak,45.4921,16.3734,http://data.europa.eu/949/concepts/op-types/rinf/10,10,http://publications.europa.eu/resource/authority/country/HRV,10,station
http://data.europa.eu/949/functionalInfrastructure/operationalPoints/3f41ad41d4e8c3fc035a5c13f94b83bb61d145dc,http://data.europa.eu/949/functionalInfrastructure/operationalPoints/HR73102,HR73102,Sokolovac,46.101,16.7119,http://data.europa.eu/949/concepts/op-types/rinf/70,70,http://publications.europa.eu/resource/authority/country/HRV,70,passenger stop
http://data.europa.eu/949/functionalInfrastructure/operationalPoints/3f734e784fcb95abc5ec2742ae38c92069039aa4,http://data.europa.eu/949/functionalInfrastructure/operationalPoints/HR76110,HR76110,Medak,44.4558,15.5187,http://data.europa.eu/949/concepts/op-types/rinf/10,10,http://publications.europa.eu/resource/authority/country/HRV,10,station
http://data.europa.eu/949/functionalInfrastructure/operationalPoints/4073a6350214f112a1d8ff62a95d505bbd4ce160,http://data.europa.eu/949/functionalInfrastructure/operationalPoints/HR73807,HR73807,Zbelava,46.2814,16.399,http://data.europa.eu/949/concepts/op-types/rinf/70,70,http://publications.europa.eu/resource/authority/country/HRV,70,passenger stop
http://data.europa.eu/949/functionalInfrastructure/operationalPoints/4095d1220cb57a3eb87f771466ba3e5663427647,http://data.europa.eu/949/functionalInfrastructure/operationalPoints/HR72804,HR72804,Garčin,45.1735,18.186,http://data.europa.eu/949/concepts/op-types/rinf/10,10,http://publications.europa.eu/resource/authority/country/HRV,10,station
http://data.europa.eu/949/functionalInfrastructure/operationalPoints/40f0ba08f80d7276c6e0c11829255e8369cffa46,http://data.europa.eu/949/functionalInfrastructure/operationalPoints/HR73328,HR73328,Lubena,45.92362,16.51432,http://data.europa.eu/949/concepts/op-types/rinf/70,70,http://publications.europa.eu/resource/authority/country/HRV,70,passenger stop
http://data.europa.eu/949/functionalInfrastructure/operationalPoints/414d0ab92f8124c4f3dc7507d2c279d8b6194e50,http://data.europa.eu/949/functionalInfrastructure/operationalPoints/HR73601,HR73601,Pleternica,45.2868,17.8099,http://data.europa.eu/949/concepts/op-types/rinf/10,10,http://publications.europa.eu/resource/authority/country/HRV,10,station
http://data.europa.eu/949/functionalInfrastructure/operationalPoints/4261b6ffbca828884340ced2aada187740c69402,http://data.europa.eu/949/functionalInfrastructure/operationalPoints/HR71005,HR71005,Đeletovci,45.193,19.0227,http://data.europa.eu/949/concepts/op-types/rinf/40,40,http://publications.europa.eu/resource/authority/country/HRV,40,freight terminal
http://data.europa.eu/949/functionalInfrastructure/operationalPoints/42b61903b6f2594876a00a084ab51a15b21d3379,http://data.europa.eu/949/functionalInfrastructure/operationalPoints/HR72502,HR72502,Lipovljani,45.3868,16.8824,http://data.europa.eu/949/concepts/op-types/rinf/10,10,http://publications.europa.eu/resource/authority/country/HRV,10,station
http://data.europa.eu/949/functionalInfrastructure/operationalPoints/42dd753ebc857cc14f00134a98a468c8a39ace45,http://data.europa.eu/949/functionalInfrastructure/operationalPoints/HR76005,HR76005,Plaški,45.0783,15.3681,http://data.europa.eu/949/concepts/op-types/rinf/10,10,http://publications.europa.eu/resource/authority/country/HRV,10,station
http://data.europa.eu/949/functionalInfrastructure/operationalPoints/4325576b4d9cfd1440e5be8f2a9e1bfb95212cda,http://data.europa.eu/949/functionalInfrastructure/operationalPoints/HR75010,HR75010,Mavračići,45.6972,15.7983,http://data.europa.eu/949/concepts/op-types/rinf/70,70,http://publications.europa.eu/resource/authority/country/HRV,70,passenger stop
http://data.europa.eu/949/functionalInfrastructure/operationalPoints/434713915c9784940dd22edaea7594ce1cabda69,http://data.europa.eu/949/functionalInfrastructure/operationalPoints/HR73007,HR73007,Pitomača,45.9426,17.2295,http://data.europa.eu/949/concepts/op-types/rinf/70,70,http://publications.europa.eu/resource/authority/country/HRV,70,passenger stop
http://data.europa.eu/949/functionalInfrastructure/operationalPoints/43defa2944b1164648fa3656dd619fbd3c8e4e9d,http://data.europa.eu/949/functionalInfrastructure/operationalPoints/HR76114,HR76114,Ličko Cerje,44.3588,15.7015,http://data.europa.eu/949/concepts/op-types/rinf/70,70,http://publications.europa.eu/resource/authority/country/HRV,70,passenger stop
http://data.europa.eu/949/functionalInfrastructure/operationalPoints/468723464c49c31d139171d9c57b2e21988b6819,http://data.europa.eu/949/functionalInfrastructure/operationalPoints/HR74206,HR74206,Draše,46.0032,15.7121,http://data.europa.eu/949/concepts/op-types/rinf/70,70,http://publications.europa.eu/resource/authority/country/HRV,70,passenger stop
http://data.europa.eu/949/functionalInfrastructure/operationalPoints/468936c138305c549b69141e472ce3815369321e,http://data.europa.eu/949/functionalInfrastructure/operationalPoints/HR72006,HR72006,Papići,45.3079,16.6345,http://data.europa.eu/949/concepts/op-types/rinf/70,70,http://publications.europa.eu/resource/authority/country/HRV,70,passenger stop
http://data.europa.eu/949/functionalInfrastructure/operationalPoints/475c3e98ea4a0fa2ceb2cd5f24bedfdf9f270bd7,http://data.europa.eu/949/functionalInfrastructure/operationalPoints/HR73310,HR73310,Škrinjari,45.9371,16.5933,http://data.europa.eu/949/concepts/op-types/rinf/70,70,http://publications.europa.eu/resource/authority/country/HRV,70,passenger stop
http://data.europa.eu/949/functionalInfrastructure/operationalPoints/477a3f425ea0eed3053b63512dab97ca19482592,http://data.europa.eu/949/functionalInfrastructure/operationalPoints/HR76404,HR76404,Siverić,43.8742,16.1967,http://data.europa.eu/949/concepts/op-types/rinf/70,70,http://publications.europa.eu/resource/authority/country/HRV,70,passenger stop
http://data.europa.eu/949/functionalInfrastructure/operationalPoints/4b585ca8c003c5d3f819b1a636a7df126a7547e5,http://data.europa.eu/949/functionalInfrastructure/operationalPoints/HR71802,HR71802,Čepin,45.5206,18.5779,http://data.europa.eu/949/concepts/op-types/rinf/70,70,http://publications.europa.eu/resource/authority/country/HRV,70,passenger stop
http://data.europa.eu/949/functionalInfrastructure/operationalPoints/4b748e8d18754eb4db9e609801ca5ba0cb16ac21,http://data.europa.eu/949/functionalInfrastructure/operationalPoints/HR76311,HR76311,Škabrnje,44.0873,15.4557,http://data.europa.eu/949/concepts/op-types/rinf/10,10,http://publications.europa.eu/resource/authority/country/HRV,10,station
http://data.europa.eu/949/functionalInfrastructure/operationalPoints/4bdf5bb8bc60e840ee71235afe51fbbe20548465,http://data.europa.eu/949/functionalInfrastructure/operationalPoints/HR74306,HR74306,Veliko Trgovišće,45.9947,15.8469,http://data.europa.eu/949/concepts/op-types/rinf/10,10,http://publications.europa.eu/resource/authority/country/HRV,10,station
http://data.europa.eu/949/functionalInfrastructure/operationalPoints/4cd9a564e0f64240695c74f3d9d27c63b91e57b1,http://data.europa.eu/949/functionalInfrastructure/operationalPoints/HR73713,HR73713,Pakrac Grad,45.4371,17.1888,http://data.europa.eu/949/concepts/op-types/rinf/70,70,http://publications.europa.eu/resource/authority/country/HRV,70,passenger stop
http://data.europa.eu/949/functionalInfrastructure/operationalPoints/4d239638bbe18bccfd35f507e71f83829e64aad2,http://data.europa.eu/949/functionalInfrastructure/operationalPoints/HR71507,HR71507,Brijest,45.517,18.6721,http://data.europa.eu/949/concepts/op-types/rinf/70,70,http://publications.europa.eu/resource/authority/country/HRV,70,passenger stop
http://data.europa.eu/949/functionalInfrastructure/operationalPoints/4d720dfb30de67382a0d05317bd222a394ab6175,http://data.europa.eu/949/functionalInfrastructure/operationalPoints/HR75223,HR75223,Mošćenica,45.4425,16.3596,http://data.europa.eu/949/concepts/op-types/rinf/10,10,http://publications.europa.eu/resource/authority/country/HRV,10,station
http://data.europa.eu/949/functionalInfrastructure/operationalPoints/4d72557d144f3b22dc150427b83cded8143c9d17,http://data.europa.eu/949/functionalInfrastructure/operationalPoints/HR72904,HR72904,Lekenik,45.5845,16.2188,http://data.europa.eu/949/concepts/op-types/rinf/10,10,http://publications.europa.eu/resource/authority/country/HRV,10,station
http://data.europa.eu/949/functionalInfrastructure/operationalPoints/4d7acc3a00fffbf66a703926029cdd6804fb2b7f,http://data.europa.eu/949/functionalInfrastructure/operationalPoints/HR72513,HR72513,Deanovec,45.6895,16.46,http://data.europa.eu/949/concepts/op-types/rinf/10,10,http://publications.europa.eu/resource/authority/country/HRV,10,station
http://data.europa.eu/949/functionalInfrastructure/operationalPoints/4d8f9378ea683908ce5ad79286bfebdae12d9bec,http://data.europa.eu/949/functionalInfrastructure/operationalPoints/HR71909,HR71909,Jelisavac,45.5234,18.1548,http://data.europa.eu/949/concepts/op-types/rinf/70,70,http://publications.europa.eu/resource/authority/country/HRV,70,passenger stop
http://data.europa.eu/949/functionalInfrastructure/operationalPoints/4ebbae2266588d1d982410fbffead93208ed2415,http://data.europa.eu/949/functionalInfrastructure/operationalPoints/HR71002,HR71002,Ilača,45.1734,19.0897,http://data.europa.eu/949/concepts/op-types/rinf/70,70,http://publications.europa.eu/resource/authority/country/HRV,70,passenger stop
http://data.europa.eu/949/functionalInfrastructure/operationalPoints/4ee76fd0311b64d763610edc9c7ed8eafd086c04,http://data.europa.eu/949/functionalInfrastructure/operationalPoints/HR72807,HR72807,Slavonski Brod,45.1636,18.0112,http://data.europa.eu/949/concepts/op-types/rinf/10,10,http://publications.europa.eu/resource/authority/country/HRV,10,station
http://data.europa.eu/949/functionalInfrastructure/operationalPoints/4efc820252e929c1e22486449e8d9bbff19e546a,http://data.europa.eu/949/functionalInfrastructure/operationalPoints/HR75011,HR75011,Karlovac Centar,45.4881,15.5492,http://data.europa.eu/949/concepts/op-types/rinf/70,70,http://publications.europa.eu/resource/authority/country/HRV,70,passenger stop
http://data.europa.eu/949/functionalInfrastructure/operationalPoints/4ff3932ba3b8137b41b5e612573a980422b0594f,http://data.europa.eu/949/functionalInfrastructure/operationalPoints/HR72515,HR72515,Prečec stajalište,45.7597,16.3506,http://data.europa.eu/949/concepts/op-types/rinf/70,70,http://publications.europa.eu/resource/authority/country/HRV,70,passenger stop
http://data.europa.eu/949/functionalInfrastructure/operationalPoints/50ead5df1e2a34b30e4f9e4de09914cdf0b2a7d5,http://data.europa.eu/949/functionalInfrastructure/operationalPoints/HR75105,HR75105,Gornji Zvečaj,45.3759,15.4124,http://data.europa.eu/949/concepts/op-types/rinf/70,70,http://publications.europa.eu/resource/authority/country/HRV,70,passenger stop
http://data.europa.eu/949/functionalInfrastructure/operationalPoints/5131b704420eb787eacca5d337e4d0059c8b5526,http://data.europa.eu/949/functionalInfrastructure/operationalPoints/HR77426,HR77426,Roč,45.4004,14.0389,http://data.europa.eu/949/concepts/op-types/rinf/10,10,http://publications.europa.eu/resource/authority/country/HRV,10,station
http://data.europa.eu/949/functionalInfrastructure/operationalPoints/5141be2a1574e561952ed0dd8bf2d29a702ed4e8,http://data.europa.eu/949/functionalInfrastructure/operationalPoints/HR71203,HR71203,Bršadin-Lipovača,45.3677,18.9165,http://data.europa.eu/949/concepts/op-types/rinf/70,70,http://publications.europa.eu/resource/authority/country/HRV,70,passenger stop
http://data.europa.eu/949/functionalInfrastructure/operationalPoints/5260fa71fb6eb9d26117c123342e71280c004421,http://data.europa.eu/949/functionalInfrastructure/operationalPoints/HR74706,HR74706,Kuljevčica,46.2281,16.0935,http://data.europa.eu/949/concepts/op-types/rinf/70,70,http://publications.europa.eu/resource/authority/country/HRV,70,passenger stop
http://data.europa.eu/949/functionalInfrastructure/operationalPoints/529798d5718b52b5dda7727c8aef96da774e9ac4,http://data.europa.eu/949/functionalInfrastructure/operationalPoints/HR75601,HR75601,Bakar,45.2986,14.5595,http://data.europa.eu/949/concepts/op-types/rinf/40,40,http://publications.europa.eu/resource/authority/country/HRV,40,freight terminal
http://data.europa.eu/949/functionalInfrastructure/operationalPoints/52bd9f1d9244e8c4f8682e898947e8aedf3e556d,http://data.europa.eu/949/functionalInfrastructure/operationalPoints/HR74411,HR74411,Mađarevo,46.1696,16.3098,http://data.europa.eu/949/concepts/op-types/rinf/70,70,http://publications.europa.eu/resource/authority/country/HRV,70,passenger stop
http://data.europa.eu/949/functionalInfrastructure/operationalPoints/5302d0732c9ec0eb4415590a7a87470e833aa949,http://data.europa.eu/949/functionalInfrastructure/operationalPoints/HR71009,HR71009,Jankovci,45.2447,18.9034,http://data.europa.eu/949/concepts/op-types/rinf/40,40,http://publications.europa.eu/resource/authority/country/HRV,40,freight terminal
http://data.europa.eu/949/functionalInfrastructure/operationalPoints/530e12d22ab74484c02362b90e331c398958ddc3,http://data.europa.eu/949/functionalInfrastructure/operationalPoints/HR77409,HR77409,Žminj,45.1463,13.8555,http://data.europa.eu/949/concepts/op-types/rinf/70,70,http://publications.europa.eu/resource/authority/country/HRV,70,passenger stop
http://data.europa.eu/949/functionalInfrastructure/operationalPoints/53b55ecdfa5d37cc672f5f218ce26d41e6785193,http://data.europa.eu/949/functionalInfrastructure/operationalPoints/HR72805,HR72805,Zadubravlje,45.1685,18.1535,http://data.europa.eu/949/concepts/op-types/rinf/70,70,http://publications.europa.eu/resource/authority/country/HRV,70,passenger stop
http://data.europa.eu/949/functionalInfrastructure/operationalPoints/53d570a17f0b68de1234f0b0fa2b64fa7dc670ed,http://data.europa.eu/949/functionalInfrastructure/operationalPoints/HR71008,HR71008,Srijemske Laze,45.2272,18.9278,http://data.europa.eu/949/concepts/op-types/rinf/70,70,http://publications.europa.eu/resource/authority/country/HRV,70,passenger stop
http://data.europa.eu/949/functionalInfrastructure/operationalPoints/53fc66ae958243d8a4cb3378fe33e18105e61855,http://data.europa.eu/949/functionalInfrastructure/operationalPoints/HR74304,HR74304,Luka,45.9537,15.8211,http://data.europa.eu/949/concepts/op-types/rinf/10,10,http://publications.europa.eu/resource/authority/country/HRV,10,station
http://data.europa.eu/949/functionalInfrastructure/operationalPoints/54710f12e978fa96a134e79011d378416be95bf6,http://data.europa.eu/949/functionalInfrastructure/operationalPoints/HR76111,HR76111,Kruškovac,44.4374,15.5656,http://data.europa.eu/949/concepts/op-types/rinf/70,70,http://publications.europa.eu/resource/authority/country/HRV,70,passenger stop
http://data.europa.eu/949/functionalInfrastructure/operationalPoints/552cc0aa35c39f293822ddab42dc637fa58b9bc7,http://data.europa.eu/949/functionalInfrastructure/operationalPoints/HR71903,HR71903,Bizovac,45.5871,18.453,http://data.europa.eu/949/concepts/op-types/rinf/10,10,http://publications.europa.eu/resource/authority/country/HRV,10,station
http://data.europa.eu/949/functionalInfrastructure/operationalPoints/55506aea2848e320ffd06c42af482dd367b0a279,http://data.europa.eu/949/functionalInfrastructure/operationalPoints/HR74005,HR74005,Kustošija,45.8106,15.9269,http://data.europa.eu/949/concepts/op-types/rinf/70,70,http://publications.europa.eu/resource/authority/country/HRV,70,passenger stop
http://data.europa.eu/949/functionalInfrastructure/operationalPoints/55afcbd1a344aa444204749f09c384fb371ade6d,http://data.europa.eu/949/functionalInfrastructure/operationalPoints/HR76307,HR76307,Kožlovac,43.9977,15.6817,http://data.europa.eu/949/concepts/op-types/rinf/70,70,http://publications.europa.eu/resource/authority/country/HRV,70,passenger stop
http://data.europa.eu/949/functionalInfrastructure/operationalPoints/561679a238d2f6f30fe46c08fbcf47a8655bb50b,http://data.europa.eu/949/functionalInfrastructure/operationalPoints/HR73804,HR73804,Ludbreg,46.2563,16.612,http://data.europa.eu/949/concepts/op-types/rinf/10,10,http://publications.europa.eu/resource/authority/country/HRV,10,station
http://data.europa.eu/949/functionalInfrastructure/operationalPoints/5665054c0e6793a70fb575e1f7b53be5e5b3854d,http://data.europa.eu/949/functionalInfrastructure/operationalPoints/HR76411,HR76411,Koprno,43.6898,16.1485,http://data.europa.eu/949/concepts/op-types/rinf/70,70,http://publications.europa.eu/resource/authority/country/HRV,70,passenger stop
http://data.europa.eu/949/functionalInfrastructure/operationalPoints/569b76a265fd0fd7a0d1765d31611e3362bbd2f7,http://data.europa.eu/949/functionalInfrastructure/operationalPoints/HR73005,HR73005,Špišić Bukovica,45.8458,17.2988,http://data.europa.eu/949/concepts/op-types/rinf/10,10,http://publications.europa.eu/resource/authority/country/HRV,10,station
http://data.europa.eu/949/functionalInfrastructure/operationalPoints/57cf90d8018d8aa256cec1e0023f90b734a45931,http://data.europa.eu/949/functionalInfrastructure/operationalPoints/HR76306,HR76306,Bulići,43.98,15.7406,http://data.europa.eu/949/concepts/op-types/rinf/70,70,http://publications.europa.eu/resource/authority/country/HRV,70,passenger stop
http://data.europa.eu/949/functionalInfrastructure/operationalPoints/583f6ca0a24e98a85bda4cbe2f25dee6fbd04d69,http://data.europa.eu/949/functionalInfrastructure/operationalPoints/HR76508,HR76508,Kaštel Stari,43.5674,16.3448,http://data.europa.eu/949/concepts/op-types/rinf/10,10,http://publications.europa.eu/resource/authority/country/HRV,10,station
http://data.europa.eu/949/functionalInfrastructure/operationalPoints/586faa9869f71f7c3611ca97251a28a7eb2a484b,http://data.europa.eu/949/functionalInfrastructure/operationalPoints/HR74808,HR74808,Kotoriba,46.3538,16.8084,http://data.europa.eu/949/concepts/op-types/rinf/10,10,http://publications.europa.eu/resource/authority/country/HRV,10,station
http://data.europa.eu/949/functionalInfrastructure/operationalPoints/58c61046f786cadb5362e0386bd5bcf8cbdf9cf1,http://data.europa.eu/949/functionalInfrastructure/operationalPoints/HR74204,HR74204,Rozga,45.9434,15.7113,http://data.europa.eu/949/concepts/op-types/rinf/70,70,http://publications.europa.eu/resource/authority/country/HRV,70,passenger stop
http://data.europa.eu/949/functionalInfrastructure/operationalPoints/58dde665f7ec8543d3ba5b41c3a37c672b2724c6,http://data.europa.eu/949/functionalInfrastructure/operationalPoints/HR71010,HR71010,Mirkovci,45.2788,18.8561,http://data.europa.eu/949/concepts/op-types/rinf/70,70,http://publications.europa.eu/resource/authority/country/HRV,70,passenger stop
http://data.europa.eu/949/functionalInfrastructure/operationalPoints/59024c8cb9d60d6f5f925661c5904dcf8cc580fd,http://data.europa.eu/949/functionalInfrastructure/operationalPoints/HR75104,HR75104,Zvečaj,45.3958,15.431,http://data.europa.eu/949/concepts/op-types/rinf/10,10,http://publications.europa.eu/resource/authority/country/HRV,10,station
http://data.europa.eu/949/functionalInfrastructure/operationalPoints/590433cd3ccb40a150bec1e96bbbdd8893b351bc,http://data.europa.eu/949/functionalInfrastructure/operationalPoints/HR76203,HR76203,Zrmanja,44.2436,16.0692,http://data.europa.eu/949/concepts/op-types/rinf/10,10,http://publications.europa.eu/resource/authority/country/HRV,10,station
http://data.europa.eu/949/functionalInfrastructure/operationalPoints/593c5a6efb11b5b510cd5315698d0fdafd6691dd,http://data.europa.eu/949/functionalInfrastructure/operationalPoints/HR71007,HR71007,Slakovci,45.2151,18.9463,http://data.europa.eu/949/concepts/op-types/rinf/70,70,http://publications.europa.eu/resource/authority/country/HRV,70,passenger stop
http://data.europa.eu/949/functionalInfrastructure/operationalPoints/599195563fb26a8ab85376aa3801c4e1433b46f5,http://data.europa.eu/949/functionalInfrastructure/operationalPoints/HR74604,HR74604,Krapina,46.1595,15.8721,http://data.europa.eu/949/concepts/op-types/rinf/10,10,http://publications.europa.eu/resource/authority/country/HRV,10,station
http://data.europa.eu/949/functionalInfrastructure/operationalPoints/5995a23933a8744f21b1ccc6bf18501fb0ba0565,http://data.europa.eu/949/functionalInfrastructure/operationalPoints/HR71006,HR71006,Orolik,45.2067,18.9756,http://data.europa.eu/949/concepts/op-types/rinf/70,70,http://publications.europa.eu/resource/authority/country/HRV,70,passenger stop
http://data.europa.eu/949/functionalInfrastructure/operationalPoints/59e9f5a80f601cf3298b5824a4215fd73cd0914d,http://data.europa.eu/949/functionalInfrastructure/operationalPoints/HR74001,HR74001,Vrapče,45.8123,15.8966,http://data.europa.eu/949/concepts/op-types/rinf/70,70,http://publications.europa.eu/resource/authority/country/HRV,70,passenger stop
http://data.europa.eu/949/functionalInfrastructure/operationalPoints/5a237cab600399e8e643141e74e8ce99f5c0973c,http://data.europa.eu/949/functionalInfrastructure/operationalPoints/HR71808,HR71808,Đakovo,45.3136,18.4218,http://data.europa.eu/949/concepts/op-types/rinf/10,10,http://publications.europa.eu/resource/authority/country/HRV,10,station
http://data.europa.eu/949/functionalInfrastructure/operationalPoints/5b5f38a32478669da7a158a79f0f55d373e4443d,http://data.europa.eu/949/functionalInfrastructure/operationalPoints/HR72301,HR72301,Zagreb Resnik,45.8101,16.0679,http://data.europa.eu/949/concepts/op-types/rinf/40,40,http://publications.europa.eu/resource/authority/country/HRV,40,freight terminal
http://data.europa.eu/949/functionalInfrastructure/operationalPoints/5be6fd1e9524acb2e3854a1831f7028f89b2c6c1,http://data.europa.eu/949/functionalInfrastructure/operationalPoints/HR75001,HR75001,Remetinec,45.7664,15.9456,http://data.europa.eu/949/concepts/op-types/rinf/70,70,http://publications.europa.eu/resource/authority/country/HRV,70,passenger stop
http://data.europa.eu/949/functionalInfrastructure/operationalPoints/5bef9d7fd6c59e27e3d89cb33e13b94f0bd752f0,http://data.europa.eu/949/functionalInfrastructure/operationalPoints/HR71403,HR71403,Cerna,45.1942,18.6991,http://data.europa.eu/949/concepts/op-types/rinf/10,10,http://publications.europa.eu/resource/authority/country/HRV,10,station
http://data.europa.eu/949/functionalInfrastructure/operationalPoints/5c78ac6fa23c47352eeb8abe8211e001c31f9462,http://data.europa.eu/949/functionalInfrastructure/operationalPoints/HR72907,HR72907,Mraclin,45.6688,16.1021,http://data.europa.eu/949/concepts/op-types/rinf/70,70,http://publications.europa.eu/resource/authority/country/HRV,70,passenger stop
http://data.europa.eu/949/functionalInfrastructure/operationalPoints/5c9c8f0808e6fae1dc9875b169626c6d558f64c1,http://data.europa.eu/949/functionalInfrastructure/operationalPoints/HR75106,HR75106,Generalski Stol,45.3434,15.3765,http://data.europa.eu/949/concepts/op-types/rinf/10,10,http://publications.europa.eu/resource/authority/country/HRV,10,station
http://data.europa.eu/949/functionalInfrastructure/operationalPoints/5cf5173f3047b08c42bf9ab8d3a47b8c1b9b5e1c,http://data.europa.eu/949/functionalInfrastructure/operationalPoints/HR73904,HR73904,Feričanci,45.5382,17.9809,http://data.europa.eu/949/concepts/op-types/rinf/70,70,http://publications.europa.eu/resource/authority/country/HRV,70,passenger stop
http://data.europa.eu/949/functionalInfrastructure/operationalPoints/5da754974a30bfb710a819fc701f31e86577a333,http://data.europa.eu/949/functionalInfrastructure/operationalPoints/HR73106,HR73106,Majurec,46.0267,16.5902,http://data.europa.eu/949/concepts/op-types/rinf/70,70,http://publications.europa.eu/resource/authority/country/HRV,70,passenger stop
http://data.europa.eu/949/functionalInfrastructure/operationalPoints/5e0be7123864fb2e83e0b950f1f51b75a93eaa24,http://data.europa.eu/949/functionalInfrastructure/operationalPoints/HR74607,HR74607,Hromec,46.2069,15.808,http://data.europa.eu/949/concepts/op-types/rinf/70,70,http://publications.europa.eu/resource/authority/country/HRV,70,passenger stop
http://data.europa.eu/949/functionalInfrastructure/operationalPoints/5e8d57a13fda8e3f22bc32b15b53d472b94b7060,http://data.europa.eu/949/functionalInfrastructure/operationalPoints/HR71102,HR71102,Vođinci,45.2697,18.6138,http://data.europa.eu/949/concepts/op-types/rinf/70,70,http://publications.europa.eu/resource/authority/country/HRV,70,passenger stop
http://data.europa.eu/949/functionalInfrastructure/operationalPoints/5f44188fe0137e94eaf1ff94d630b53171084087,http://data.europa.eu/949/functionalInfrastructure/operationalPoints/HR77402,HR77402,Borut,45.3043,14.0523,http://data.europa.eu/949/concepts/op-types/rinf/10,10,http://publications.europa.eu/resource/authority/country/HRV,10,station
http://data.europa.eu/949/functionalInfrastructure/operationalPoints/5fe4285fdf11a12ca16eb410d03cd86b862d2283,http://data.europa.eu/949/functionalInfrastructure/operationalPoints/HR73911,HR73911,Podravska Bistrica,45.7427,17.609,http://data.europa.eu/949/concepts/op-types/rinf/70,70,http://publications.europa.eu/resource/authority/country/HRV,70,passenger stop
http://data.europa.eu/949/functionalInfrastructure/operationalPoints/6035fab3d03ed4eea344afc85fef50193bf8a00b,http://data.europa.eu/949/functionalInfrastructure/operationalPoints/HR76661,HR76661,Split Predgrađe,43.5221,16.4553,http://data.europa.eu/949/concepts/op-types/rinf/10,10,http://publications.europa.eu/resource/authority/country/HRV,10,station
http://data.europa.eu/949/functionalInfrastructure/operationalPoints/60f19a2de3fdb318a7b26a89c303c5a160a703a5,http://data.europa.eu/949/functionalInfrastructure/operationalPoints/HR73306,HR73306,Klokočevac,45.9101,16.7752,http://data.europa.eu/949/concepts/op-types/rinf/70,70,http://publications.europa.eu/resource/authority/country/HRV,70,passenger stop
http://data.europa.eu/949/functionalInfrastructure/operationalPoints/6291de38c6c0a52ef7aa7e38d7d69d47fa943396,http://data.europa.eu/949/functionalInfrastructure/operationalPoints/HR76308,HR76308,Benkovac,44.0263,15.6143,http://data.europa.eu/949/concepts/op-types/rinf/10,10,http://publications.europa.eu/resource/authority/country/HRV,10,station
http://data.europa.eu/949/functionalInfrastructure/operationalPoints/62c511f73da3dcd5303388850f15d52181582600,http://data.europa.eu/949/functionalInfrastructure/operationalPoints/HR74402,HR74402,Dubrava Zabočka,46.0209,15.9526,http://data.europa.eu/949/concepts/op-types/rinf/70,70,http://publications.europa.eu/resource/authority/country/HRV,70,passenger stop
http://data.europa.eu/949/functionalInfrastructure/operationalPoints/630f5e80e4c29fd7770cd548ed7cc54726ec5395,http://data.europa.eu/949/functionalInfrastructure/operationalPoints/HR76409,HR76409,Unešić,43.7415,16.1815,http://data.europa.eu/949/concepts/op-types/rinf/10,10,http://publications.europa.eu/resource/authority/country/HRV,10,station
http://data.europa.eu/949/functionalInfrastructure/operationalPoints/635ca3375d20883cced3d6fb679c063d934c3dea,http://data.europa.eu/949/functionalInfrastructure/operationalPoints/HR75222,HR75222,Petrinja,45.4381,16.287,http://data.europa.eu/949/concepts/op-types/rinf/10,10,http://publications.europa.eu/resource/authority/country/HRV,10,station
http://data.europa.eu/949/functionalInfrastructure/operationalPoints/63680b3b9ebc10542f913f64c9324a7cd9779c95,http://data.europa.eu/949/functionalInfrastructure/operationalPoints/HR76663,HR76663,Dujmovača,43.52792,16.48399,http://data.europa.eu/949/concepts/op-types/rinf/70,70,http://publications.europa.eu/resource/authority/country/HRV,70,passenger stop
http://data.europa.eu/949/functionalInfrastructure/operationalPoints/64375545b598d8c3c9aa2d99c3fec53011aea1a9,http://data.europa.eu/949/functionalInfrastructure/operationalPoints/HR74708,HR74708,Golubovec,46.1737,15.9835,http://data.europa.eu/949/concepts/op-types/rinf/10,10,http://publications.europa.eu/resource/authority/country/HRV,10,station
http://data.europa.eu/949/functionalInfrastructure/operationalPoints/64512d7a5aac219caf71d8a2e161ed30880ff42b,http://data.europa.eu/949/functionalInfrastructure/operationalPoints/HR71604,HR71604,Nemetin,45.5342,18.7785,http://data.europa.eu/949/concepts/op-types/rinf/10,10,http://publications.europa.eu/resource/authority/country/HRV,10,station
http://data.europa.eu/949/functionalInfrastructure/operationalPoints/6469c3e2cfbabf73be268da22926f8e55cecd02c,http://data.europa.eu/949/functionalInfrastructure/operationalPoints/HR72060,HR72060,Sunja,45.3555,16.5505,http://data.europa.eu/949/concepts/op-types/rinf/10,10,http://publications.europa.eu/resource/authority/country/HRV,10,station
http://data.europa.eu/949/functionalInfrastructure/operationalPoints/65eb1a6c051223886c427f53774d0800166f6d21,http://data.europa.eu/949/functionalInfrastructure/operationalPoints/HR74212,HR74212,Harmica,45.8916,15.6857,http://data.europa.eu/949/concepts/op-types/rinf/70,70,http://publications.europa.eu/resource/authority/country/HRV,70,passenger stop
http://data.europa.eu/949/functionalInfrastructure/operationalPoints/66077ea671db02ee524f6c4576126adfe718cb23,http://data.europa.eu/949/functionalInfrastructure/operationalPoints/HR73321,HR73321,Grginac,45.9094,16.8931,http://data.europa.eu/949/concepts/op-types/rinf/70,70,http://publications.europa.eu/resource/authority/country/HRV,70,passenger stop
http://data.europa.eu/949/functionalInfrastructure/operationalPoints/670e22458b1166f4644782a45db217b88269a18f,http://data.europa.eu/949/functionalInfrastructure/operationalPoints/HR92908,HR92908,Mičevac,45.7459,16.0403,http://data.europa.eu/949/concepts/op-types/rinf/80,80,http://publications.europa.eu/resource/authority/country/HRV,80,junction
http://data.europa.eu/949/functionalInfrastructure/operationalPoints/68f04181e81db8fa08b1d1848126197bc4d90d3b,http://data.europa.eu/949/functionalInfrastructure/operationalPoints/HR71907,HR71907,Niza,45.5428,18.2346,http://data.europa.eu/949/concepts/op-types/rinf/70,70,http://publications.europa.eu/resource/authority/country/HRV,70,passenger stop
http://data.europa.eu/949/functionalInfrastructure/operationalPoints/6a4e98907b74791fdd17d6570902f4986b7bad99,http://data.europa.eu/949/functionalInfrastructure/operationalPoints/HR76401,HR76401,Kaldrma,43.9726,16.2059,http://data.europa.eu/949/concepts/op-types/rinf/70,70,http://publications.europa.eu/resource/authority/country/HRV,70,passenger stop
http://data.europa.eu/949/functionalInfrastructure/operationalPoints/6a7c15acf7561ce540ac5d7a6ab2785537eda639,http://data.europa.eu/949/functionalInfrastructure/operationalPoints/HR78652,HR78652,Opuzen,43.0203,17.564,http://data.europa.eu/949/concepts/op-types/rinf/10,10,http://publications.europa.eu/resource/authority/country/HRV,10,station
http://data.europa.eu/949/functionalInfrastructure/operationalPoints/6a7e2015eb4cba25a2aeb17ea4a460536f63717a,http://data.europa.eu/949/functionalInfrastructure/operationalPoints/HR76003,HR76003,Vojnovac,45.15,15.3342,http://data.europa.eu/949/concepts/op-types/rinf/70,70,http://publications.europa.eu/resource/authority/country/HRV,70,passenger stop
http://data.europa.eu/949/functionalInfrastructure/operationalPoints/6a93cd37ea94a4e54448098819c2827042836894,http://data.europa.eu/949/functionalInfrastructure/operationalPoints/HR76007,HR76007,Blata,45.0329,15.399,http://data.europa.eu/949/concepts/op-types/rinf/10,10,http://publications.europa.eu/resource/authority/country/HRV,10,station
http://data.europa.eu/949/functionalInfrastructure/operationalPoints/6ab1edfc773c3f2abe95d7cef12db23032f7a336,http://data.europa.eu/949/functionalInfrastructure/operationalPoints/HR91009,HR91009,Novi Jankovci,45.2466,18.9008,http://data.europa.eu/949/concepts/op-types/rinf/70,70,http://publications.europa.eu/resource/authority/country/HRV,70,passenger stop
http://data.europa.eu/949/functionalInfrastructure/operationalPoints/6adb3759f978c2513a93d2776965e492601e09b8,http://data.europa.eu/949/functionalInfrastructure/operationalPoints/HR73910,HR73910,Sladojevci,45.7269,17.6388,http://data.europa.eu/949/concepts/op-types/rinf/70,70,http://publications.europa.eu/resource/authority/country/HRV,70,passenger stop
http://data.europa.eu/949/functionalInfrastructure/operationalPoints/6ae56c9ba47b654f0cca454823dd7843b0d1c509,http://data.europa.eu/949/functionalInfrastructure/operationalPoints/HR75610,HR75610,Rukavac,45.3698,14.304,http://data.europa.eu/949/concepts/op-types/rinf/70,70,http://publications.europa.eu/resource/authority/country/HRV,70,passenger stop
http://data.europa.eu/949/functionalInfrastructure/operationalPoints/6b44eb410c16fdae8b7711408c4991f1099554f5,http://data.europa.eu/949/functionalInfrastructure/operationalPoints/HR75413,HR75413,Lokve,45.3566,14.7722,http://data.europa.eu/949/concepts/op-types/rinf/10,10,http://publications.europa.eu/resource/authority/country/HRV,10,station
http://data.europa.eu/949/functionalInfrastructure/operationalPoints/6ba4ab9b20383f1ab06c23d6a6ee829c26fe0a8d,http://data.europa.eu/949/functionalInfrastructure/operationalPoints/HR73709,HR73709,Bijela,45.573,17.2612,http://data.europa.eu/949/concepts/op-types/rinf/70,70,http://publications.europa.eu/resource/authority/country/HRV,70,passenger stop
http://data.europa.eu/949/functionalInfrastructure/operationalPoints/6bf578d17e83f10bacd74f106ccd57a6458f5326,http://data.europa.eu/949/functionalInfrastructure/operationalPoints/HR71922,HR71922,Valpovo,45.6616,18.4252,http://data.europa.eu/949/concepts/op-types/rinf/70,70,http://publications.europa.eu/resource/authority/country/HRV,70,passenger stop
http://data.europa.eu/949/functionalInfrastructure/operationalPoints/6bfefad8ee52df2ec2956af1dd960ff0956515dc,http://data.europa.eu/949/functionalInfrastructure/operationalPoints/HR76105,HR76105,Studenci,44.7061,15.3506,http://data.europa.eu/949/concepts/op-types/rinf/70,70,http://publications.europa.eu/resource/authority/country/HRV,70,passenger stop
http://data.europa.eu/949/functionalInfrastructure/operationalPoints/6c692241cb6b08d90a9da3ab1b6f49b32cc4fe3d,http://data.europa.eu/949/functionalInfrastructure/operationalPoints/HR72922,HR72922,Zagreb Klara,45.7601,15.9752,http://data.europa.eu/949/concepts/op-types/rinf/10,10,http://publications.europa.eu/resource/authority/country/HRV,10,station
http://data.europa.eu/949/functionalInfrastructure/operationalPoints/6d894e9e3d7b5f0e8f9b9cfa75bd748633318d2d,http://data.europa.eu/949/functionalInfrastructure/operationalPoints/HR74210,HR74210,Zagorska Sela,46.103,15.6238,http://data.europa.eu/949/concepts/op-types/rinf/70,70,http://publications.europa.eu/resource/authority/country/HRV,70,passenger stop
http://data.europa.eu/949/functionalInfrastructure/operationalPoints/6dbbb3414fff187cd27d926d345ce1d51298831c,http://data.europa.eu/949/functionalInfrastructure/operationalPoints/HR73717,HR73717,Brezine Bujavica,45.4448,17.0342,http://data.europa.eu/949/concepts/op-types/rinf/70,70,http://publications.europa.eu/resource/authority/country/HRV,70,passenger stop
http://data.europa.eu/949/functionalInfrastructure/operationalPoints/704efbc5e9df5ba0483e5113305eb4d4a38a8662,http://data.europa.eu/949/functionalInfrastructure/operationalPoints/HR74302,HR74302,Pojatno,45.9094,15.8082,http://data.europa.eu/949/concepts/op-types/rinf/70,70,http://publications.europa.eu/resource/authority/country/HRV,70,passenger stop
http://data.europa.eu/949/functionalInfrastructure/operationalPoints/70bb268a4920620d58a067e966b86630e260db1c,http://data.europa.eu/949/functionalInfrastructure/operationalPoints/HR75103,HR75103,Belavići,45.4222,15.4791,http://data.europa.eu/949/concepts/op-types/rinf/70,70,http://publications.europa.eu/resource/authority/country/HRV,70,passenger stop
http://data.europa.eu/949/functionalInfrastructure/operationalPoints/70efb2c82b55ae60af1c984ac32cb372cf09b653,http://data.europa.eu/949/functionalInfrastructure/operationalPoints/HR74401,HR74401,Hum-Lug,46.0209,15.9264,http://data.europa.eu/949/concepts/op-types/rinf/70,70,http://publications.europa.eu/resource/authority/country/HRV,70,passenger stop
http://data.europa.eu/949/functionalInfrastructure/operationalPoints/711ec220c0bffd7f65433be3d781a4861164b89f,http://data.europa.eu/949/functionalInfrastructure/operationalPoints/HR76108,HR76108,Gospić,44.5362,15.3936,http://data.europa.eu/949/concepts/op-types/rinf/10,10,http://publications.europa.eu/resource/authority/country/HRV,10,station
http://data.europa.eu/949/functionalInfrastructure/operationalPoints/71629dbf7d3319c9da72949e651dd628c5296dc6,http://data.europa.eu/949/functionalInfrastructure/operationalPoints/HR75005,HR75005,Desinec,45.673,15.7089,http://data.europa.eu/949/concepts/op-types/rinf/70,70,http://publications.europa.eu/resource/authority/country/HRV,70,passenger stop
http://data.europa.eu/949/functionalInfrastructure/operationalPoints/717397b8bfd47c179514c2d91bb88889f1ac5553,http://data.europa.eu/949/functionalInfrastructure/operationalPoints/HR73718,HR73718,Poljana,45.463,16.979,http://data.europa.eu/949/concepts/op-types/rinf/70,70,http://publications.europa.eu/resource/authority/country/HRV,70,passenger stop
http://data.europa.eu/949/functionalInfrastructure/operationalPoints/72a7a8ad094edd23d6d7cd9db99162ea02a9f26b,http://data.europa.eu/949/functionalInfrastructure/operationalPoints/HR74410,HR74410,Podrute,46.1487,16.2627,http://data.europa.eu/949/concepts/op-types/rinf/70,70,http://publications.europa.eu/resource/authority/country/HRV,70,passenger stop
http://data.europa.eu/949/functionalInfrastructure/operationalPoints/73075a8c8de2d757f2da7725b1ed133809131453,http://data.europa.eu/949/functionalInfrastructure/operationalPoints/HR76314,HR76314,Debeljak,44.0504,15.3442,http://data.europa.eu/949/concepts/op-types/rinf/70,70,http://publications.europa.eu/resource/authority/country/HRV,70,passenger stop
http://data.europa.eu/949/functionalInfrastructure/operationalPoints/7390de1e92c3c4c3193e8e9c55e441e28eeb2ceb,http://data.europa.eu/949/functionalInfrastructure/operationalPoints/HR92302,HR92302,Sava,45.7569,16.0445,http://data.europa.eu/949/concepts/op-types/rinf/80,80,http://publications.europa.eu/resource/authority/country/HRV,80,junction
http://data.europa.eu/949/functionalInfrastructure/operationalPoints/73fc673d89bb4a8d1003ffa01248a790acac5dd1,http://data.europa.eu/949/functionalInfrastructure/operationalPoints/HR74407,HR74407,Konjšćina,46.0505,16.179,http://data.europa.eu/949/concepts/op-types/rinf/10,10,http://publications.europa.eu/resource/authority/country/HRV,10,station
http://data.europa.eu/949/functionalInfrastructure/operationalPoints/750bf420f2ca312a3d8527f32d9d6669f15ab4ff,http://data.europa.eu/949/functionalInfrastructure/operationalPoints/HR72921,HR72921,Odra,45.7339,16.0117,http://data.europa.eu/949/concepts/op-types/rinf/70,70,http://publications.europa.eu/resource/authority/country/HRV,70,passenger stop
http://data.europa.eu/949/functionalInfrastructure/operationalPoints/754c918ab95b716810c1d8fb416964c3a62d203d,http://data.europa.eu/949/functionalInfrastructure/operationalPoints/HR76403,HR76403,Tepljuh,43.8934,16.2103,http://data.europa.eu/949/concepts/op-types/rinf/70,70,http://publications.europa.eu/resource/authority/country/HRV,70,passenger stop
http://data.europa.eu/949/functionalInfrastructure/operationalPoints/755c3666339484d2f83af963081b7adbe2db85b5,http://data.europa.eu/949/functionalInfrastructure/operationalPoints/HR74503,HR74503,Donja Stubica,45.9833,15.966,http://data.europa.eu/949/concepts/op-types/rinf/70,70,http://publications.europa.eu/resource/authority/country/HRV,70,passenger stop
http://data.europa.eu/949/functionalInfrastructure/operationalPoints/760b6464d306a6e89827abd7ac85279f668c30f0,http://data.europa.eu/949/functionalInfrastructure/operationalPoints/HR77412,HR77412,Savićenta,45.0658,13.8587,http://data.europa.eu/949/concepts/op-types/rinf/70,70,http://publications.europa.eu/resource/authority/country/HRV,70,passenger stop
http://data.europa.eu/949/functionalInfrastructure/operationalPoints/763444f2a88811951384497979950b809438ec6e,http://data.europa.eu/949/functionalInfrastructure/operationalPoints/HR77425,HR77425,Buzet,45.4263,13.9852,http://data.europa.eu/949/concepts/op-types/rinf/10,10,http://publications.europa.eu/resource/authority/country/HRV,10,station
http://data.europa.eu/949/functionalInfrastructure/operationalPoints/76555a148522531bfb337b841454b473882b5c95,http://data.europa.eu/949/functionalInfrastructure/operationalPoints/HR73009,HR73009,Kalinovac,46.0128,17.0959,http://data.europa.eu/949/concepts/op-types/rinf/70,70,http://publications.europa.eu/resource/authority/country/HRV,70,passenger stop
http://data.europa.eu/949/functionalInfrastructure/operationalPoints/769c7b123395b5774802be1edff8e779bb10d60c,http://data.europa.eu/949/functionalInfrastructure/operationalPoints/HR75420,HR75420,Melnice,45.2769,14.6176,http://data.europa.eu/949/concepts/op-types/rinf/70,70,http://publications.europa.eu/resource/authority/country/HRV,70,passenger stop
http://data.europa.eu/949/functionalInfrastructure/operationalPoints/76c2fbffd656a0e1fad2762d38191ada1a975c52,http://data.europa.eu/949/functionalInfrastructure/operationalPoints/HR71791,HR71791,Ladimirevci,45.6241,18.4601,http://data.europa.eu/949/concepts/op-types/rinf/70,70,http://publications.europa.eu/resource/authority/country/HRV,70,passenger stop
http://data.europa.eu/949/functionalInfrastructure/operationalPoints/77ddccfdc227ca82120d68e2eb36ba4b7a47177a,http://data.europa.eu/949/functionalInfrastructure/operationalPoints/HR73014,HR73014,Bregi,46.1267,16.892,http://data.europa.eu/949/concepts/op-types/rinf/10,10,http://publications.europa.eu/resource/authority/country/HRV,10,station
http://data.europa.eu/949/functionalInfrastructure/operationalPoints/7842c5b4e525a799e9201ec7a3bacb57a7609580,http://data.europa.eu/949/functionalInfrastructure/operationalPoints/HR71914,HR71914,Vodovod,45.5524,18.6682,http://data.europa.eu/949/concepts/op-types/rinf/70,70,http://publications.europa.eu/resource/authority/country/HRV,70,passenger stop
http://data.europa.eu/949/functionalInfrastructure/operationalPoints/784e30d2fa00543c215155d2deea8d37e2012818,http://data.europa.eu/949/functionalInfrastructure/operationalPoints/HR75421,HR75421,Meja,45.3066,14.5957,http://data.europa.eu/949/concepts/op-types/rinf/10,10,http://publications.europa.eu/resource/authority/country/HRV,10,station
http://data.europa.eu/949/functionalInfrastructure/operationalPoints/789c15065f2684356cc02bac858ec90e19a4d991,http://data.europa.eu/949/functionalInfrastructure/operationalPoints/HR95002,HR95002,Delta,45.7679,15.9492,http://data.europa.eu/949/concepts/op-types/rinf/80,80,http://publications.europa.eu/resource/authority/country/HRV,80,junction
http://data.europa.eu/949/functionalInfrastructure/operationalPoints/78ee9bb5c96609ee5ff5904b7ef7654b76ef8c07,http://data.europa.eu/949/functionalInfrastructure/operationalPoints/HR71704,HR71704,Čeminac,45.6859,18.6554,http://data.europa.eu/949/concepts/op-types/rinf/70,70,http://publications.europa.eu/resource/authority/country/HRV,70,passenger stop
http://data.europa.eu/949/functionalInfrastructure/operationalPoints/792b8a273345c3a016d2d1a331283cd667081cae,http://data.europa.eu/949/functionalInfrastructure/operationalPoints/HR76012,HR76012,Šušnjevo Selo,45.2103,15.2832,http://data.europa.eu/949/concepts/op-types/rinf/70,70,http://publications.europa.eu/resource/authority/country/HRV,70,passenger stop
http://data.europa.eu/949/functionalInfrastructure/operationalPoints/79eef9fde07150460c9a335e879749a9297a27be,http://data.europa.eu/949/functionalInfrastructure/operationalPoints/HR78656,HR78656,Krvavac,43.0255,17.5895,http://data.europa.eu/949/concepts/op-types/rinf/70,70,http://publications.europa.eu/resource/authority/country/HRV,70,passenger stop
http://data.europa.eu/949/functionalInfrastructure/operationalPoints/79fb9a902fe2eb94f98d3d083b6fdef41713999b,http://data.europa.eu/949/functionalInfrastructure/operationalPoints/EU00222,EU00222,Metković DG,43.05886,17.65746,http://data.europa.eu/949/concepts/op-types/rinf/90,90,http://publications.europa.eu/resource/authority/country/HRV,90,border point
http://data.europa.eu/949/functionalInfrastructure/operationalPoints/7ac9ef63e39c3461c963d43b372610c864787d86,http://data.europa.eu/949/functionalInfrastructure/operationalPoints/HR73303,HR73303,Sveti Ivan Žabno,45.945,16.621,http://data.europa.eu/949/concepts/op-types/rinf/10,10,http://publications.europa.eu/resource/authority/country/HRV,10,station
http://data.europa.eu/949/functionalInfrastructure/operationalPoints/7ad357f82a760eddb742e5cbf63ae0929545825b,http://data.europa.eu/949/functionalInfrastructure/operationalPoints/HR75303,HR75303,Ozalj,45.612,15.4823,http://data.europa.eu/949/concepts/op-types/rinf/10,10,http://publications.europa.eu/resource/authority/country/HRV,10,station
http://data.europa.eu/949/functionalInfrastructure/operationalPoints/7b098c5dce6ed3d3102bac9de7b8b6fa0a2f9584,http://data.europa.eu/949/functionalInfrastructure/operationalPoints/HR74701,HR74701,Vidovec,46.2649,16.252,http://data.europa.eu/949/concepts/op-types/rinf/70,70,http://publications.europa.eu/resource/authority/country/HRV,70,passenger stop
http://data.europa.eu/949/functionalInfrastructure/operationalPoints/7b10f026d5bb74d5edd1c2eedda6c8ab7fdff25f,http://data.europa.eu/949/functionalInfrastructure/operationalPoints/HR76010,HR76010,Rudopolje,44.8667,15.4885,http://data.europa.eu/949/concepts/op-types/rinf/10,10,http://publications.europa.eu/resource/authority/country/HRV,10,station
http://data.europa.eu/949/functionalInfrastructure/operationalPoints/7b6e350f8217c6044446b555a23c15bf2f3d7035,http://data.europa.eu/949/functionalInfrastructure/operationalPoints/HR99998,HR99998,Otpremništvo Našicecement,45.4767,18.0715,http://data.europa.eu/949/concepts/op-types/rinf/120,120,http://publications.europa.eu/resource/authority/country/HRV,120,switch
http://data.europa.eu/949/functionalInfrastructure/operationalPoints/7b9e77f4881b9ee3519420a973aa4c7a956a3aea,http://data.europa.eu/949/functionalInfrastructure/operationalPoints/HR73324,HR73324,Mišulinovac,45.9347,16.9449,http://data.europa.eu/949/concepts/op-types/rinf/70,70,http://publications.europa.eu/resource/authority/country/HRV,70,passenger stop
http://data.europa.eu/949/functionalInfrastructure/operationalPoints/7baa55946744db6c48b79beb74eae485f5eb4ba1,http://data.europa.eu/949/functionalInfrastructure/operationalPoints/HR77404,HR77404,Novaki,45.259,13.9895,http://data.europa.eu/949/concepts/op-types/rinf/70,70,http://publications.europa.eu/resource/authority/country/HRV,70,passenger stop
http://data.europa.eu/949/functionalInfrastructure/operationalPoints/7be4414c888a3f9bbde494cb686053c41d4c09ba,http://data.europa.eu/949/functionalInfrastructure/operationalPoints/HR73004,HR73004,Virovitica grad,45.8268,17.386,http://data.europa.eu/949/concepts/op-types/rinf/70,70,http://publications.europa.eu/resource/authority/country/HRV,70,passenger stop
http://data.europa.eu/949/functionalInfrastructure/operationalPoints/7c50e3fa66a648a9d42493360fc6401b281086ee,http://data.europa.eu/949/functionalInfrastructure/operationalPoints/HR72801,HR72801,Perkovci,45.2086,18.3496,http://data.europa.eu/949/concepts/op-types/rinf/70,70,http://publications.europa.eu/resource/authority/country/HRV,70,passenger stop
http://data.europa.eu/949/functionalInfrastructure/operationalPoints/7c9e3b8288117da197bebb6153991f974e6496e3,http://data.europa.eu/949/functionalInfrastructure/operationalPoints/EU00223,EU00223,Volinja Dg,45.18939,16.48235,http://data.europa.eu/949/concepts/op-types/rinf/90,90,http://publications.europa.eu/resource/authority/country/HRV,90,border point
http://data.europa.eu/949/functionalInfrastructure/operationalPoints/7dfa5541473292003f10133a6ce459150f002374,http://data.europa.eu/949/functionalInfrastructure/operationalPoints/HR72902,HR72902,Stupno,45.5022,16.332,http://data.europa.eu/949/concepts/op-types/rinf/70,70,http://publications.europa.eu/resource/authority/country/HRV,70,passenger stop
http://data.europa.eu/949/functionalInfrastructure/operationalPoints/7ebee4f1e7e131ad23f7d5149b44c77dbb8a1ef8,http://data.europa.eu/949/functionalInfrastructure/operationalPoints/HR73164,HR73164,Novo Drnje,46.22175,16.90946,http://data.europa.eu/949/concepts/op-types/rinf/10,10,http://publications.europa.eu/resource/authority/country/HRV,10,station
http://data.europa.eu/949/functionalInfrastructure/operationalPoints/7f98443f8bb649af268742ad1ba55411653cc67f,http://data.europa.eu/949/functionalInfrastructure/operationalPoints/HR76113,HR76113,Lovinac,44.3761,15.6638,http://data.europa.eu/949/concepts/op-types/rinf/10,10,http://publications.europa.eu/resource/authority/country/HRV,10,station
http://data.europa.eu/949/functionalInfrastructure/operationalPoints/7fe075c147cc705f819535102c1f97ca8b6dde38,http://data.europa.eu/949/functionalInfrastructure/operationalPoints/HR74502,HR74502,Stubičke Toplice,45.9749,15.9414,http://data.europa.eu/949/concepts/op-types/rinf/70,70,http://publications.europa.eu/resource/authority/country/HRV,70,passenger stop
http://data.europa.eu/949/functionalInfrastructure/operationalPoints/82843da8c9ec5a2c7aa8688564ece4b3a7416427,http://data.europa.eu/949/functionalInfrastructure/operationalPoints/HR73008,HR73008,Kloštar,45.9814,17.1393,http://data.europa.eu/949/concepts/op-types/rinf/10,10,http://publications.europa.eu/resource/authority/country/HRV,10,station
http://data.europa.eu/949/functionalInfrastructure/operationalPoints/82cc795421baded61fe9190738d3196ff6662417,http://data.europa.eu/949/functionalInfrastructure/operationalPoints/HR71701,HR71701,Osijek Dravski Most,45.5588,18.7036,http://data.europa.eu/949/concepts/op-types/rinf/70,70,http://publications.europa.eu/resource/authority/country/HRV,70,passenger stop
http://data.europa.eu/949/functionalInfrastructure/operationalPoints/83cf9a4158fa4cc54c53aa34861c49236cd24587,http://data.europa.eu/949/functionalInfrastructure/operationalPoints/HR72408,HR72408,Sesvetska Sopnica,45.82454,16.08571,http://data.europa.eu/949/concepts/op-types/rinf/70,70,http://publications.europa.eu/resource/authority/country/HRV,70,passenger stop
http://data.europa.eu/949/functionalInfrastructure/operationalPoints/840cdced548e18ccbeb08da61959c60900c2de5d,http://data.europa.eu/949/functionalInfrastructure/operationalPoints/HR75304,HR75304,Zaluka,45.6247,15.4633,http://data.europa.eu/949/concepts/op-types/rinf/70,70,http://publications.europa.eu/resource/authority/country/HRV,70,passenger stop
http://data.europa.eu/949/functionalInfrastructure/operationalPoints/846cd3aecc55321adbc58c9f496bf9ba7a085983,http://data.europa.eu/949/functionalInfrastructure/operationalPoints/HR77421,HR77421,Vodnjan stajalište,44.9607,13.8557,http://data.europa.eu/949/concepts/op-types/rinf/70,70,http://publications.europa.eu/resource/authority/country/HRV,70,passenger stop
