id,name,lat,lon,osm_elements,min_distance_m,within_threshold,osm_type_compatible,error
EL01010,PIREAS,37.9492,23.6428,85,2.8,True,True,
EL01030,AG.IOANNIS,37.962,23.6664,46,7.2,True,True,
EL01050,ROUF,37.9723,23.7024,27,4.9,True,True,
EL01070,ATHINA,37.9926,23.7206,41,28.9,True,True,
EL01090,AGHII ANARGYRI,38.0218,23.7184,20,6.7,True,True,
EL01110,KATO ACHARNE,38.0539,23.7325,9,6.8,True,True,
EL01130,SKA,38.066,23.7368,63,3.9,True,True,
EL01150,ACHARNE,38.0803,23.7439,25,6.6,True,True,
EL01170,DEKELEIA,38.0995,23.7797,9,45.6,True,True,
EL01190,AFIDNAI,38.1877,23.8445,16,37.1,True,True,
EL01210,AVLON,38.25,23.6958,7,59.7,True,True,
EL01230,INOI,38.3222,23.6096,12,8.0,True,True,
EL01250,ELEON,38.3726,23.4712,6,2.6,True,True,
EL01270,YPATON,38.3676,23.3828,6,79.3,True,True,
EL01290,THIVE,38.3298,23.3187,21,29.9,True,True,
EL01310,ALIARTOS,38.3793,23.1117,7,8.5,True,True,
EL01330,LEVADIA,38.4709,22.9269,10,14.7,True,True,
EL01350,DAVLIA,38.5343,22.8122,5,126.1,False,True,
EL01370,TITHOREA,38.6081,22.718,10,17.3,True,True,
EL01390,MOLOS,38.8122,22.6574,11,7.2,True,True,
EL01410,LIANOKLADION,38.8906,22.3732,36,10.5,True,True,
EL01490,DOMOKOS,39.18,22.2865,23,1.0,True,True,
EL01510,PALEOPHARSALOS,39.3129,22.2436,22,42.6,True,True,
EL01530,DOXARAS,39.4646,22.2822,2,1879.0,False,True,
EL01550,KRANON,39.5117,22.3347,9,40.1,True,True,
EL01570,MEZOURLO,39.6185,22.4075,14,13.8,True,True,
EL01590,LARISSA,39.6429,22.4228,0,,False,,
EL01610,EVANGELISMOS,39.8252,22.5155,-1,,,,504 Server Error: Gateway Timeout for url: https://overpass-api.de/api/interpreter
EL01630,NEOI POROI,39.976,22.6384,14,4.3,True,True,
EL01650,LEPTOKARIA,40.0586,22.5656,9,3.7,True,True,
EL01670,LITOCHORON,40.1249,22.5502,14,4.5,True,True,
EL01690,KATERINI,40.2694,22.5317,14,11.4,True,True,
EL01710,AEGHINION,40.4979,22.5525,12,2.9,True,True,
EL01730,PLATY,40.6365,22.5295,30,5.3,True,True,
EL01750,ADENDRON,40.6744,22.6027,17,1.8,True,True,
EL01770,AXIOS,40.6942,22.6982,14,10.8,True,True,
EL01790,SINDOS,40.6742,22.8055,14,5.1,True,True,
EL01810,TX1,40.6745,22.8752,48,8.3,True,True,
EL03030,METAMORFOSI,38.0602,23.7555,10,18.8,True,True,
EL03050,IRAKLIO,38.0572,23.771,8,32.0,True,True,
EL03070,NERATZIOTISA,38.0451,23.793,26,2.9,True,True,
EL03090,KIFISSIAS,38.0421,23.8037,8,14.0,True,True,
EL03110,PENTELIS,38.0331,23.8224,13,29.3,True,True,
EL03130,DOUK.PLAKENTIAS,38.0246,23.834,21,13.3,True,True,
EL03150,PALLINI,38.0053,23.8699,12,24.4,True,True,
EL03170,PAEANIA-KANTZA,37.9838,23.8698,14,20.3,True,True,
EL03190,KOROPI,37.913,23.8958,18,1.6,True,True,
EL03210,ATHENS AIRPORT,37.9366,23.9443,16,47.7,True,True,
EL03230,MIDEN,38.0647,23.7408,14,9.9,True,True,
EL04050,SWITCH 635A,38.0688,23.723,9,19.1,True,True,
EL05030,ANO LIOSIA N.,38.0707,23.7099,17,6.0,True,True,
EL05050,IKONIO (SWITCH),38.0738,23.6704,8,49.9,True,True,
EL05070,THRIASIO (SWITCH),38.0759,23.619,10,62.3,True,True,
EL05090,ASPROPYRGOS N.,38.0811,23.604,53,23.3,True,True,
EL05110,MAGOULA N.,38.0736,23.5294,15,4.8,True,True,
EL05130,NEA PERAMOS N.,38.0134,23.4145,7,2.1,True,True,
EL05150,MEGARA N.,37.991,23.3611,11,5.9,True,True,
EL05170,KINETA N.,37.9654,23.2009,12,12.9,True,True,
EL05190,AG. THEODOROI N.,37.9332,23.1369,11,0.4,True,True,
EL05210,KORINTHOS N.,37.921,22.9324,18,3.6,True,True,
EL05230,ZEVGOLATIO KOR.,37.9259,22.8056,7,2.7,True,True,
EL05250,KIATO N.,38.0139,22.7348,11,9.4,True,True,
EL05410,ZEFIRI,38.0698,23.717,10,4.4,True,True,
EL06030,PIREAS-TX1 (PEAK),38.0723,23.7364,6,41.4,True,True,
EL07010,IKONIO,37.9593,23.5854,13,22.2,True,True,
EL08030,AVLIS,38.4043,23.6033,7,14.4,True,True,
EL08050,CHALKIS,38.4626,23.5863,19,10.6,True,True,
EL09030,AMFIKLIA,38.6585,22.5947,7,8.3,True,True,
EL09050,LILEA,38.67,22.5444,6,15.1,True,True,
EL09070,BRALOS,38.7021,22.4578,6,2.3,True,True,
EL09090,ELEFTHEROCHORI,38.7531,22.4234,2,65.0,True,True,
EL09110,ASOPOS,38.7772,22.4218,2,39.1,True,True,
EL09150,ARPINI,38.817,22.4049,2,189.6,False,True,
EL10030,LAMIA,38.896,22.4347,13,4.0,True,True,
EL10050,VRISI,38.894,22.4784,2,34.5,True,True,
EL10070,AGHIA MARINA,38.8973,22.5847,4,75.7,True,True,
EL10090,STYLIDA,38.9135,22.6147,8,20.0,True,True,
EL11030,LYGARIA,38.9408,22.3425,12,1.6,True,True,
EL11050,STYRFAKA,38.9657,22.2995,6,48.3,True,True,
EL11070,KARYA,38.9626,22.2528,3,70.8,True,True,
EL11090,KALLIPEFKI,39.0295,22.2297,2,47.0,True,True,
EL11110,AGHIE,39.0907,22.191,10,33.0,True,True,
EL11130,THERME,39.135,22.1628,4,60.7,True,True,
EL11150,XYNIAS,39.143,22.2193,5,119.9,False,True,
EL11170,THAVMAKOS,39.1525,22.2752,2,88.6,True,True,
EL12030,KARDITSA,39.354,21.9147,12,8.6,True,True,
EL12050,TRIKALA,39.5453,21.7638,13,11.7,True,True,
EL12070,KALAMBAKA,39.7029,21.6252,19,6.2,True,True,
EL13030,CHALKI,39.5917,22.5362,3,48.1,True,True,
EL13050,MELIA,39.5623,22.5922,3,33.5,True,True,
EL13070,KYPSELI,39.5227,22.6536,5,94.0,True,True,
EL13090,ARMENION,39.4854,22.6938,9,5.8,True,True,
EL13110,VELESTINON,39.3899,22.7606,14,65.8,True,True,
EL13130,LATOMION,39.3835,22.8497,3,130.1,False,True,
EL13150,MELISSIATIKA,39.3867,22.9122,2,102.9,False,True,
EL13170,VOLOS,39.3643,22.9369,26,7.0,True,True,
EL16030,ALEXANDRIA,40.6205,22.4429,22,13.2,True,True,
EL16050,XEHASMENI,40.5629,22.3377,22,13.3,True,True,
EL16070,VERIA,40.5394,22.2136,-1,,,,504 Server Error: Gateway Timeout for url: https://overpass-api.de/api/interpreter
EL16090,NAOUSSA,40.6215,22.1342,29,1.5,True,True,
EL16110,EPISKOPI,40.6863,22.141,2,14.5,True,True,
EL16130,SKIDRA,40.7682,22.1576,55,2.1,True,True,
EL16150,EDESSA,40.809,22.0516,25,12.0,True,True,
EL16170,AGRAS,40.8097,21.981,20,2.9,True,True,
EL16190,ARNISSA,40.798,21.835,12,9.4,True,True,
EL16210,VEGORITIS,40.7727,21.7693,1,1020.5,False,True,
EL16230,AMINDEON,40.6909,21.6856,17,1.9,True,True,
EL16250,XYNON NERO,40.6914,21.6339,6,1.3,True,True,
EL16270,VEVI,40.7736,21.5677,2,244.4,False,True,
EL16290,MESSONISSION (SWITCH),40.7918,21.4745,8,6.2,True,True,
EL16310,FLORINA,40.7813,21.4152,10,3.2,True,True,
EL17030,LAKKIA,40.6371,21.6896,4,43.2,True,True,
EL17050,FILOTAS,40.6077,21.6932,3,144.4,False,True,
EL17070,PTOLEMAIS,40.5148,21.6944,5,42.6,True,True,
EL17090,AZOTO,40.4863,21.7305,7,34.5,True,True,
EL18030,NEOS KAFKASOS,40.8946,21.4715,6,28.8,True,True,
EL18050,MESSONISSION,40.7975,21.4732,16,27.0,True,True,
EL20030,ANGHIALOS MAKEDONIAS,40.6975,22.7979,24,4.2,True,True,
EL20050,GHEFYRA,40.7273,22.6926,16,10.9,True,True,
EL20070,KASTANAS,40.8275,22.6572,10,6.6,True,True,
EL20090,ASPROS,40.8905,22.6554,14,3.8,True,True,
EL20110,POLYKASTRON,40.9672,22.6152,6,13.8,True,True,
EL20130,IDOMENI,41.1205,22.5185,35,10.8,True,True,
EL21030,PEONIA,41.0426,22.5523,7,15.0,True,True,
EL21050,POLYKASTRON P.,40.9875,22.5821,22,6.5,True,True,
EL22030,THESSALONIKI TRIAGE,40.67,22.8837,58,18.1,True,True,
EL22050,TX4,40.6542,22.9123,139,15.3,True,True,
EL22070,THESSALONIKI GARE CENTRALE,40.645,22.9289,51,26.3,True,True,
EL24050,THESSALONIKI,40.6414,22.9246,64,6.1,True,True,
EL25030,LACHANOKIPI,40.7059,22.8374,49,9.2,True,True,
EL25050,N. FILADELFIA,40.7964,22.8487,21,6.4,True,True,
EL25070,GALLIKOS,40.8602,22.8862,24,10.5,True,True,
EL25090,KILKIS,40.9588,22.857,28,3.8,True,True,
EL25110,METALLIKON,41.0251,22.8035,20,1.2,True,True,
EL25130,KALINDIA,41.11,22.7829,24,6.2,True,True,
EL25150,DOIRANI,41.1727,22.7723,10,12.1,True,True,
EL25170,MOURIES,41.2614,22.8402,25,2.4,True,True,
EL25190,KASTANOUSA,41.276,22.8962,15,2.5,True,True,
EL25210,RODOPOLIS,41.2589,22.9998,24,16.5,True,True,
EL25230,MANDRAKION,41.2607,23.1393,24,0.6,True,True,
EL25250,VYRONIA,41.2621,23.2536,15,22.6,True,True,
EL25270,STRYMON,41.2621,23.3454,37,1.9,True,True,
EL25290,SIDIROKASTRON,41.2291,23.3757,17,5.8,True,True,
EL25310,SKOTOUSA,41.1295,23.3763,16,1.6,True,True,
EL25330,SERRE,41.0738,23.5365,39,1.6,True,True,
EL25350,CHRYSON,41.0293,23.6506,4,124.7,False,True,
EL25370,GHAZOROS,41.0167,23.7659,13,7.3,True,True,
EL25390,DIMITRA,40.9719,23.8772,13,7.6,True,True,
EL25410,LEFKOTHEA,41.0128,23.9333,19,57.1,True,True,
EL25430,FOTOLIVOS,41.0598,24.049,24,1.8,True,True,
EL25450,DRAMA,41.1403,24.147,62,12.4,True,True,
EL25470,NIKIFOROS,41.1673,24.3097,5,11.9,True,True,
EL25490,PLATANIA,41.2042,24.4217,6,16.2,True,True,
EL25510,PARANESTION,41.2656,24.5017,6,21.0,True,True,
EL25530,NEOCHORION,41.2208,24.6332,4,17.6,True,True,
EL25550,STAVROUPOLIS,41.1939,24.7031,5,19.0,True,True,
EL25570,LIVERA,41.1238,24.6916,3,38.6,True,True,
EL25590,TOXOTE,41.0855,24.781,8,27.5,True,True,
EL25610,XANTHI,41.1239,24.8929,10,1.1,True,True,
EL25630,POLYSITON,41.1116,25.0207,1,936.7,False,True,
EL25650,IASMOS,41.1256,25.1862,12,27.8,True,True,
EL25670,POLYANTHOS,41.1258,25.2277,4,15.9,True,True,
EL25690,KOMOTINI,41.11,25.3999,0,,False,,
EL25710,VENNA,41.0226,25.505,9,19.8,True,True,
EL25730,MESTI,40.9674,25.6413,7,56.0,True,True,
EL25750,KIRKI,40.9755,25.7979,5,14.3,True,True,
EL25770,POTAMOS,40.9137,25.8939,6,14.5,True,True,
EL25790,ALEXANDROUPOLIS,40.848,25.8918,-1,,,,504 Server Error: Gateway Timeout for url: https://overpass-api.de/api/interpreter
EL26030,PROMACHON,41.3703,23.3613,11,8.7,True,True,
EL27010,ALEXANDROUPOLIS LIMIN,40.8451,25.8787,18,9.5,True,True,
EL27050,FERRE,40.8912,26.1852,8,14.7,True,True,
EL27070,PEPLOS,40.9595,26.277,5,18.7,True,True,
EL27090,TYCHERON,41.0349,26.2933,8,2.7,True,True,
EL27110,LAGINA,41.0861,26.3014,6,32.7,True,True,
EL27130,SOUFLION,41.1877,26.3015,8,18.6,True,True,
EL27150,LAVARA,41.267,26.3841,3,597.0,False,True,
EL27170,DIDIMOTICHON,41.3519,26.5113,8,21.0,True,True,
EL27190,PYTHION,41.3697,26.6218,27,0.8,True,True,
EL27210,CHIMONION,41.45,26.5556,8,4.8,True,True,
EL27230,N ORESTIAS,41.503,26.5373,14,2.6,True,True,
EL27250,NEA VYSSA,41.578,26.5346,13,45.6,True,True,
EL27270,DIKEA,41.7062,26.2977,13,26.4,True,True,
EL27290,ORMENION,41.7283,26.2122,13,5.8,True,True,
EU00186,PYTHION-UZUNKOPRU,41.3621,26.6315,4,12.0,True,True,
EU00187,SVILENGRAD-DIKEA,41.7477,26.1667,3,10.3,True,True,
EU00188,KULATA-PROMACHON,41.3795,23.3643,5,10.6,True,True,
EU00189,IDOMENI-GEVGELIJA,41.1283,22.5172,7,86.2,True,True,
EU00190,NEOS KAFKASOS-KREMENITSA,40.9073,21.4645,2,643.7,False,True,
