uri,uri_canonical,id,name,lat,lon,op_type,op_type_label,country,op_type_code,op_type_name
http://data.europa.eu/949/functionalInfrastructure/operationalPoints/01f4f183357aac3abfe1a081a0702f935fbf6259,http://data.europa.eu/949/functionalInfrastructure/operationalPoints/EL25430,EL25430,FOTOLIVOS,41.0598,24.049,http://data.europa.eu/949/concepts/op-types/rinf/20,20,http://publications.europa.eu/resource/authority/country/GRC,20,small station
http://data.europa.eu/949/functionalInfrastructure/operationalPoints/030dd0aa08c588218bbb9dee878b68f91593fda7,http://data.europa.eu/949/functionalInfrastructure/operationalPoints/EL25410,EL25410,LEFKOTHEA,41.0128,23.9333,http://data.europa.eu/949/concepts/op-types/rinf/20,20,http://publications.europa.eu/resource/authority/country/GRC,20,small station
http://data.europa.eu/949/functionalInfrastructure/operationalPoints/03de93a83b2860759f4a66d6c09ac24ce9eb3200,http://data.europa.eu/949/functionalInfrastructure/operationalPoints/EL01330,EL01330,LEVADIA,38.4709,22.9269,http://data.europa.eu/949/concepts/op-types/rinf/10,10,http://publications.europa.eu/resource/authority/country/GRC,10,station
http://data.europa.eu/949/functionalInfrastructure/operationalPoints/0b7f482e9a7835167482d2232a22bdfdaf2e01d0,http://data.europa.eu/949/functionalInfrastructure/operationalPoints/EL27190,EL27190,PYTHION,41.3697,26.6218,http://data.europa.eu/949/concepts/op-types/rinf/10,10,http://publications.europa.eu/resource/authority/country/GRC,10,station
http://data.europa.eu/949/functionalInfrastructure/operationalPoints/10e4010b863d097ab304e75e2eaf00206fe81246,http://data.europa.eu/949/functionalInfrastructure/operationalPoints/EL25090,EL25090,KILKIS,40.9588,22.857,http://data.europa.eu/949/concepts/op-types/rinf/10,10,http://publications.europa.eu/resource/authority/country/GRC,10,station
http://data.europa.eu/949/functionalInfrastructure/operationalPoints/1164500ea79da295195d80ba51620d87426261d5,http://data.europa.eu/949/functionalInfrastructure/operationalPoints/EL08050,EL08050,CHALKIS,38.4626,23.5863,http://data.europa.eu/949/concepts/op-types/rinf/30,30,http://publications.europa.eu/resource/authority/country/GRC,30,passenger terminal
http://data.europa.eu/949/functionalInfrastructure/operationalPoints/119881c365cc789e6a9d76255341406188c6109d,http://data.europa.eu/949/functionalInfrastructure/operationalPoints/EL20030,EL20030,ANGHIALOS MAKEDONIAS,40.6975,22.7979,http://data.europa.eu/949/concepts/op-types/rinf/10,10,http://publications.europa.eu/resource/authority/country/GRC,10,station
http://data.europa.eu/949/functionalInfrastructure/operationalPoints/13c89accedb09a437b90285d8589b7720bdb6bd0,http://data.europa.eu/949/functionalInfrastructure/operationalPoints/EL16170,EL16170,AGRAS,40.8097,21.981,http://data.europa.eu/949/concepts/op-types/rinf/20,20,http://publications.europa.eu/resource/authority/country/GRC,20,small station
http://data.europa.eu/949/functionalInfrastructure/operationalPoints/1531377a07f89711d15343aefa35ae58b02007b0,http://data.europa.eu/949/functionalInfrastructure/operationalPoints/EL16030,EL16030,ALEXANDRIA,40.6205,22.4429,http://data.europa.eu/949/concepts/op-types/rinf/10,10,http://publications.europa.eu/resource/authority/country/GRC,10,station
http://data.europa.eu/949/functionalInfrastructure/operationalPoints/1611ecfbd743b0c39c5c72521e83202d0a184cf8,http://data.europa.eu/949/functionalInfrastructure/operationalPoints/EL16130,EL16130,SKIDRA,40.7682,22.1576,http://data.europa.eu/949/concepts/op-types/rinf/10,10,http://publications.europa.eu/resource/authority/country/GRC,10,station
http://data.europa.eu/949/functionalInfrastructure/operationalPoints/16bb47a2d93d8200b2829815ee844865c8fda7ce,http://data.europa.eu/949/functionalInfrastructure/operationalPoints/EL25330,EL25330,SERRE,41.0738,23.5365,http://data.europa.eu/949/concepts/op-types/rinf/10,10,http://publications.europa.eu/resource/authority/country/GRC,10,station
http://data.europa.eu/949/functionalInfrastructure/operationalPoints/19cf49ac3e2ffb560bce22c30d4d8581f513edfd,http://data.europa.eu/949/functionalInfrastructure/operationalPoints/EL25450,EL25450,DRAMA,41.1403,24.147,http://data.europa.eu/949/concepts/op-types/rinf/10,10,http://publications.europa.eu/resource/authority/country/GRC,10,station
http://data.europa.eu/949/functionalInfrastructure/operationalPoints/1a50feb353f777f39db1787321fae1f775071ace,http://data.europa.eu/949/functionalInfrastructure/operationalPoints/EL16250,EL16250,XYNON NERO,40.6914,21.6339,http://data.europa.eu/949/concepts/op-types/rinf/10,10,http://publications.europa.eu/resource/authority/country/GRC,10,station
http://data.europa.eu/949/functionalInfrastructure/operationalPoints/1ba4fd6808ac6f2dece1a8142f2e479e1365dbd5,http://data.europa.eu/949/functionalInfrastructure/operationalPoints/EL27110,EL27110,LAGINA,41.0861,26.3014,http://data.europa.eu/949/concepts/op-types/rinf/20,20,http://publications.europa.eu/resource/authority/country/GRC,20,small station
http://data.europa.eu/949/functionalInfrastructure/operationalPoints/1baf80253db04ddc8890b1f0a4b603fb359dd39a,http://data.europa.eu/949/functionalInfrastructure/operationalPoints/EL26030,EL26030,PROMACHON,41.3703,23.3613,http://data.europa.eu/949/concepts/op-types/rinf/20,20,http://publications.europa.eu/resource/authority/country/GRC,20,small station
http://data.europa.eu/949/functionalInfrastructure/operationalPoints/1d005ed2741dbdf189dd97905d9dfc0555d6f829,http://data.europa.eu/949/functionalInfrastructure/operationalPoints/EL25530,EL25530,NEOCHORION,41.2208,24.6332,http://data.europa.eu/949/concepts/op-types/rinf/20,20,http://publications.europa.eu/resource/authority/country/GRC,20,small station
http://data.europa.eu/949/functionalInfrastructure/operationalPoints/1d2446aebe2755c0037ce43556ce92b81ab34871,http://data.europa.eu/949/functionalInfrastructure/operationalPoints/EL27230,EL27230,N ORESTIAS,41.503,26.5373,http://data.europa.eu/949/concepts/op-types/rinf/10,10,http://publications.europa.eu/resource/authority/country/GRC,10,station
http://data.europa.eu/949/functionalInfrastructure/operationalPoints/22709f2701714f65e4876691c1febbe287707f47,http://data.europa.eu/949/functionalInfrastructure/operationalPoints/EL12030,EL12030,KARDITSA,39.354,21.9147,http://data.europa.eu/949/concepts/op-types/rinf/10,10,http://publications.europa.eu/resource/authority/country/GRC,10,station
http://data.europa.eu/949/functionalInfrastructure/operationalPoints/230c6930a4c0493664b934f2250526b317b26f98,http://data.europa.eu/949/functionalInfrastructure/operationalPoints/EL25030,EL25030,LACHANOKIPI,40.7059,22.8374,http://data.europa.eu/949/concepts/op-types/rinf/10,10,http://publications.europa.eu/resource/authority/country/GRC,10,station
http://data.europa.eu/949/functionalInfrastructure/operationalPoints/241ab63571c7fe0227bb412f252f94834202e1e0,http://data.europa.eu/949/functionalInfrastructure/operationalPoints/EL21050,EL21050,POLYKASTRON P.,40.9875,22.5821,http://data.europa.eu/949/concepts/op-types/rinf/10,10,http://publications.europa.eu/resource/authority/country/GRC,10,station
http://data.europa.eu/949/functionalInfrastructure/operationalPoints/25cbc63acdfc47f9c56c56bee6d0ac9fa7764a1a,http://data.europa.eu/949/functionalInfrastructure/operationalPoints/EL01190,EL01190,AFIDNAI,38.1877,23.8445,http://data.europa.eu/949/concepts/op-types/rinf/10,10,http://publications.europa.eu/resource/authority/country/GRC,10,station
http://data.europa.eu/949/functionalInfrastructure/operationalPoints/29abecd733a603eef63d9aa3554ad7c8bed48e59,http://data.europa.eu/949/functionalInfrastructure/operationalPoints/EL16150,EL16150,EDESSA,40.809,22.0516,http://data.europa.eu/949/concepts/op-types/rinf/10,10,http://publications.europa.eu/resource/authority/country/GRC,10,station
http://data.europa.eu/949/functionalInfrastructure/operationalPoints/2decbb321443756be482f59d63320401264cdbd1,http://data.europa.eu/949/functionalInfrastructure/operationalPoints/EL16070,EL16070,VERIA,40.5394,22.2136,http://data.europa.eu/949/concepts/op-types/rinf/10,10,http://publications.europa.eu/resource/authority/country/GRC,10,station
http://data.europa.eu/949/functionalInfrastructure/operationalPoints/2f825666ec663e8348c313fe435be76e825659ca,http://data.europa.eu/949/functionalInfrastructure/operationalPoints/EL09050,EL09050,LILEA,38.67,22.5444,http://data.europa.eu/949/concepts/op-types/rinf/20,20,http://publications.europa.eu/resource/authority/country/GRC,20,small station
http://data.europa.eu/949/functionalInfrastructure/operationalPoints/308b2254bb119bb2a46131f94a2b34c80058bb62,http://data.europa.eu/949/functionalInfrastructure/operationalPoints/EL13090,EL13090,ARMENION,39.4854,22.6938,http://data.europa.eu/949/concepts/op-types/rinf/20,20,http://publications.europa.eu/resource/authority/country/GRC,20,small station
http://data.europa.eu/949/functionalInfrastructure/operationalPoints/309daed766187acfc785a60603e44cc0468a5942,http://data.europa.eu/949/functionalInfrastructure/operationalPoints/EL11090,EL11090,KALLIPEFKI,39.0295,22.2297,http://data.europa.eu/949/concepts/op-types/rinf/20,20,http://publications.europa.eu/resource/authority/country/GRC,20,small station
http://data.europa.eu/949/functionalInfrastructure/operationalPoints/37fe7ce15ca6974330f27b4f473dd24b0762b9f0,http://data.europa.eu/949/functionalInfrastructure/operationalPoints/EL01570,EL01570,MEZOURLO,39.6185,22.4075,http://data.europa.eu/949/concepts/op-types/rinf/10,10,http://publications.europa.eu/resource/authority/country/GRC,10,station
http://data.europa.eu/949/functionalInfrastructure/operationalPoints/38404338ebbeb0a4899df97d05541a040d090cbe,http://data.europa.eu/949/functionalInfrastructure/operationalPoints/EL25790,EL25790,ALEXANDROUPOLIS,40.848,25.8918,http://data.europa.eu/949/concepts/op-types/rinf/10,10,http://publications.europa.eu/resource/authority/country/GRC,10,station
http://data.europa.eu/949/functionalInfrastructure/operationalPoints/3bce5018f4564eb3441663cec7d1668836e3ceae,http://data.europa.eu/949/functionalInfrastructure/operationalPoints/EL01350,EL01350,DAVLIA,38.5343,22.8122,http://data.europa.eu/949/concepts/op-types/rinf/10,10,http://publications.europa.eu/resource/authority/country/GRC,10,station
http://data.europa.eu/949/functionalInfrastructure/operationalPoints/3c20915ac5d6ec9c6e417f6fd38a087c4159ee79,http://data.europa.eu/949/functionalInfrastructure/operationalPoints/EL25350,EL25350,CHRYSON,41.0293,23.6506,http://data.europa.eu/949/concepts/op-types/rinf/20,20,http://publications.europa.eu/resource/authority/country/GRC,20,small station
http://data.europa.eu/949/functionalInfrastructure/operationalPoints/3f1ec9bc9ea7b14bff865c33d521ee2e40179a8c,http://data.europa.eu/949/functionalInfrastructure/operationalPoints/EL12070,EL12070,KALAMBAKA,39.7029,21.6252,http://data.europa.eu/949/concepts/op-types/rinf/10,10,http://publications.europa.eu/resource/authority/country/GRC,10,station
http://data.europa.eu/949/functionalInfrastructure/operationalPoints/41e150865f539adc9b38c7f92ab6d03b4aa9c18d,http://data.europa.eu/949/functionalInfrastructure/operationalPoints/EL25770,EL25770,POTAMOS,40.9137,25.8939,http://data.europa.eu/949/concepts/op-types/rinf/20,20,http://publications.europa.eu/resource/authority/country/GRC,20,small station
http://data.europa.eu/949/functionalInfrastructure/operationalPoints/42105ee92025f5441a93d3947bee737592bd8b72,http://data.europa.eu/949/functionalInfrastructure/operationalPoints/EL01490,EL01490,DOMOKOS,39.18,22.2865,http://data.europa.eu/949/concepts/op-types/rinf/10,10,http://publications.europa.eu/resource/authority/country/GRC,10,station
http://data.europa.eu/949/functionalInfrastructure/operationalPoints/49666d994e5a34111941d2df8eeb12e4dfdc0153,http://data.europa.eu/949/functionalInfrastructure/operationalPoints/EL16310,EL16310,FLORINA,40.7813,21.4152,http://data.europa.eu/949/concepts/op-types/rinf/10,10,http://publications.europa.eu/resource/authority/country/GRC,10,station
http://data.europa.eu/949/functionalInfrastructure/operationalPoints/4b00df7d1f3ca808fcff65551d195aa852a83481,http://data.europa.eu/949/functionalInfrastructure/operationalPoints/EL25250,EL25250,VYRONIA,41.2621,23.2536,http://data.europa.eu/949/concepts/op-types/rinf/20,20,http://publications.europa.eu/resource/authority/country/GRC,20,small station
http://data.europa.eu/949/functionalInfrastructure/operationalPoints/4bbc2ea82f0c4612fec5a40cc3d78e35e6bbca35,http://data.europa.eu/949/functionalInfrastructure/operationalPoints/EL05150,EL05150,MEGARA N.,37.991,23.3611,http://data.europa.eu/949/concepts/op-types/rinf/70,70,http://publications.europa.eu/resource/authority/country/GRC,70,passenger stop
http://data.europa.eu/949/functionalInfrastructure/operationalPoints/536dd493a6254f4101b3da6df3d73987e9739811,http://data.europa.eu/949/functionalInfrastructure/operationalPoints/EL10030,EL10030,LAMIA,38.896,22.4347,http://data.europa.eu/949/concepts/op-types/rinf/20,20,http://publications.europa.eu/resource/authority/country/GRC,20,small station
http://data.europa.eu/949/functionalInfrastructure/operationalPoints/55b30182af0102069efc186f3319519589ec979b,http://data.europa.eu/949/functionalInfrastructure/operationalPoints/EL25730,EL25730,MESTI,40.9674,25.6413,http://data.europa.eu/949/concepts/op-types/rinf/20,20,http://publications.europa.eu/resource/authority/country/GRC,20,small station
http://data.europa.eu/949/functionalInfrastructure/operationalPoints/5b1775b8cc9d7451d470ca9cabd5a231d8ed35e5,http://data.europa.eu/949/functionalInfrastructure/operationalPoints/EL01370,EL01370,TITHOREA,38.6081,22.718,http://data.europa.eu/949/concepts/op-types/rinf/10,10,http://publications.europa.eu/resource/authority/country/GRC,10,station
http://data.europa.eu/949/functionalInfrastructure/operationalPoints/5b516b4a60d0675131442dc3b4d7ca28b2c83c26,http://data.europa.eu/949/functionalInfrastructure/operationalPoints/EL27270,EL27270,DIKEA,41.7062,26.2977,http://data.europa.eu/949/concepts/op-types/rinf/20,20,http://publications.europa.eu/resource/authority/country/GRC,20,small station
http://data.europa.eu/949/functionalInfrastructure/operationalPoints/5c8a2d6c9416dd08e43eb08fe055e0694a56e589,http://data.europa.eu/949/functionalInfrastructure/operationalPoints/EL25630,EL25630,POLYSITON,41.1116,25.0207,http://data.europa.eu/949/concepts/op-types/rinf/20,20,http://publications.europa.eu/resource/authority/country/GRC,20,small station
http://data.europa.eu/949/functionalInfrastructure/operationalPoints/5dc716e71bf7d6c96b3311231e2f8848639cbae2,http://data.europa.eu/949/functionalInfrastructure/operationalPoints/EL20050,EL20050,GHEFYRA,40.7273,22.6926,http://data.europa.eu/949/concepts/op-types/rinf/10,10,http://publications.europa.eu/resource/authority/country/GRC,10,station
http://data.europa.eu/949/functionalInfrastructure/operationalPoints/663a2cdec8c0daf8c4faa52cc5ccbca34b96c3bd,http://data.europa.eu/949/functionalInfrastructure/operationalPoints/EL25050,EL25050,N. FILADELFIA,40.7964,22.8487,http://data.europa.eu/949/concepts/op-types/rinf/10,10,http://publications.europa.eu/resource/authority/country/GRC,10,station
http://data.europa.eu/949/functionalInfrastructure/operationalPoints/6a8d056db75f30afd2385e3599ff2c36ec639b5a,http://data.europa.eu/949/functionalInfrastructure/operationalPoints/EL16230,EL16230,AMINDEON,40.6909,21.6856,http://data.europa.eu/949/concepts/op-types/rinf/10,10,http://publications.europa.eu/resource/authority/country/GRC,10,station
http://data.europa.eu/949/functionalInfrastructure/operationalPoints/6efe21687c8738ff2fddd23bf53c381c8a23ef05,http://data.europa.eu/949/functionalInfrastructure/operationalPoints/EL25670,EL25670,POLYANTHOS,41.1258,25.2277,http://data.europa.eu/949/concepts/op-types/rinf/20,20,http://publications.europa.eu/resource/authority/country/GRC,20,small station
http://data.europa.eu/949/functionalInfrastructure/operationalPoints/6f5eb1ff7d2a187a2cea5b71d92cecdc2d4ab436,http://data.europa.eu/949/functionalInfrastructure/operationalPoints/EL11050,EL11050,STYRFAKA,38.9657,22.2995,http://data.europa.eu/949/concepts/op-types/rinf/20,20,http://publications.europa.eu/resource/authority/country/GRC,20,small station
http://data.europa.eu/949/functionalInfrastructure/operationalPoints/6fd5b30c6c8de926fa679e86c5075fceb36b126b,http://data.europa.eu/949/functionalInfrastructure/operationalPoints/EL25390,EL25390,DIMITRA,40.9719,23.8772,http://data.europa.eu/949/concepts/op-types/rinf/20,20,http://publications.europa.eu/resource/authority/country/GRC,20,small station
http://data.europa.eu/949/functionalInfrastructure/operationalPoints/7082fe21878b8397444564c9a500282b735bd081,http://data.europa.eu/949/functionalInfrastructure/operationalPoints/EL09030,EL09030,AMFIKLIA,38.6585,22.5947,http://data.europa.eu/949/concepts/op-types/rinf/10,10,http://publications.europa.eu/resource/authority/country/GRC,10,station
http://data.europa.eu/949/functionalInfrastructure/operationalPoints/70f65e4c53031b92ddb505f191528e147a1ccd16,http://data.europa.eu/949/functionalInfrastructure/operationalPoints/EL18050,EL18050,MESSONISSION,40.7975,21.4732,http://data.europa.eu/949/concepts/op-types/rinf/10,10,http://publications.europa.eu/resource/authority/country/GRC,10,station
http://data.europa.eu/949/functionalInfrastructure/operationalPoints/712903fdb74bb48ae8f166c3f4256b67d8f611e9,http://data.europa.eu/949/functionalInfrastructure/operationalPoints/EL10050,EL10050,VRISI,38.894,22.4784,http://data.europa.eu/949/concepts/op-types/rinf/20,20,http://publications.europa.eu/resource/authority/country/GRC,20,small station
http://data.europa.eu/949/functionalInfrastructure/operationalPoints/74130fc375e53930e96b7d4a62e8c5e9d5232699,http://data.europa.eu/949/functionalInfrastructure/operationalPoints/EL25130,EL25130,KALINDIA,41.11,22.7829,http://data.europa.eu/949/concepts/op-types/rinf/20,20,http://publications.europa.eu/resource/authority/country/GRC,20,small station
http://data.europa.eu/949/functionalInfrastructure/operationalPoints/74ac8da1fb6386d555c59ee4d8a138e88f9c3990,http://data.europa.eu/949/functionalInfrastructure/operationalPoints/EL25270,EL25270,STRYMON,41.2621,23.3454,http://data.europa.eu/949/concepts/op-types/rinf/10,10,http://publications.europa.eu/resource/authority/country/GRC,10,station
http://data.europa.eu/949/functionalInfrastructure/operationalPoints/75f8e6cfe5079f790162c9152c64bd5c0380363a,http://data.europa.eu/949/functionalInfrastructure/operationalPoints/EL01690,EL01690,KATERINI,40.2694,22.5317,http://data.europa.eu/949/concepts/op-types/rinf/10,10,http://publications.europa.eu/resource/authority/country/GRC,10,station
http://data.europa.eu/949/functionalInfrastructure/operationalPoints/76e718197ddc7836b902f92a8779311d91912c6d,http://data.europa.eu/949/functionalInfrastructure/operationalPoints/EL16270,EL16270,VEVI,40.7736,21.5677,http://data.europa.eu/949/concepts/op-types/rinf/10,10,http://publications.europa.eu/resource/authority/country/GRC,10,station
http://data.europa.eu/949/functionalInfrastructure/operationalPoints/7ac2b145dffec08a1ab93d4f0c31b84e6d66a7cc,http://data.europa.eu/949/functionalInfrastructure/operationalPoints/EL24050,EL24050,THESSALONIKI,40.6414,22.9246,http://data.europa.eu/949/concepts/op-types/rinf/40,40,http://publications.europa.eu/resource/authority/country/GRC,40,freight terminal
http://data.europa.eu/949/functionalInfrastructure/operationalPoints/7be6c1bdb2a669bacdacf4cd6c37cd0585bae1bc,http://data.europa.eu/949/functionalInfrastructure/operationalPoints/EL25690,EL25690,KOMOTINI,41.11,25.3999,http://data.europa.eu/949/concepts/op-types/rinf/10,10,http://publications.europa.eu/resource/authority/country/GRC,10,station
http://data.europa.eu/949/functionalInfrastructure/operationalPoints/7cc7b2f39c08352ec9510cf12f525ffd5d90754b,http://data.europa.eu/949/functionalInfrastructure/operationalPoints/EL27170,EL27170,DIDIMOTICHON,41.3519,26.5113,http://data.europa.eu/949/concepts/op-types/rinf/10,10,http://publications.europa.eu/resource/authority/country/GRC,10,station
http://data.europa.eu/949/functionalInfrastructure/operationalPoints/81c09005dcbe24fae73479182429ff923963f61c,http://data.europa.eu/949/functionalInfrastructure/operationalPoints/EL01030,EL01030,AG.IOANNIS,37.962,23.6664,http://data.europa.eu/949/concepts/op-types/rinf/10,10,http://publications.europa.eu/resource/authority/country/GRC,10,station
http://data.europa.eu/949/functionalInfrastructure/operationalPoints/82d07e8e19902909c1de705a820047cdcbf23a30,http://data.europa.eu/949/functionalInfrastructure/operationalPoints/EL25070,EL25070,GALLIKOS,40.8602,22.8862,http://data.europa.eu/949/concepts/op-types/rinf/10,10,http://publications.europa.eu/resource/authority/country/GRC,10,station
http://data.europa.eu/949/functionalInfrastructure/operationalPoints/843f617b872d6c8fa6ae9bda6251db30a9714556,http://data.europa.eu/949/functionalInfrastructure/operationalPoints/EL25290,EL25290,SIDIROKASTRON,41.2291,23.3757,http://data.europa.eu/949/concepts/op-types/rinf/20,20,http://publications.europa.eu/resource/authority/country/GRC,20,small station
http://data.europa.eu/949/functionalInfrastructure/operationalPoints/8b7c76d14a62e294988cd2595c494677c8777e9c,http://data.europa.eu/949/functionalInfrastructure/operationalPoints/EL27290,EL27290,ORMENION,41.7283,26.2122,http://data.europa.eu/949/concepts/op-types/rinf/20,20,http://publications.europa.eu/resource/authority/country/GRC,20,small station
http://data.europa.eu/949/functionalInfrastructure/operationalPoints/8c4520502fbb9d240236f42fe3635236cc7f8cb4,http://data.europa.eu/949/functionalInfrastructure/operationalPoints/EL25230,EL25230,MANDRAKION,41.2607,23.1393,http://data.europa.eu/949/concepts/op-types/rinf/20,20,http://publications.europa.eu/resource/authority/country/GRC,20,small station
http://data.europa.eu/949/functionalInfrastructure/operationalPoints/8c9236e9ee0dd78564e1cb7dbf461f67240d009e,http://data.europa.eu/949/functionalInfrastructure/operationalPoints/EL20130,EL20130,IDOMENI,41.1205,22.5185,http://data.europa.eu/949/concepts/op-types/rinf/10,10,http://publications.europa.eu/resource/authority/country/GRC,10,station
http://data.europa.eu/949/functionalInfrastructure/operationalPoints/8d75b55f246eb02e2ee2dc9f0a948eda98ec2f06,http://data.europa.eu/949/functionalInfrastructure/operationalPoints/EL01270,EL01270,YPATON,38.3676,23.3828,http://data.europa.eu/949/concepts/op-types/rinf/20,20,http://publications.europa.eu/resource/authority/country/GRC,20,small station
http://data.europa.eu/949/functionalInfrastructure/operationalPoints/8ec93322968e2086d8c429c962d11075ef03bd69,http://data.europa.eu/949/functionalInfrastructure/operationalPoints/EL01070,EL01070,ATHINA,37.9926,23.7206,http://data.europa.eu/949/concepts/op-types/rinf/10,10,http://publications.europa.eu/resource/authority/country/GRC,10,station
http://data.europa.eu/949/functionalInfrastructure/operationalPoints/8f555fd2e84549741f54eb3019d17ee7d032ed39,http://data.europa.eu/949/functionalInfrastructure/operationalPoints/EL25710,EL25710,VENNA,41.0226,25.505,http://data.europa.eu/949/concepts/op-types/rinf/20,20,http://publications.europa.eu/resource/authority/country/GRC,20,small station
http://data.europa.eu/949/functionalInfrastructure/operationalPoints/934bc35183c6413b1059bc2f25f20c6e16d260a0,http://data.europa.eu/949/functionalInfrastructure/operationalPoints/EL16090,EL16090,NAOUSSA,40.6215,22.1342,http://data.europa.eu/949/concepts/op-types/rinf/10,10,http://publications.europa.eu/resource/authority/country/GRC,10,station
http://data.europa.eu/949/functionalInfrastructure/operationalPoints/9cef78d6bea255eec1e7e34e054c8b1488863fa7,http://data.europa.eu/949/functionalInfrastructure/operationalPoints/EL25170,EL25170,MOURIES,41.2614,22.8402,http://data.europa.eu/949/concepts/op-types/rinf/20,20,http://publications.europa.eu/resource/authority/country/GRC,20,small station
http://data.europa.eu/949/functionalInfrastructure/operationalPoints/9fa24a000bf6ddd6d727bc01dc6e9ff9a154254b,http://data.europa.eu/949/functionalInfrastructure/operationalPoints/EL01750,EL01750,ADENDRON,40.6744,22.6027,http://data.europa.eu/949/concepts/op-types/rinf/10,10,http://publications.europa.eu/resource/authority/country/GRC,10,station
http://data.europa.eu/949/functionalInfrastructure/operationalPoints/a6ff7bb75305e91c49183a602719e76cba671a85,http://data.europa.eu/949/functionalInfrastructure/operationalPoints/EL01230,EL01230,INOI,38.3222,23.6096,http://data.europa.eu/949/concepts/op-types/rinf/10,10,http://publications.europa.eu/resource/authority/country/GRC,10,station
http://data.europa.eu/949/functionalInfrastructure/operationalPoints/af10df144efb4acbcefd0f3b619cbdbf7ab97143,http://data.europa.eu/949/functionalInfrastructure/operationalPoints/EL17090,EL17090,AZOTO,40.4863,21.7305,http://data.europa.eu/949/concepts/op-types/rinf/20,20,http://publications.europa.eu/resource/authority/country/GRC,20,small station
http://data.europa.eu/949/functionalInfrastructure/operationalPoints/af2f33cf8d89162cb8b72b24c3ba4d8efbec55f8,http://data.europa.eu/949/functionalInfrastructure/operationalPoints/EL25470,EL25470,NIKIFOROS,41.1673,24.3097,http://data.europa.eu/949/concepts/op-types/rinf/20,20,http://publications.europa.eu/resource/authority/country/GRC,20,small station
http://data.europa.eu/949/functionalInfrastructure/operationalPoints/af5696cdf3397b286879509b168e7207fbe58021,http://data.europa.eu/949/functionalInfrastructure/operationalPoints/EL13170,EL13170,VOLOS,39.3643,22.9369,http://data.europa.eu/949/concepts/op-types/rinf/10,10,http://publications.europa.eu/resource/authority/country/GRC,10,station
http://data.europa.eu/949/functionalInfrastructure/operationalPoints/b082c5f79147dc0d4f18574d14639e5181828bf8,http://data.europa.eu/949/functionalInfrastructure/operationalPoints/EL17070,EL17070,PTOLEMAIS,40.5148,21.6944,http://data.europa.eu/949/concepts/op-types/rinf/10,10,http://publications.europa.eu/resource/authority/country/GRC,10,station
http://data.europa.eu/949/functionalInfrastructure/operationalPoints/ba0e122407bb3c25daeb30b19c68f785c0939837,http://data.europa.eu/949/functionalInfrastructure/operationalPoints/EL25650,EL25650,IASMOS,41.1256,25.1862,http://data.europa.eu/949/concepts/op-types/rinf/20,20,http://publications.europa.eu/resource/authority/country/GRC,20,small station
http://data.europa.eu/949/functionalInfrastructure/operationalPoints/ba5f37040422b7eae0d87c8777cabf2315fd2885,http://data.europa.eu/949/functionalInfrastructure/operationalPoints/EL01670,EL01670,LITOCHORON,40.1249,22.5502,http://data.europa.eu/949/concepts/op-types/rinf/20,20,http://publications.europa.eu/resource/authority/country/GRC,20,small station
http://data.europa.eu/949/functionalInfrastructure/operationalPoints/bb06a94cfa6bd6396942a01ffb8a374cc633c28a,http://data.europa.eu/949/functionalInfrastructure/operationalPoints/EL01050,EL01050,ROUF,37.9723,23.7024,http://data.europa.eu/949/concepts/op-types/rinf/10,10,http://publications.europa.eu/resource/authority/country/GRC,10,station
http://data.europa.eu/949/functionalInfrastructure/operationalPoints/bf5c13c573a9d8e43d041b84193a8e6ad68af174,http://data.europa.eu/949/functionalInfrastructure/operationalPoints/EL25590,EL25590,TOXOTE,41.0855,24.781,http://data.europa.eu/949/concepts/op-types/rinf/10,10,http://publications.europa.eu/resource/authority/country/GRC,10,station
http://data.europa.eu/949/functionalInfrastructure/operationalPoints/bf79b98b56be125ff350deb099addf818947e59a,http://data.europa.eu/949/functionalInfrastructure/operationalPoints/EL27210,EL27210,CHIMONION,41.45,26.5556,http://data.europa.eu/949/concepts/op-types/rinf/20,20,http://publications.europa.eu/resource/authority/country/GRC,20,small station
http://data.europa.eu/949/functionalInfrastructure/operationalPoints/c2a53f1782271ca172fff8ac4880d9e448ce0cc8,http://data.europa.eu/949/functionalInfrastructure/operationalPoints/EL25550,EL25550,STAVROUPOLIS,41.1939,24.7031,http://data.europa.eu/949/concepts/op-types/rinf/20,20,http://publications.europa.eu/resource/authority/country/GRC,20,small station
http://data.europa.eu/949/functionalInfrastructure/operationalPoints/c3b2b0ce5da57baeb021e268cc6851461b1245b6,http://data.europa.eu/949/functionalInfrastructure/operationalPoints/EL25510,EL25510,PARANESTION,41.2656,24.5017,http://data.europa.eu/949/concepts/op-types/rinf/20,20,http://publications.europa.eu/resource/authority/country/GRC,20,small station
http://data.europa.eu/949/functionalInfrastructure/operationalPoints/c4328fdf3aff3bb8144c94198aa0220e8b08157e,http://data.europa.eu/949/functionalInfrastructure/operationalPoints/EL11150,EL11150,XYNIAS,39.143,22.2193,http://data.europa.eu/949/concepts/op-types/rinf/20,20,http://publications.europa.eu/resource/authority/country/GRC,20,small station
http://data.europa.eu/949/functionalInfrastructure/operationalPoints/cbc5e684a89c9917b07b91ff861bd0d14b87148f,http://data.europa.eu/949/functionalInfrastructure/operationalPoints/EL11070,EL11070,KARYA,38.9626,22.2528,http://data.europa.eu/949/concepts/op-types/rinf/20,20,http://publications.europa.eu/resource/authority/country/GRC,20,small station
http://data.europa.eu/949/functionalInfrastructure/operationalPoints/cbe069dc326b8e2cfb2811e0297cbdd6843e41d4,http://data.europa.eu/949/functionalInfrastructure/operationalPoints/EL01250,EL01250,ELEON,38.3726,23.4712,http://data.europa.eu/949/concepts/op-types/rinf/20,20,http://publications.europa.eu/resource/authority/country/GRC,20,small station
http://data.europa.eu/949/functionalInfrastructure/operationalPoints/ce3a51ed5ce68d25d3717a105f32fe74cc983b72,http://data.europa.eu/949/functionalInfrastructure/operationalPoints/EL25150,EL25150,DOIRANI,41.1727,22.7723,http://data.europa.eu/949/concepts/op-types/rinf/20,20,http://publications.europa.eu/resource/authority/country/GRC,20,small station
http://data.europa.eu/949/functionalInfrastructure/operationalPoints/cede2fef47dfc60dfba90e73dc4cee212e4ce4c9,http://data.europa.eu/949/functionalInfrastructure/operationalPoints/EL25370,EL25370,GHAZOROS,41.0167,23.7659,http://data.europa.eu/949/concepts/op-types/rinf/20,20,http://publications.europa.eu/resource/authority/country/GRC,20,small station
http://data.europa.eu/949/functionalInfrastructure/operationalPoints/cf2b24d18b5e98dc6d2d24dee55ab49cf2946491,http://data.europa.eu/949/functionalInfrastructure/operationalPoints/EL27070,EL27070,PEPLOS,40.9595,26.277,http://data.europa.eu/949/concepts/op-types/rinf/20,20,http://publications.europa.eu/resource/authority/country/GRC,20,small station
http://data.europa.eu/949/functionalInfrastructure/operationalPoints/d1007c8018a7eed91fc07b694e159001578fd60b,http://data.europa.eu/949/functionalInfrastructure/operationalPoints/EL25490,EL25490,PLATANIA,41.2042,24.4217,http://data.europa.eu/949/concepts/op-types/rinf/20,20,http://publications.europa.eu/resource/authority/country/GRC,20,small station
http://data.europa.eu/949/functionalInfrastructure/operationalPoints/d38d3e6cfbaec9c436f2b2ed7e6404077a64961a,http://data.europa.eu/949/functionalInfrastructure/operationalPoints/EL13110,EL13110,VELESTINON,39.3899,22.7606,http://data.europa.eu/949/concepts/op-types/rinf/10,10,http://publications.europa.eu/resource/authority/country/GRC,10,station
http://data.europa.eu/949/functionalInfrastructure/operationalPoints/d5883dd7423ef7aa61bda386f75e937e62f4a758,http://data.europa.eu/949/functionalInfrastructure/operationalPoints/EL01290,EL01290,THIVE,38.3298,23.3187,http://data.europa.eu/949/concepts/op-types/rinf/10,10,http://publications.europa.eu/resource/authority/country/GRC,10,station
http://data.europa.eu/949/functionalInfrastructure/operationalPoints/d713efd2d9f39118bfdea0baaa2eec685fbc8ed2,http://data.europa.eu/949/functionalInfrastructure/operationalPoints/EL25310,EL25310,SKOTOUSA,41.1295,23.3763,http://data.europa.eu/949/concepts/op-types/rinf/20,20,http://publications.europa.eu/resource/authority/country/GRC,20,small station
http://data.europa.eu/949/functionalInfrastructure/operationalPoints/d80f0c7b9100aa150973ff71715cd47c4e782ea3,http://data.europa.eu/949/functionalInfrastructure/operationalPoints/EL27050,EL27050,FERRE,40.8912,26.1852,http://data.europa.eu/949/concepts/op-types/rinf/20,20,http://publications.europa.eu/resource/authority/country/GRC,20,small station
http://data.europa.eu/949/functionalInfrastructure/operationalPoints/df040ab141eff9c563838ad3ed13df9ca6122309,http://data.europa.eu/949/functionalInfrastructure/operationalPoints/EL01410,EL01410,LIANOKLADION,38.8906,22.3732,http://data.europa.eu/949/concepts/op-types/rinf/10,10,http://publications.europa.eu/resource/authority/country/GRC,10,station
http://data.europa.eu/949/functionalInfrastructure/operationalPoints/df2c0452c1ba69d6800d3db553481d4bfa0a3a0c,http://data.europa.eu/949/functionalInfrastructure/operationalPoints/EL01790,EL01790,SINDOS,40.6742,22.8055,http://data.europa.eu/949/concepts/op-types/rinf/10,10,http://publications.europa.eu/resource/authority/country/GRC,10,station
http://data.europa.eu/949/functionalInfrastructure/operationalPoints/e0368aa31add8c221b1402a4060368f8521a9adc,http://data.europa.eu/949/functionalInfrastructure/operationalPoints/EL16050,EL16050,XEHASMENI,40.5629,22.3377,http://data.europa.eu/949/concepts/op-types/rinf/20,20,http://publications.europa.eu/resource/authority/country/GRC,20,small station
http://data.europa.eu/949/functionalInfrastructure/operationalPoints/e0ab92bf3ee2c0f24a4a286797cab2b18bb1af27,http://data.europa.eu/949/functionalInfrastructure/operationalPoints/EL17030,EL17030,LAKKIA,40.6371,21.6896,http://data.europa.eu/949/concepts/op-types/rinf/20,20,http://publications.europa.eu/resource/authority/country/GRC,20,small station
http://data.europa.eu/949/functionalInfrastructure/operationalPoints/e43fbe1fdf14d1cb075574958554155ab2ff31f3,http://data.europa.eu/949/functionalInfrastructure/operationalPoints/EL01530,EL01530,DOXARAS,39.4646,22.2822,http://data.europa.eu/949/concepts/op-types/rinf/20,20,http://publications.europa.eu/resource/authority/country/GRC,20,small station
http://data.europa.eu/949/functionalInfrastructure/operationalPoints/e7fa154bf8f18dd48085280d232fa69d0fe8fddb,http://data.europa.eu/949/functionalInfrastructure/operationalPoints/EL25610,EL25610,XANTHI,41.1239,24.8929,http://data.europa.eu/949/concepts/op-types/rinf/10,10,http://publications.europa.eu/resource/authority/country/GRC,10,station
http://data.europa.eu/949/functionalInfrastructure/operationalPoints/e8af28695b9ef4b6fec0ca299625d9ac11a4b21f,http://data.europa.eu/949/functionalInfrastructure/operationalPoints/EL05210,EL05210,KORINTHOS N.,37.921,22.9324,http://data.europa.eu/949/concepts/op-types/rinf/10,10,http://publications.europa.eu/resource/authority/country/GRC,10,station
http://data.europa.eu/949/functionalInfrastructure/operationalPoints/ea8138e8e1d0401c2ff59827e9e6b35d8b34376a,http://data.europa.eu/949/functionalInfrastructure/operationalPoints/EL01310,EL01310,ALIARTOS,38.3793,23.1117,http://data.europa.eu/949/concepts/op-types/rinf/10,10,http://publications.europa.eu/resource/authority/country/GRC,10,station
http://data.europa.eu/949/functionalInfrastructure/operationalPoints/eb826a6eebf9c6419aa12fdb2f5996fc70f73f5b,http://data.europa.eu/949/functionalInfrastructure/operationalPoints/EL01510,EL01510,PALEOPHARSALOS,39.3129,22.2436,http://data.europa.eu/949/concepts/op-types/rinf/10,10,http://publications.europa.eu/resource/authority/country/GRC,10,station
http://data.europa.eu/949/functionalInfrastructure/operationalPoints/ebf06edc8303dea00597c99121c161f6a879a9b3,http://data.europa.eu/949/functionalInfrastructure/operationalPoints/EL27130,EL27130,SOUFLION,41.1877,26.3015,http://data.europa.eu/949/concepts/op-types/rinf/10,10,http://publications.europa.eu/resource/authority/country/GRC,10,station
http://data.europa.eu/949/functionalInfrastructure/operationalPoints/ee9ef68fc16a15f73c87c9864b9b1dea54fef2f4,http://data.europa.eu/949/functionalInfrastructure/operationalPoints/EL22030,EL22030,THESSALONIKI TRIAGE,40.67,22.8837,http://data.europa.eu/949/concepts/op-types/rinf/10,10,http://publications.europa.eu/resource/authority/country/GRC,10,station
http://data.europa.eu/949/functionalInfrastructure/operationalPoints/ef426d5aaacadaf798adf751aabdec6e9bd9eeb1,http://data.europa.eu/949/functionalInfrastructure/operationalPoints/EL11110,EL11110,AGHIE,39.0907,22.191,http://data.europa.eu/949/concepts/op-types/rinf/10,10,http://publications.europa.eu/resource/authority/country/GRC,10,station
http://data.europa.eu/949/functionalInfrastructure/operationalPoints/f523d4ae38809d9efc00d8f1885196e929ca2fad,http://data.europa.eu/949/functionalInfrastructure/operationalPoints/EL10090,EL10090,STYLIDA,38.9135,22.6147,http://data.europa.eu/949/concepts/op-types/rinf/10,10,http://publications.europa.eu/resource/authority/country/GRC,10,station
http://data.europa.eu/949/functionalInfrastructure/operationalPoints/f579a66d2203d13c0a5f9af263209b56be73b8be,http://data.europa.eu/949/functionalInfrastructure/operationalPoints/EL09070,EL09070,BRALOS,38.7021,22.4578,http://data.europa.eu/949/concepts/op-types/rinf/20,20,http://publications.europa.eu/resource/authority/country/GRC,20,small station
http://data.europa.eu/949/functionalInfrastructure/operationalPoints/f6fd9976ff40b9f53f8fec5b690833f0ea1df5c7,http://data.europa.eu/949/functionalInfrastructure/operationalPoints/EL01150,EL01150,ACHARNE,38.0803,23.7439,http://data.europa.eu/949/concepts/op-types/rinf/10,10,http://publications.europa.eu/resource/authority/country/GRC,10,station
http://data.europa.eu/949/functionalInfrastructure/operationalPoints/f936eebab9217368ec275c388ff428c391058634,http://data.europa.eu/949/functionalInfrastructure/operationalPoints/EL18030,EL18030,NEOS KAFKASOS,40.8946,21.4715,http://data.europa.eu/949/concepts/op-types/rinf/20,20,http://publications.europa.eu/resource/authority/country/GRC,20,small station
http://data.europa.eu/949/functionalInfrastructure/operationalPoints/fa1cf2b223004fc6f60d1a3090d5f0f95b862836,http://data.europa.eu/949/functionalInfrastructure/operationalPoints/EL01590,EL01590,LARISSA,39.6429,22.4228,http://data.europa.eu/949/concepts/op-types/rinf/10,10,http://publications.europa.eu/resource/authority/country/GRC,10,station
http://data.europa.eu/949/functionalInfrastructure/operationalPoints/fba153ad46988ecb859886e1236548f64246d72c,http://data.europa.eu/949/functionalInfrastructure/operationalPoints/EL27090,EL27090,TYCHERON,41.0349,26.2933,http://data.europa.eu/949/concepts/op-types/rinf/20,20,http://publications.europa.eu/resource/authority/country/GRC,20,small station
http://data.europa.eu/949/functionalInfrastructure/operationalPoints/fc4752aeaaeb350122d453420591e48056b05e13,http://data.europa.eu/949/functionalInfrastructure/operationalPoints/EL25210,EL25210,RODOPOLIS,41.2589,22.9998,http://data.europa.eu/949/concepts/op-types/rinf/20,20,http://publications.europa.eu/resource/authority/country/GRC,20,small station
http://data.europa.eu/949/functionalInfrastructure/operationalPoints/009e12b71aa09ee0249be98164680860d17f3722,http://data.europa.eu/949/functionalInfrastructure/operationalPoints/EL05090,EL05090,ASPROPYRGOS N.,38.0811,23.604,http://data.europa.eu/949/concepts/op-types/rinf/70,70,http://publications.europa.eu/resource/authority/country/GRC,70,passenger stop
http://data.europa.eu/949/functionalInfrastructure/operationalPoints/02b179b9f38cd9ad25359d5310e26de654e67e60,http://data.europa.eu/949/functionalInfrastructure/operationalPoints/EL01010,EL01010,PIREAS,37.9492,23.6428,http://data.europa.eu/949/concepts/op-types/rinf/30,30,http://publications.europa.eu/resource/authority/country/GRC,30,passenger terminal
http://data.europa.eu/949/functionalInfrastructure/operationalPoints/07e2df21951bed264217c810079c86f83d17b547,http://data.europa.eu/949/functionalInfrastructure/operationalPoints/EL07010,EL07010,IKONIO,37.9593,23.5854,http://data.europa.eu/949/concepts/op-types/rinf/40,40,http://publications.europa.eu/resource/authority/country/GRC,40,freight terminal
http://data.europa.eu/949/functionalInfrastructure/operationalPoints/095342e10dda59d223ef93a75c168935f05e213d,http://data.europa.eu/949/functionalInfrastructure/operationalPoints/EL03190,EL03190,KOROPI,37.913,23.8958,http://data.europa.eu/949/concepts/op-types/rinf/70,70,http://publications.europa.eu/resource/authority/country/GRC,70,passenger stop
http://data.europa.eu/949/functionalInfrastructure/operationalPoints/0af6309dfe9aaa0c6e8979394e7d79b3cdbe8c70,http://data.europa.eu/949/functionalInfrastructure/operationalPoints/EL01110,EL01110,KATO ACHARNE,38.0539,23.7325,http://data.europa.eu/949/concepts/op-types/rinf/10,10,http://publications.europa.eu/resource/authority/country/GRC,10,station
http://data.europa.eu/949/functionalInfrastructure/operationalPoints/0bcd820ae5ca4311628baaf8f52232a859f83804,http://data.europa.eu/949/functionalInfrastructure/operationalPoints/EL05050,EL05050,IKONIO (SWITCH),38.0738,23.6704,http://data.europa.eu/949/concepts/op-types/rinf/120,120,http://publications.europa.eu/resource/authority/country/GRC,120,switch
http://data.europa.eu/949/functionalInfrastructure/operationalPoints/0edc47e4c56fca0b84a767cd4516a3f583df820f,http://data.europa.eu/949/functionalInfrastructure/operationalPoints/EL11030,EL11030,LYGARIA,38.9408,22.3425,http://data.europa.eu/949/concepts/op-types/rinf/20,20,http://publications.europa.eu/resource/authority/country/GRC,20,small station
http://data.europa.eu/949/functionalInfrastructure/operationalPoints/12d70648d02920f4ddb27cfd1386902d7744d387,http://data.europa.eu/949/functionalInfrastructure/operationalPoints/EL22070,EL22070,THESSALONIKI GARE CENTRALE,40.645,22.9289,http://data.europa.eu/949/concepts/op-types/rinf/30,30,http://publications.europa.eu/resource/authority/country/GRC,30,passenger terminal
http://data.europa.eu/949/functionalInfrastructure/operationalPoints/1940be6e3f6e0c5188d0a25e1eb3de17ecf1eab7,http://data.europa.eu/949/functionalInfrastructure/operationalPoints/EL25110,EL25110,METALLIKON,41.0251,22.8035,http://data.europa.eu/949/concepts/op-types/rinf/20,20,http://publications.europa.eu/resource/authority/country/GRC,20,small station
http://data.europa.eu/949/functionalInfrastructure/operationalPoints/1c4495a760366d82ac3e9610ff92aa681ab07f91,http://data.europa.eu/949/functionalInfrastructure/operationalPoints/EL05190,EL05190,AG. THEODOROI N.,37.9332,23.1369,http://data.europa.eu/949/concepts/op-types/rinf/70,70,http://publications.europa.eu/resource/authority/country/GRC,70,passenger stop
http://data.europa.eu/949/functionalInfrastructure/operationalPoints/263fa58ee196f7a5f45e97a945d00a050bd34346,http://data.europa.eu/949/functionalInfrastructure/operationalPoints/EL12050,EL12050,TRIKALA,39.5453,21.7638,http://data.europa.eu/949/concepts/op-types/rinf/10,10,http://publications.europa.eu/resource/authority/country/GRC,10,station
http://data.europa.eu/949/functionalInfrastructure/operationalPoints/2723f679cb68f9d0610e7b1908c4513746d1c935,http://data.europa.eu/949/functionalInfrastructure/operationalPoints/EL13050,EL13050,MELIA,39.5623,22.5922,http://data.europa.eu/949/concepts/op-types/rinf/20,20,http://publications.europa.eu/resource/authority/country/GRC,20,small station
http://data.europa.eu/949/functionalInfrastructure/operationalPoints/2ed6d23ddbfab6511680cd9cba812fa9c9981999,http://data.europa.eu/949/functionalInfrastructure/operationalPoints/EL01390,EL01390,MOLOS,38.8122,22.6574,http://data.europa.eu/949/concepts/op-types/rinf/10,10,http://publications.europa.eu/resource/authority/country/GRC,10,station
http://data.europa.eu/949/functionalInfrastructure/operationalPoints/31c5fe147df0dee05dc4c31f30f028f778cb330a,http://data.europa.eu/949/functionalInfrastructure/operationalPoints/EL25570,EL25570,LIVERA,41.1238,24.6916,http://data.europa.eu/949/concepts/op-types/rinf/20,20,http://publications.europa.eu/resource/authority/country/GRC,20,small station
http://data.europa.eu/949/functionalInfrastructure/operationalPoints/3202f75c0bdbba7cd8d802becd542a5ebde4b97b,http://data.europa.eu/949/functionalInfrastructure/operationalPoints/EL16190,EL16190,ARNISSA,40.798,21.835,http://data.europa.eu/949/concepts/op-types/rinf/20,20,http://publications.europa.eu/resource/authority/country/GRC,20,small station
http://data.europa.eu/949/functionalInfrastructure/operationalPoints/331821b90fba4d92d9112c62421fa7fbcbd55eb2,http://data.europa.eu/949/functionalInfrastructure/operationalPoints/EL01610,EL01610,EVANGELISMOS,39.8252,22.5155,http://data.europa.eu/949/concepts/op-types/rinf/10,10,http://publications.europa.eu/resource/authority/country/GRC,10,station
http://data.europa.eu/949/functionalInfrastructure/operationalPoints/36947b2d8eea7f45a89e9ea4819c6ce22d9bb2fc,http://data.europa.eu/949/functionalInfrastructure/operationalPoints/EL09150,EL09150,ARPINI,38.817,22.4049,http://data.europa.eu/949/concepts/op-types/rinf/20,20,http://publications.europa.eu/resource/authority/country/GRC,20,small station
http://data.europa.eu/949/functionalInfrastructure/operationalPoints/3c3ddaf904a4f78ad6851a7127099aaaf4ee3b56,http://data.europa.eu/949/functionalInfrastructure/operationalPoints/EL03070,EL03070,NERATZIOTISA,38.0451,23.793,http://data.europa.eu/949/concepts/op-types/rinf/70,70,http://publications.europa.eu/resource/authority/country/GRC,70,passenger stop
http://data.europa.eu/949/functionalInfrastructure/operationalPoints/3ccf9c6a3c5b271ae10e466912dd849bbb0fb5bc,http://data.europa.eu/949/functionalInfrastructure/operationalPoints/EL03050,EL03050,IRAKLIO,38.0572,23.771,http://data.europa.eu/949/concepts/op-types/rinf/70,70,http://publications.europa.eu/resource/authority/country/GRC,70,passenger stop
http://data.europa.eu/949/functionalInfrastructure/operationalPoints/496f6acc65f417141b73693de34b3b7bec2e4710,http://data.europa.eu/949/functionalInfrastructure/operationalPoints/EL20110,EL20110,POLYKASTRON,40.9672,22.6152,http://data.europa.eu/949/concepts/op-types/rinf/10,10,http://publications.europa.eu/resource/authority/country/GRC,10,station
http://data.europa.eu/949/functionalInfrastructure/operationalPoints/4a68a4162b0aaebb5bdb85beb9c8dc14f7a47f75,http://data.europa.eu/949/functionalInfrastructure/operationalPoints/EL20090,EL20090,ASPROS,40.8905,22.6554,http://data.europa.eu/949/concepts/op-types/rinf/20,20,http://publications.europa.eu/resource/authority/country/GRC,20,small station
http://data.europa.eu/949/functionalInfrastructure/operationalPoints/4c326dfd348208d934fd1081d7836f286d6fd7da,http://data.europa.eu/949/functionalInfrastructure/operationalPoints/EL05070,EL05070,THRIASIO (SWITCH),38.0759,23.619,http://data.europa.eu/949/concepts/op-types/rinf/120,120,http://publications.europa.eu/resource/authority/country/GRC,120,switch
http://data.europa.eu/949/functionalInfrastructure/operationalPoints/4c540d3e64b796611c02e2877a852f39ac0c0c62,http://data.europa.eu/949/functionalInfrastructure/operationalPoints/EL06030,EL06030,PIREAS-TX1 (PEAK),38.0723,23.7364,http://data.europa.eu/949/concepts/op-types/rinf/120,120,http://publications.europa.eu/resource/authority/country/GRC,120,switch
http://data.europa.eu/949/functionalInfrastructure/operationalPoints/4c809fca31b172a59282236016301db3f5ca3382,http://data.europa.eu/949/functionalInfrastructure/operationalPoints/EL08030,EL08030,AVLIS,38.4043,23.6033,http://data.europa.eu/949/concepts/op-types/rinf/20,20,http://publications.europa.eu/resource/authority/country/GRC,20,small station
http://data.europa.eu/949/functionalInfrastructure/operationalPoints/4e9bd693754d9ccced47002a10b5c1d45bf82b38,http://data.europa.eu/949/functionalInfrastructure/operationalPoints/EL05250,EL05250,KIATO N.,38.0139,22.7348,http://data.europa.eu/949/concepts/op-types/rinf/70,70,http://publications.europa.eu/resource/authority/country/GRC,70,passenger stop
http://data.europa.eu/949/functionalInfrastructure/operationalPoints/55b4db6956c245bef4b5db0aab29ed0798ad2908,http://data.europa.eu/949/functionalInfrastructure/operationalPoints/EL01130,EL01130,SKA,38.066,23.7368,http://data.europa.eu/949/concepts/op-types/rinf/10,10,http://publications.europa.eu/resource/authority/country/GRC,10,station
http://data.europa.eu/949/functionalInfrastructure/operationalPoints/580b8f5574992c13424579b8aa2100c6f465c207,http://data.europa.eu/949/functionalInfrastructure/operationalPoints/EL05410,EL05410,ZEFIRI,38.0698,23.717,http://data.europa.eu/949/concepts/op-types/rinf/70,70,http://publications.europa.eu/resource/authority/country/GRC,70,passenger stop
http://data.europa.eu/949/functionalInfrastructure/operationalPoints/5958942956c0d180421465d84d2346de6b880bb1,http://data.europa.eu/949/functionalInfrastructure/operationalPoints/EL01210,EL01210,AVLON,38.25,23.6958,http://data.europa.eu/949/concepts/op-types/rinf/10,10,http://publications.europa.eu/resource/authority/country/GRC,10,station
http://data.europa.eu/949/functionalInfrastructure/operationalPoints/5eff716db94335c8d3f9e97a39b06d85b3a3b3f2,http://data.europa.eu/949/functionalInfrastructure/operationalPoints/EL22050,EL22050,TX4,40.6542,22.9123,http://data.europa.eu/949/concepts/op-types/rinf/80,80,http://publications.europa.eu/resource/authority/country/GRC,80,junction
http://data.europa.eu/949/functionalInfrastructure/operationalPoints/5f160bfa25e0aec289c61cc94348d8c35179480e,http://data.europa.eu/949/functionalInfrastructure/operationalPoints/EL20070,EL20070,KASTANAS,40.8275,22.6572,http://data.europa.eu/949/concepts/op-types/rinf/10,10,http://publications.europa.eu/resource/authority/country/GRC,10,station
http://data.europa.eu/949/functionalInfrastructure/operationalPoints/5f661326dd85349823878204465b97b7353f223a,http://data.europa.eu/949/functionalInfrastructure/operationalPoints/EL01650,EL01650,LEPTOKARIA,40.0586,22.5656,http://data.europa.eu/949/concepts/op-types/rinf/20,20,http://publications.europa.eu/resource/authority/country/GRC,20,small station
http://data.europa.eu/949/functionalInfrastructure/operationalPoints/5fb060232081c9cc9cc0add9702cbbffd4066fe1,http://data.europa.eu/949/functionalInfrastructure/operationalPoints/EL04050,EL04050,SWITCH 635A,38.0688,23.723,http://data.europa.eu/949/concepts/op-types/rinf/120,120,http://publications.europa.eu/resource/authority/country/GRC,120,switch
http://data.europa.eu/949/functionalInfrastructure/operationalPoints/64990197b36f1d7ebb55c07a50278928f2f506a0,http://data.europa.eu/949/functionalInfrastructure/operationalPoints/EL03130,EL03130,DOUK.PLAKENTIAS,38.0246,23.834,http://data.europa.eu/949/concepts/op-types/rinf/70,70,http://publications.europa.eu/resource/authority/country/GRC,70,passenger stop
http://data.europa.eu/949/functionalInfrastructure/operationalPoints/66a39ed86eeba8bfc8ed6b7f944b3144e0a01f99,http://data.europa.eu/949/functionalInfrastructure/operationalPoints/EU00187,EU00187,SVILENGRAD-DIKEA,41.7477,26.1667,http://data.europa.eu/949/concepts/op-types/rinf/90,90,http://publications.europa.eu/resource/authority/country/GRC,90,border point
http://data.europa.eu/949/functionalInfrastructure/operationalPoints/6a5f8bd96e39df74a6d96ea4273efbf4a6b485d2,http://data.europa.eu/949/functionalInfrastructure/operationalPoints/EL21030,EL21030,PEONIA,41.0426,22.5523,http://data.europa.eu/949/concepts/op-types/rinf/20,20,http://publications.europa.eu/resource/authority/country/GRC,20,small station
http://data.europa.eu/949/functionalInfrastructure/operationalPoints/6b9714b5deb011d55585d4cbc1b6d91243821cdd,http://data.europa.eu/949/functionalInfrastructure/operationalPoints/EL27010,EL27010,ALEXANDROUPOLIS LIMIN,40.8451,25.8787,http://data.europa.eu/949/concepts/op-types/rinf/30,30,http://publications.europa.eu/resource/authority/country/GRC,30,passenger terminal
http://data.europa.eu/949/functionalInfrastructure/operationalPoints/6c2f8b3fbd01c1de6ebce599372be75454ff0687,http://data.europa.eu/949/functionalInfrastructure/operationalPoints/EL05130,EL05130,NEA PERAMOS N.,38.0134,23.4145,http://data.europa.eu/949/concepts/op-types/rinf/70,70,http://publications.europa.eu/resource/authority/country/GRC,70,passenger stop
http://data.europa.eu/949/functionalInfrastructure/operationalPoints/6d89498e42cdebc42327dbe3c485fe474c091d95,http://data.europa.eu/949/functionalInfrastructure/operationalPoints/EL13070,EL13070,KYPSELI,39.5227,22.6536,http://data.europa.eu/949/concepts/op-types/rinf/20,20,http://publications.europa.eu/resource/authority/country/GRC,20,small station
http://data.europa.eu/949/functionalInfrastructure/operationalPoints/700ae8bd3d6e6f1d7f86663857b365f5d6fd477c,http://data.europa.eu/949/functionalInfrastructure/operationalPoints/EL05110,EL05110,MAGOULA N.,38.0736,23.5294,http://data.europa.eu/949/concepts/op-types/rinf/70,70,http://publications.europa.eu/resource/authority/country/GRC,70,passenger stop
http://data.europa.eu/949/functionalInfrastructure/operationalPoints/731cb946f8bd02aec480acb0816303a516004bcd,http://data.europa.eu/949/functionalInfrastructure/operationalPoints/EL03210,EL03210,ATHENS AIRPORT,37.9366,23.9443,http://data.europa.eu/949/concepts/op-types/rinf/30,30,http://publications.europa.eu/resource/authority/country/GRC,30,passenger terminal
http://data.europa.eu/949/functionalInfrastructure/operationalPoints/732a07511ca8759f32ee70c6993cb63f65e08a5a,http://data.europa.eu/949/functionalInfrastructure/operationalPoints/EL25190,EL25190,KASTANOUSA,41.276,22.8962,http://data.europa.eu/949/concepts/op-types/rinf/20,20,http://publications.europa.eu/resource/authority/country/GRC,20,small station
http://data.europa.eu/949/functionalInfrastructure/operationalPoints/7721d198e2aaab1074e4e71435220117391eaa2e,http://data.europa.eu/949/functionalInfrastructure/operationalPoints/EL01810,EL01810,TX1,40.6745,22.8752,http://data.europa.eu/949/concepts/op-types/rinf/80,80,http://publications.europa.eu/resource/authority/country/GRC,80,junction
http://data.europa.eu/949/functionalInfrastructure/operationalPoints/77e94bc2397483e359d6ffbed7d79cc2c0cd8dad,http://data.europa.eu/949/functionalInfrastructure/operationalPoints/EL05030,EL05030,ANO LIOSIA N.,38.0707,23.7099,http://data.europa.eu/949/concepts/op-types/rinf/70,70,http://publications.europa.eu/resource/authority/country/GRC,70,passenger stop
http://data.europa.eu/949/functionalInfrastructure/operationalPoints/7865f0878a6c7ed2221dae6cbaf4768dbc89d753,http://data.europa.eu/949/functionalInfrastructure/operationalPoints/EL27250,EL27250,NEA VYSSA,41.578,26.5346,http://data.europa.eu/949/concepts/op-types/rinf/20,20,http://publications.europa.eu/resource/authority/country/GRC,20,small station
http://data.europa.eu/949/functionalInfrastructure/operationalPoints/7875fbb878303d94b97283da5fba93775ec4f2c9,http://data.europa.eu/949/functionalInfrastructure/operationalPoints/EL17050,EL17050,FILOTAS,40.6077,21.6932,http://data.europa.eu/949/concepts/op-types/rinf/20,20,http://publications.europa.eu/resource/authority/country/GRC,20,small station
http://data.europa.eu/949/functionalInfrastructure/operationalPoints/7c03ce0bc1f512a39ec20b312b8cbb751339ea23,http://data.europa.eu/949/functionalInfrastructure/operationalPoints/EL01550,EL01550,KRANON,39.5117,22.3347,http://data.europa.eu/949/concepts/op-types/rinf/20,20,http://publications.europa.eu/resource/authority/country/GRC,20,small station
http://data.europa.eu/949/functionalInfrastructure/operationalPoints/7c5a2a1e5a1c771c43a9d19812400bac7269f4f3,http://data.europa.eu/949/functionalInfrastructure/operationalPoints/EU00189,EU00189,IDOMENI-GEVGELIJA,41.1283,22.5172,http://data.europa.eu/949/concepts/op-types/rinf/90,90,http://publications.europa.eu/resource/authority/country/GRC,90,border point
http://data.europa.eu/949/functionalInfrastructure/operationalPoints/8ace5427b18aec5558d9e2d0936af343cf9c5001,http://data.europa.eu/949/functionalInfrastructure/operationalPoints/EL01090,EL01090,AGHII ANARGYRI,38.0218,23.7184,http://data.europa.eu/949/concepts/op-types/rinf/10,10,http://publications.europa.eu/resource/authority/country/GRC,10,station
http://data.europa.eu/949/functionalInfrastructure/operationalPoints/90841186cecfed2994e9d2050df1b91f7aa0b37f,http://data.europa.eu/949/functionalInfrastructure/operationalPoints/EL09110,EL09110,ASOPOS,38.7772,22.4218,http://data.europa.eu/949/concepts/op-types/rinf/20,20,http://publications.europa.eu/resource/authority/country/GRC,20,small station
http://data.europa.eu/949/functionalInfrastructure/operationalPoints/97df756c8157433abb4f08a84b43f97b65a930c4,http://data.europa.eu/949/functionalInfrastructure/operationalPoints/EL16110,EL16110,EPISKOPI,40.6863,22.141,http://data.europa.eu/949/concepts/op-types/rinf/20,20,http://publications.europa.eu/resource/authority/country/GRC,20,small station
http://data.europa.eu/949/functionalInfrastructure/operationalPoints/99285d84acb9d8054217fa204521890d87463e98,http://data.europa.eu/949/functionalInfrastructure/operationalPoints/EL05230,EL05230,ZEVGOLATIO KOR.,37.9259,22.8056,http://data.europa.eu/949/concepts/op-types/rinf/70,70,http://publications.europa.eu/resource/authority/country/GRC,70,passenger stop
http://data.europa.eu/949/functionalInfrastructure/operationalPoints/9d024ce3e80b081cbfdfd5ccb1371e4e2981dda8,http://data.europa.eu/949/functionalInfrastructure/operationalPoints/EL09090,EL09090,ELEFTHEROCHORI,38.7531,22.4234,http://data.europa.eu/949/concepts/op-types/rinf/20,20,http://publications.europa.eu/resource/authority/country/GRC,20,small station
http://data.europa.eu/949/functionalInfrastructure/operationalPoints/9d37f34d07b54451e73543ffe80b1714e909d85c,http://data.europa.eu/949/functionalInfrastructure/operationalPoints/EL01770,EL01770,AXIOS,40.6942,22.6982,http://data.europa.eu/949/concepts/op-types/rinf/80,80,http://publications.europa.eu/resource/authority/country/GRC,80,junction
http://data.europa.eu/949/functionalInfrastructure/operationalPoints/a14e03504b10aec8563d389283b4ccaa9945cebf,http://data.europa.eu/949/functionalInfrastructure/operationalPoints/EL01630,EL01630,NEOI POROI,39.976,22.6384,http://data.europa.eu/949/concepts/op-types/rinf/10,10,http://publications.europa.eu/resource/authority/country/GRC,10,station
http://data.europa.eu/949/functionalInfrastructure/operationalPoints/a331da3d230a71ef5e13f52532dc33952c03b9ed,http://data.europa.eu/949/functionalInfrastructure/operationalPoints/EL01170,EL01170,DEKELEIA,38.0995,23.7797,http://data.europa.eu/949/concepts/op-types/rinf/10,10,http://publications.europa.eu/resource/authority/country/GRC,10,station
http://data.europa.eu/949/functionalInfrastructure/operationalPoints/a4450280b2376bf34e757028d4b2a314f5261103,http://data.europa.eu/949/functionalInfrastructure/operationalPoints/EL03150,EL03150,PALLINI,38.0053,23.8699,http://data.europa.eu/949/concepts/op-types/rinf/70,70,http://publications.europa.eu/resource/authority/country/GRC,70,passenger stop
http://data.europa.eu/949/functionalInfrastructure/operationalPoints/a51bb42f1b70bceb44316b11e45c24f8d140df3e,http://data.europa.eu/949/functionalInfrastructure/operationalPoints/EL05170,EL05170,KINETA N.,37.9654,23.2009,http://data.europa.eu/949/concepts/op-types/rinf/70,70,http://publications.europa.eu/resource/authority/country/GRC,70,passenger stop
http://data.europa.eu/949/functionalInfrastructure/operationalPoints/a5d11fe8c5bcc34e6b1ac28baf9b5f0f49ca92e4,http://data.europa.eu/949/functionalInfrastructure/operationalPoints/EU00186,EU00186,PYTHION-UZUNKOPRU,41.3621,26.6315,http://data.europa.eu/949/concepts/op-types/rinf/90,90,http://publications.europa.eu/resource/authority/country/GRC,90,border point
http://data.europa.eu/949/functionalInfrastructure/operationalPoints/afd784b2376830a62c239e23db3cd18d91a5af76,http://data.europa.eu/949/functionalInfrastructure/operationalPoints/EL10070,EL10070,AGHIA MARINA,38.8973,22.5847,http://data.europa.eu/949/concepts/op-types/rinf/20,20,http://publications.europa.eu/resource/authority/country/GRC,20,small station
http://data.europa.eu/949/functionalInfrastructure/operationalPoints/b748fd4a81716ccdd09887246bbe534988afc4eb,http://data.europa.eu/949/functionalInfrastructure/operationalPoints/EL16210,EL16210,VEGORITIS,40.7727,21.7693,http://data.europa.eu/949/concepts/op-types/rinf/20,20,http://publications.europa.eu/resource/authority/country/GRC,20,small station
http://data.europa.eu/949/functionalInfrastructure/operationalPoints/bac8ab1e09713de3c92f560d23556525e9120a81,http://data.europa.eu/949/functionalInfrastructure/operationalPoints/EL03230,EL03230,MIDEN,38.0647,23.7408,http://data.europa.eu/949/concepts/op-types/rinf/120,120,http://publications.europa.eu/resource/authority/country/GRC,120,switch
http://data.europa.eu/949/functionalInfrastructure/operationalPoints/bbd99bb6d91530ab90bd2a5f6dd75780aadcf80e,http://data.europa.eu/949/functionalInfrastructure/operationalPoints/EL03030,EL03030,METAMORFOSI,38.0602,23.7555,http://data.europa.eu/949/concepts/op-types/rinf/70,70,http://publications.europa.eu/resource/authority/country/GRC,70,passenger stop
http://data.europa.eu/949/functionalInfrastructure/operationalPoints/bf73f40715ad119b5440576d46fd9e5e6486cc1f,http://data.europa.eu/949/functionalInfrastructure/operationalPoints/EU00190,EU00190,NEOS KAFKASOS-KREMENITSA,40.9073,21.4645,http://data.europa.eu/949/concepts/op-types/rinf/90,90,http://publications.europa.eu/resource/authority/country/GRC,90,border point
http://data.europa.eu/949/functionalInfrastructure/operationalPoints/c2c903dac3d364ffa47aaa744e5051f726f3d9aa,http://data.europa.eu/949/functionalInfrastructure/operationalPoints/EL13130,EL13130,LATOMION,39.3835,22.8497,http://data.europa.eu/949/concepts/op-types/rinf/20,20,http://publications.europa.eu/resource/authority/country/GRC,20,small station
http://data.europa.eu/949/functionalInfrastructure/operationalPoints/c409396841f063250b2f342bf2e00bb0f7672a8f,http://data.europa.eu/949/functionalInfrastructure/operationalPoints/EL03170,EL03170,PAEANIA-KANTZA,37.9838,23.8698,http://data.europa.eu/949/concepts/op-types/rinf/70,70,http://publications.europa.eu/resource/authority/country/GRC,70,passenger stop
http://data.europa.eu/949/functionalInfrastructure/operationalPoints/d22231aad4bcac7279cf70f6eb4ad5e1efd065bd,http://data.europa.eu/949/functionalInfrastructure/operationalPoints/EL01710,EL01710,AEGHINION,40.4979,22.5525,http://data.europa.eu/949/concepts/op-types/rinf/20,20,http://publications.europa.eu/resource/authority/country/GRC,20,small station
http://data.europa.eu/949/functionalInfrastructure/operationalPoints/d843343611cf3e65b023ff3bfcec7a0404b6185e,http://data.europa.eu/949/functionalInfrastructure/operationalPoints/EL16290,EL16290,MESSONISSION (SWITCH),40.7918,21.4745,http://data.europa.eu/949/concepts/op-types/rinf/120,120,http://publications.europa.eu/resource/authority/country/GRC,120,switch
http://data.europa.eu/949/functionalInfrastructure/operationalPoints/da371f5f3fffaeda7de0f545387c66b06f55c6f1,http://data.europa.eu/949/functionalInfrastructure/operationalPoints/EL11170,EL11170,THAVMAKOS,39.1525,22.2752,http://data.europa.eu/949/concepts/op-types/rinf/20,20,http://publications.europa.eu/resource/authority/country/GRC,20,small station
http://data.europa.eu/949/functionalInfrastructure/operationalPoints/dd8320db7c140786b8798572f26325f938576a9a,http://data.europa.eu/949/functionalInfrastructure/operationalPoints/EL03090,EL03090,KIFISSIAS,38.0421,23.8037,http://data.europa.eu/949/concepts/op-types/rinf/70,70,http://publications.europa.eu/resource/authority/country/GRC,70,passenger stop
http://data.europa.eu/949/functionalInfrastructure/operationalPoints/e43e452a4c778a8bd9d8f035669d33c724f8e17e,http://data.europa.eu/949/functionalInfrastructure/operationalPoints/EL01730,EL01730,PLATY,40.6365,22.5295,http://data.europa.eu/949/concepts/op-types/rinf/10,10,http://publications.europa.eu/resource/authority/country/GRC,10,station
http://data.europa.eu/949/functionalInfrastructure/operationalPoints/e9e80dfcb046a6dc53e0d1e7cb0cc922582638a7,http://data.europa.eu/949/functionalInfrastructure/operationalPoints/EL25750,EL25750,KIRKI,40.9755,25.7979,http://data.europa.eu/949/concepts/op-types/rinf/20,20,http://publications.europa.eu/resource/authority/country/GRC,20,small station
http://data.europa.eu/949/functionalInfrastructure/operationalPoints/e9eaf566499b7b9bb1e10ce65015085bdaa033a8,http://data.europa.eu/949/functionalInfrastructure/operationalPoints/EL13030,EL13030,CHALKI,39.5917,22.5362,http://data.europa.eu/949/concepts/op-types/rinf/20,20,http://publications.europa.eu/resource/authority/country/GRC,20,small station
http://data.europa.eu/949/functionalInfrastructure/operationalPoints/ead2f3f044955f01d55ef20193933fc13e029687,http://data.europa.eu/949/functionalInfrastructure/operationalPoints/EL27150,EL27150,LAVARA,41.267,26.3841,http://data.europa.eu/949/concepts/op-types/rinf/20,20,http://publications.europa.eu/resource/authority/country/GRC,20,small station
http://data.europa.eu/949/functionalInfrastructure/operationalPoints/ee6acffdddd3e57de205a1f0085d03f5acba9e21,http://data.europa.eu/949/functionalInfrastructure/operationalPoints/EL13150,EL13150,MELISSIATIKA,39.3867,22.9122,http://data.europa.eu/949/concepts/op-types/rinf/20,20,http://publications.europa.eu/resource/authority/country/GRC,20,small station
http://data.europa.eu/949/functionalInfrastructure/operationalPoints/f60b57f92579f895a9e1abbb0a197ec3f4ab5f4c,http://data.europa.eu/949/functionalInfrastructure/operationalPoints/EU00188,EU00188,KULATA-PROMACHON,41.3795,23.3643,http://data.europa.eu/949/concepts/op-types/rinf/90,90,http://publications.europa.eu/resource/authority/country/GRC,90,border point
http://data.europa.eu/949/functionalInfrastructure/operationalPoints/f72dd729df6f95731cafab0a3e1d5b7f326f9d52,http://data.europa.eu/949/functionalInfrastructure/operationalPoints/EL11130,EL11130,THERME,39.135,22.1628,http://data.europa.eu/949/concepts/op-types/rinf/20,20,http://publications.europa.eu/resource/authority/country/GRC,20,small station
http://data.europa.eu/949/functionalInfrastructure/operationalPoints/fea1134a754e6be00195eae0229651fc65881ff2,http://data.europa.eu/949/functionalInfrastructure/operationalPoints/EL03110,EL03110,PENTELIS,38.0331,23.8224,http://data.europa.eu/949/concepts/op-types/rinf/70,70,http://publications.europa.eu/resource/authority/country/GRC,70,passenger stop
