uri,uri_canonical,id,name,lat,lon,op_type,op_type_label,country,op_type_code,op_type_name
http://data.europa.eu/949/functionalInfrastructure/operationalPoints/00df501966cef47d5877a640ba3fb7012dec0aad,http://data.europa.eu/949/functionalInfrastructure/operationalPoints/PL01553,PL01553,Krajenka,53.288836,16.991206,http://data.europa.eu/949/concepts/op-types/rinf/20,20,http://publications.europa.eu/resource/authority/country/POL,20,small station
http://data.europa.eu/949/functionalInfrastructure/operationalPoints/052006894b532a2958bdbd5cf6fbc65f2790e65d,http://data.europa.eu/949/functionalInfrastructure/operationalPoints/PL00161,PL00161,Warnowo,53.928105,14.533693,http://data.europa.eu/949/concepts/op-types/rinf/20,20,http://publications.europa.eu/resource/authority/country/POL,20,small station
http://data.europa.eu/949/functionalInfrastructure/operationalPoints/09fd221b0e1c4c65b9545327b60c339e23b24fc5,http://data.europa.eu/949/functionalInfrastructure/operationalPoints/PL03235,PL03235,Gostynin,52.43355,19.476356,http://data.europa.eu/949/concepts/op-types/rinf/20,20,http://publications.europa.eu/resource/authority/country/POL,20,small station
http://data.europa.eu/949/functionalInfrastructure/operationalPoints/0b8f0ada2202ac4ae8798d83b0c09750ec6803c7,http://data.europa.eu/949/functionalInfrastructure/operationalPoints/PL03744,PL03744,Warszawa Wileńska,52.255449,21.037667,http://data.europa.eu/949/concepts/op-types/rinf/20,20,http://publications.europa.eu/resource/authority/country/POL,20,small station
http://data.europa.eu/949/functionalInfrastructure/operationalPoints/0c9aebc6f6bb0f2185561fc1609e29eb306c5be5,http://data.europa.eu/949/functionalInfrastructure/operationalPoints/PL01454,PL01454,Trzcianka,53.033613,16.465989,http://data.europa.eu/949/concepts/op-types/rinf/20,20,http://publications.europa.eu/resource/authority/country/POL,20,small station
http://data.europa.eu/949/functionalInfrastructure/operationalPoints/16209d505e6b93e89b2b0c6a75f6008628bf33c2,http://data.europa.eu/949/functionalInfrastructure/operationalPoints/PL08372,PL08372,Zarszyn,49.584192,22.019554,http://data.europa.eu/949/concepts/op-types/rinf/20,20,http://publications.europa.eu/resource/authority/country/POL,20,small station
http://data.europa.eu/949/functionalInfrastructure/operationalPoints/17192c598d138e13366932c2cf7988f86c12441f,http://data.europa.eu/949/functionalInfrastructure/operationalPoints/PL05969,PL05969,Twardogóra,51.360348,17.469188,http://data.europa.eu/949/concepts/op-types/rinf/20,20,http://publications.europa.eu/resource/authority/country/POL,20,small station
http://data.europa.eu/949/functionalInfrastructure/operationalPoints/187e9764dbf51c46249ccb653debfe99a43a3800,http://data.europa.eu/949/functionalInfrastructure/operationalPoints/PL02155,PL02155,Ciechocinek,52.881372,18.788563,http://data.europa.eu/949/concepts/op-types/rinf/20,20,http://publications.europa.eu/resource/authority/country/POL,20,small station
http://data.europa.eu/949/functionalInfrastructure/operationalPoints/191efa0dc1b9fde062d276083044cd48cc0cc4c9,http://data.europa.eu/949/functionalInfrastructure/operationalPoints/PL06026,PL06026,Brzeg Dolny,51.266538,16.726037,http://data.europa.eu/949/concepts/op-types/rinf/20,20,http://publications.europa.eu/resource/authority/country/POL,20,small station
http://data.europa.eu/949/functionalInfrastructure/operationalPoints/1e1e52bd2e5eb52da6c2d2c6b1e806d6867a9505,http://data.europa.eu/949/functionalInfrastructure/operationalPoints/PL01708,PL01708,Pruszcz Pomorski,53.334337,18.198945,http://data.europa.eu/949/concepts/op-types/rinf/20,20,http://publications.europa.eu/resource/authority/country/POL,20,small station
http://data.europa.eu/949/functionalInfrastructure/operationalPoints/2224126fb6d7755a033b53fa4cc2d31cfe62d7cb,http://data.europa.eu/949/functionalInfrastructure/operationalPoints/PL02940,PL02940,Choszczno,53.165311,15.403262,http://data.europa.eu/949/concepts/op-types/rinf/20,20,http://publications.europa.eu/resource/authority/country/POL,20,small station
http://data.europa.eu/949/functionalInfrastructure/operationalPoints/24e1b2241991a4b134b14022b7de79667f0a9194,http://data.europa.eu/949/functionalInfrastructure/operationalPoints/PL01774,PL01774,Gołubie Kaszubskie,54.212703,18.037307,http://data.europa.eu/949/concepts/op-types/rinf/20,20,http://publications.europa.eu/resource/authority/country/POL,20,small station
http://data.europa.eu/949/functionalInfrastructure/operationalPoints/24fb32636cc35ad1b090fdcc2f949510340d89f9,http://data.europa.eu/949/functionalInfrastructure/operationalPoints/PL01446,PL01446,Kaczory,53.105265,16.882187,http://data.europa.eu/949/concepts/op-types/rinf/20,20,http://publications.europa.eu/resource/authority/country/POL,20,small station
http://data.europa.eu/949/functionalInfrastructure/operationalPoints/2925c0707109f79689b42a75136587845c81078e,http://data.europa.eu/949/functionalInfrastructure/operationalPoints/PL03204,PL03204,Wydartowo,52.61117,17.903987,http://data.europa.eu/949/concepts/op-types/rinf/20,20,http://publications.europa.eu/resource/authority/country/POL,20,small station
http://data.europa.eu/949/functionalInfrastructure/operationalPoints/2a2503988a28d2596cb729b1c9b5b19576cb2aec,http://data.europa.eu/949/functionalInfrastructure/operationalPoints/PL00303,PL00303,Dalęcino,53.747823,16.608737,http://data.europa.eu/949/concepts/op-types/rinf/20,20,http://publications.europa.eu/resource/authority/country/POL,20,small station
http://data.europa.eu/949/functionalInfrastructure/operationalPoints/2ae4f106c18d7007b43f4a2aed3cbfb0596cad86,http://data.europa.eu/949/functionalInfrastructure/operationalPoints/PL03371,PL03371,Warszawa Jelonki,52.232384,20.922603,http://data.europa.eu/949/concepts/op-types/rinf/20,20,http://publications.europa.eu/resource/authority/country/POL,20,small station
http://data.europa.eu/949/functionalInfrastructure/operationalPoints/2d4fab2a5c9511c926cc7011d90e9f586998b31c,http://data.europa.eu/949/functionalInfrastructure/operationalPoints/PL07846,PL07846,Stronie,49.833553,19.670112,http://data.europa.eu/949/concepts/op-types/rinf/20,20,http://publications.europa.eu/resource/authority/country/POL,20,small station
http://data.europa.eu/949/functionalInfrastructure/operationalPoints/2dcadb234bcb81d7ca4109c2674d23f79b3ce72e,http://data.europa.eu/949/functionalInfrastructure/operationalPoints/PL03922,PL03922,Sufczyn,52.037978,21.508876,http://data.europa.eu/949/concepts/op-types/rinf/20,20,http://publications.europa.eu/resource/authority/country/POL,20,small station
http://data.europa.eu/949/functionalInfrastructure/operationalPoints/2fb97cdfa49a6e4a917d953e99ba10db01a035ea,http://data.europa.eu/949/functionalInfrastructure/operationalPoints/PL03622,PL03622,Zielonka,52.312782,21.160077,http://data.europa.eu/949/concepts/op-types/rinf/20,20,http://publications.europa.eu/resource/authority/country/POL,20,small station
http://data.europa.eu/949/functionalInfrastructure/operationalPoints/3ad0be3e11d6a643498f30051148db2046862540,http://data.europa.eu/949/functionalInfrastructure/operationalPoints/PL01993,PL01993,Lubicz,53.027932,18.745285,http://data.europa.eu/949/concepts/op-types/rinf/20,20,http://publications.europa.eu/resource/authority/country/POL,20,small station
http://data.europa.eu/949/functionalInfrastructure/operationalPoints/3dbd81868ae3caf3779bc85138ff7960fd2eeea5,http://data.europa.eu/949/functionalInfrastructure/operationalPoints/PL06205,PL06205,Tarnów Opolski,50.572223,18.077423,http://data.europa.eu/949/concepts/op-types/rinf/20,20,http://publications.europa.eu/resource/authority/country/POL,20,small station
http://data.europa.eu/949/functionalInfrastructure/operationalPoints/3e42110004f73f71b964175d2e3c61e2449bee1f,http://data.europa.eu/949/functionalInfrastructure/operationalPoints/PL05216,PL05216,Lwówek Śląski,51.109779,15.593903,http://data.europa.eu/949/concepts/op-types/rinf/20,20,http://publications.europa.eu/resource/authority/country/POL,20,small station
http://data.europa.eu/949/functionalInfrastructure/operationalPoints/41bbff826162d56a8fa5243be0f8b52a7ed1491e,http://data.europa.eu/949/functionalInfrastructure/operationalPoints/PL07968,PL07968,Kłaj,50.001865,20.300472,http://data.europa.eu/949/concepts/op-types/rinf/20,20,http://publications.europa.eu/resource/authority/country/POL,20,small station
http://data.europa.eu/949/functionalInfrastructure/operationalPoints/45398c57ac4243a8059d17fe0d1aff34fd901057,http://data.europa.eu/949/functionalInfrastructure/operationalPoints/PL00728,PL00728,Nowy Staw,54.132533,19.013594,http://data.europa.eu/949/concepts/op-types/rinf/20,20,http://publications.europa.eu/resource/authority/country/POL,20,small station
http://data.europa.eu/949/functionalInfrastructure/operationalPoints/467f7c444339b1c56786288ee35a3c66356f2c73,http://data.europa.eu/949/functionalInfrastructure/operationalPoints/PL02625,PL02625,Lutol Suchy,52.343744,15.754661,http://data.europa.eu/949/concepts/op-types/rinf/20,20,http://publications.europa.eu/resource/authority/country/POL,20,small station
http://data.europa.eu/949/functionalInfrastructure/operationalPoints/46b6c90fc768f3b254aec7e2d14cb4cd76693bdf,http://data.europa.eu/949/functionalInfrastructure/operationalPoints/PL02451,PL02451,Gregorowce,52.662044,23.242093,http://data.europa.eu/949/concepts/op-types/rinf/20,20,http://publications.europa.eu/resource/authority/country/POL,20,small station
http://data.europa.eu/949/functionalInfrastructure/operationalPoints/46eaef95dc6f786aec569f8acb600bb2911f6d47,http://data.europa.eu/949/functionalInfrastructure/operationalPoints/PL00396,PL00396,Tychowo,53.921478,16.235088,http://data.europa.eu/949/concepts/op-types/rinf/20,20,http://publications.europa.eu/resource/authority/country/POL,20,small station
http://data.europa.eu/949/functionalInfrastructure/operationalPoints/47301e8857c80c5a694e771b30c4e236424cf738,http://data.europa.eu/949/functionalInfrastructure/operationalPoints/PL07116,PL07116,Kielcza,50.563554,18.561504,http://data.europa.eu/949/concepts/op-types/rinf/20,20,http://publications.europa.eu/resource/authority/country/POL,20,small station
http://data.europa.eu/949/functionalInfrastructure/operationalPoints/5337d4ec88afc05ab374e20e477d612d9bd56267,http://data.europa.eu/949/functionalInfrastructure/operationalPoints/PL04413,PL04413,Kobylin,51.720025,17.223857,http://data.europa.eu/949/concepts/op-types/rinf/20,20,http://publications.europa.eu/resource/authority/country/POL,20,small station
http://data.europa.eu/949/functionalInfrastructure/operationalPoints/54c6d1ffff399e4fd90fbfa9e55d6c567e1561ae,http://data.europa.eu/949/functionalInfrastructure/operationalPoints/PL01707,PL01707,Parlin,53.371063,18.270606,http://data.europa.eu/949/concepts/op-types/rinf/20,20,http://publications.europa.eu/resource/authority/country/POL,20,small station
http://data.europa.eu/949/functionalInfrastructure/operationalPoints/57decb4af20223a19131b1db2a4481eaf251c3c7,http://data.europa.eu/949/functionalInfrastructure/operationalPoints/PL04975,PL04975,Jeleń,51.502179,20.072915,http://data.europa.eu/949/concepts/op-types/rinf/20,20,http://publications.europa.eu/resource/authority/country/POL,20,small station
http://data.europa.eu/949/functionalInfrastructure/operationalPoints/57fbcd23469351c5bd493388a37331970bc74256,http://data.europa.eu/949/functionalInfrastructure/operationalPoints/PL06028,PL06028,Brzezinka Średzka,51.219736,16.836806,http://data.europa.eu/949/concepts/op-types/rinf/20,20,http://publications.europa.eu/resource/authority/country/POL,20,small station
http://data.europa.eu/949/functionalInfrastructure/operationalPoints/5974cb84ca8ab2dceb0fd3f545b166a091bfe123,http://data.europa.eu/949/functionalInfrastructure/operationalPoints/PL01904,PL01904,Złotniki Kujawskie,52.903693,18.147327,http://data.europa.eu/949/concepts/op-types/rinf/20,20,http://publications.europa.eu/resource/authority/country/POL,20,small station
http://data.europa.eu/949/functionalInfrastructure/operationalPoints/59a4e4989bfdc246b16f83594fd492366b9f75ee,http://data.europa.eu/949/functionalInfrastructure/operationalPoints/PL05137,PL05137,Lublin Zemborzyce,51.1711,22.502112,http://data.europa.eu/949/concepts/op-types/rinf/20,20,http://publications.europa.eu/resource/authority/country/POL,20,small station
http://data.europa.eu/949/functionalInfrastructure/operationalPoints/5a1c052ff925e28a728ae78c6f2f52b92bfa6d2a,http://data.europa.eu/949/functionalInfrastructure/operationalPoints/PL05671,PL05671,Paczków,50.478401,17.011082,http://data.europa.eu/949/concepts/op-types/rinf/20,20,http://publications.europa.eu/resource/authority/country/POL,20,small station
http://data.europa.eu/949/functionalInfrastructure/operationalPoints/5c7c17026987db7424bffb0df560e9ca5ad81426,http://data.europa.eu/949/functionalInfrastructure/operationalPoints/PL00089,PL00089,Krzywin Gryfiński,53.087681,14.454019,http://data.europa.eu/949/concepts/op-types/rinf/20,20,http://publications.europa.eu/resource/authority/country/POL,20,small station
http://data.europa.eu/949/functionalInfrastructure/operationalPoints/5ce34cf9acedcf1de12b49735f5c7ee3721a8467,http://data.europa.eu/949/functionalInfrastructure/operationalPoints/PL07704,PL07704,Wisła Głębce,49.62184,18.875103,http://data.europa.eu/949/concepts/op-types/rinf/20,20,http://publications.europa.eu/resource/authority/country/POL,20,small station
http://data.europa.eu/949/functionalInfrastructure/operationalPoints/5d996e62726eee8a5b68ef629cdca5cfabc651f2,http://data.europa.eu/949/functionalInfrastructure/operationalPoints/PL03222,PL03222,Krzewie,52.235337,19.165595,http://data.europa.eu/949/concepts/op-types/rinf/20,20,http://publications.europa.eu/resource/authority/country/POL,20,small station
http://data.europa.eu/949/functionalInfrastructure/operationalPoints/5fb5574848cf8454544db46203b19b022dd23d17,http://data.europa.eu/949/functionalInfrastructure/operationalPoints/PL01721,PL01721,Warlubie,53.5884,18.622715,http://data.europa.eu/949/concepts/op-types/rinf/20,20,http://publications.europa.eu/resource/authority/country/POL,20,small station
http://data.europa.eu/949/functionalInfrastructure/operationalPoints/60832992c7caa8696aa054753bdddc4b0b4c9efa,http://data.europa.eu/949/functionalInfrastructure/operationalPoints/PL01921,PL01921,Chełmce,52.627415,18.465964,http://data.europa.eu/949/concepts/op-types/rinf/20,20,http://publications.europa.eu/resource/authority/country/POL,20,small station
http://data.europa.eu/949/functionalInfrastructure/operationalPoints/614252de00ed3120cd813af8d723cf03eaead9eb,http://data.europa.eu/949/functionalInfrastructure/operationalPoints/PL06485,PL06485,Psary,50.733406,19.815836,http://data.europa.eu/949/concepts/op-types/rinf/20,20,http://publications.europa.eu/resource/authority/country/POL,20,small station
http://data.europa.eu/949/functionalInfrastructure/operationalPoints/65077e58fd3136bd22266fbe57b7b8b92c819ba7,http://data.europa.eu/949/functionalInfrastructure/operationalPoints/PL08438,PL08438,Hurko,49.785321,22.862664,http://data.europa.eu/949/concepts/op-types/rinf/20,20,http://publications.europa.eu/resource/authority/country/POL,20,small station
http://data.europa.eu/949/functionalInfrastructure/operationalPoints/6b98eb59477a3077e9cb7d5fc704dc868f1e08f6,http://data.europa.eu/949/functionalInfrastructure/operationalPoints/PL05280,PL05280,Turoszów,50.942399,14.910162,http://data.europa.eu/949/concepts/op-types/rinf/20,20,http://publications.europa.eu/resource/authority/country/POL,20,small station
http://data.europa.eu/949/functionalInfrastructure/operationalPoints/6bf567205fb9883f7edd162ca45e59b88c0b25df,http://data.europa.eu/949/functionalInfrastructure/operationalPoints/PL02346,PL02346,Śniadowo,53.043807,21.989755,http://data.europa.eu/949/concepts/op-types/rinf/20,20,http://publications.europa.eu/resource/authority/country/POL,20,small station
http://data.europa.eu/949/functionalInfrastructure/operationalPoints/6cc5537266584782959a759343caafb4b53a3797,http://data.europa.eu/949/functionalInfrastructure/operationalPoints/PL07677,PL07677,Milówka,49.55585,19.093788,http://data.europa.eu/949/concepts/op-types/rinf/20,20,http://publications.europa.eu/resource/authority/country/POL,20,small station
http://data.europa.eu/949/functionalInfrastructure/operationalPoints/70aa61b6747eb701a5f3e2b1517bc0879aab7f04,http://data.europa.eu/949/functionalInfrastructure/operationalPoints/PL08098,PL08098,Tuchów,49.892008,21.056868,http://data.europa.eu/949/concepts/op-types/rinf/20,20,http://publications.europa.eu/resource/authority/country/POL,20,small station
http://data.europa.eu/949/functionalInfrastructure/operationalPoints/710d67ac6173d60b4b44d0b23d4ef00d1b17f807,http://data.europa.eu/949/functionalInfrastructure/operationalPoints/PL08066,PL08066,Bogumiłowice,50.007541,20.869898,http://data.europa.eu/949/concepts/op-types/rinf/20,20,http://publications.europa.eu/resource/authority/country/POL,20,small station
http://data.europa.eu/949/functionalInfrastructure/operationalPoints/799849e5d7a2a947bd7a03a3075da3a0c22286f0,http://data.europa.eu/949/functionalInfrastructure/operationalPoints/PL02423,PL02423,Czarna Białostocka,53.305913,23.28017,http://data.europa.eu/949/concepts/op-types/rinf/20,20,http://publications.europa.eu/resource/authority/country/POL,20,small station
http://data.europa.eu/949/functionalInfrastructure/operationalPoints/7cf9da0b820f7ee4ddfca9708d1f150515e60ba4,http://data.europa.eu/949/functionalInfrastructure/operationalPoints/PL02918,PL02918,Dobiegniew,52.968332,15.747243,http://data.europa.eu/949/concepts/op-types/rinf/20,20,http://publications.europa.eu/resource/authority/country/POL,20,small station
http://data.europa.eu/949/functionalInfrastructure/operationalPoints/7d44a5b6329ed6b0cccd94467eeef6555087a025,http://data.europa.eu/949/functionalInfrastructure/operationalPoints/PL01195,PL01195,Olecko,54.034713,22.494327,http://data.europa.eu/949/concepts/op-types/rinf/20,20,http://publications.europa.eu/resource/authority/country/POL,20,small station
http://data.europa.eu/949/functionalInfrastructure/operationalPoints/7e3f366a5b28ab8bc982744313b3028b1635c375,http://data.europa.eu/949/functionalInfrastructure/operationalPoints/PL07105,PL07105,Radzionków,50.40888,18.915155,http://data.europa.eu/949/concepts/op-types/rinf/20,20,http://publications.europa.eu/resource/authority/country/POL,20,small station
http://data.europa.eu/949/functionalInfrastructure/operationalPoints/7e770b31c2a919e2fd93d75a20871ad393045e2a,http://data.europa.eu/949/functionalInfrastructure/operationalPoints/PL06597,PL06597,Ruskie Piaski,50.801586,23.095614,http://data.europa.eu/949/concepts/op-types/rinf/20,20,http://publications.europa.eu/resource/authority/country/POL,20,small station
http://data.europa.eu/949/functionalInfrastructure/operationalPoints/7f7ebe105ac7c21c73688460cf7c71bc43394636,http://data.europa.eu/949/functionalInfrastructure/operationalPoints/PL08360,PL08360,Sanok,49.55316,22.210903,http://data.europa.eu/949/concepts/op-types/rinf/20,20,http://publications.europa.eu/resource/authority/country/POL,20,small station
http://data.europa.eu/949/functionalInfrastructure/operationalPoints/8065854b4c11036242a378891b38b363f3cc76b8,http://data.europa.eu/949/functionalInfrastructure/operationalPoints/PL04482,PL04482,Witaszyce,51.936478,17.560431,http://data.europa.eu/949/concepts/op-types/rinf/20,20,http://publications.europa.eu/resource/authority/country/POL,20,small station
http://data.europa.eu/949/functionalInfrastructure/operationalPoints/819f1dc883e0c03cd706771aeb53c003da4d89f8,http://data.europa.eu/949/functionalInfrastructure/operationalPoints/PL01430,PL01430,Strzelce Krajeńskie Wschód,52.836733,15.584331,http://data.europa.eu/949/concepts/op-types/rinf/20,20,http://publications.europa.eu/resource/authority/country/POL,20,small station
http://data.europa.eu/949/functionalInfrastructure/operationalPoints/82dbf172ca07f4af2c748a7cd04480b70118e90a,http://data.europa.eu/949/functionalInfrastructure/operationalPoints/PL03336,PL03336,Cienin,52.272459,17.967368,http://data.europa.eu/949/concepts/op-types/rinf/20,20,http://publications.europa.eu/resource/authority/country/POL,20,small station
http://data.europa.eu/949/functionalInfrastructure/operationalPoints/8621d00866d32cfdcf0753c3d7ddf1fbcc8bf784,http://data.europa.eu/949/functionalInfrastructure/operationalPoints/PL03225,PL03225,Kłodawa,52.227356,18.890572,http://data.europa.eu/949/concepts/op-types/rinf/20,20,http://publications.europa.eu/resource/authority/country/POL,20,small station
http://data.europa.eu/949/functionalInfrastructure/operationalPoints/888a4c00d1a2be7e42509e972746ce16b937814f,http://data.europa.eu/949/functionalInfrastructure/operationalPoints/PL01618,PL01618,Chodzież,52.993823,16.909491,http://data.europa.eu/949/concepts/op-types/rinf/20,20,http://publications.europa.eu/resource/authority/country/POL,20,small station
http://data.europa.eu/949/functionalInfrastructure/operationalPoints/8b497b8b15e67119a8550b1c1bd5a4a509c48414,http://data.europa.eu/949/functionalInfrastructure/operationalPoints/PL05323,PL05323,Raszówka,51.301983,16.181699,http://data.europa.eu/949/concepts/op-types/rinf/20,20,http://publications.europa.eu/resource/authority/country/POL,20,small station
http://data.europa.eu/949/functionalInfrastructure/operationalPoints/8e939af59da067851383dcc406a5eac39863b985,http://data.europa.eu/949/functionalInfrastructure/operationalPoints/PL04657,PL04657,Łódź Lublinek,51.72087,19.35926,http://data.europa.eu/949/concepts/op-types/rinf/20,20,http://publications.europa.eu/resource/authority/country/POL,20,small station
http://data.europa.eu/949/functionalInfrastructure/operationalPoints/90b3dc235112172be88371907f2ad95877ee4d86,http://data.europa.eu/949/functionalInfrastructure/operationalPoints/PL02919,PL02919,Bierzwnik,53.024325,15.657502,http://data.europa.eu/949/concepts/op-types/rinf/20,20,http://publications.europa.eu/resource/authority/country/POL,20,small station
http://data.europa.eu/949/functionalInfrastructure/operationalPoints/90d84b44b0e674b6edcc9a4f896f11b61a942026,http://data.europa.eu/949/functionalInfrastructure/operationalPoints/PL00247,PL00247,Recz Pomorski,53.270626,15.561292,http://data.europa.eu/949/concepts/op-types/rinf/20,20,http://publications.europa.eu/resource/authority/country/POL,20,small station
http://data.europa.eu/949/functionalInfrastructure/operationalPoints/9241629b1de6e7d1e5c9fe6417b9aa5db4a51352,http://data.europa.eu/949/functionalInfrastructure/operationalPoints/PL00822,PL00822,Gronowo Elbląskie,54.089612,19.305163,http://data.europa.eu/949/concepts/op-types/rinf/20,20,http://publications.europa.eu/resource/authority/country/POL,20,small station
http://data.europa.eu/949/functionalInfrastructure/operationalPoints/94e3d76c85f9841c03d5affaab21ddb63f12cdd6,http://data.europa.eu/949/functionalInfrastructure/operationalPoints/PL07146,PL07146,Pludry,50.664775,18.469847,http://data.europa.eu/949/concepts/op-types/rinf/20,20,http://publications.europa.eu/resource/authority/country/POL,20,small station
http://data.europa.eu/949/functionalInfrastructure/operationalPoints/95c760acba2ca8890ff87b32e345a0ad1992310a,http://data.europa.eu/949/functionalInfrastructure/operationalPoints/PL00414,PL00414,Dygowo,54.140855,15.726891,http://data.europa.eu/949/concepts/op-types/rinf/20,20,http://publications.europa.eu/resource/authority/country/POL,20,small station
http://data.europa.eu/949/functionalInfrastructure/operationalPoints/969ac2fbc38bef4241fc841e16dfbf6086852010,http://data.europa.eu/949/functionalInfrastructure/operationalPoints/PL04664,PL04664,Łask,51.603691,19.111985,http://data.europa.eu/949/concepts/op-types/rinf/20,20,http://publications.europa.eu/resource/authority/country/POL,20,small station
http://data.europa.eu/949/functionalInfrastructure/operationalPoints/9907292c2c16268f05c3eead3cb8f7d543861aea,http://data.europa.eu/949/functionalInfrastructure/operationalPoints/PL02007,PL02007,Toruń Północny,53.034516,18.588455,http://data.europa.eu/949/concepts/op-types/rinf/20,20,http://publications.europa.eu/resource/authority/country/POL,20,small station
http://data.europa.eu/949/functionalInfrastructure/operationalPoints/9c326aa9f01c95918500ffda3b5a836a1be20fdd,http://data.europa.eu/949/functionalInfrastructure/operationalPoints/PL06796,PL06796,Krzyżanowice,49.989131,18.275983,http://data.europa.eu/949/concepts/op-types/rinf/20,20,http://publications.europa.eu/resource/authority/country/POL,20,small station
http://data.europa.eu/949/functionalInfrastructure/operationalPoints/9f92ae7ae051e37f686ceebd760497ceea40210b,http://data.europa.eu/949/functionalInfrastructure/operationalPoints/PL02986,PL02986,Bolechowo,52.539775,16.979085,http://data.europa.eu/949/concepts/op-types/rinf/20,20,http://publications.europa.eu/resource/authority/country/POL,20,small station
http://data.europa.eu/949/functionalInfrastructure/operationalPoints/9faa2f8d914bfe6dc408f68b4176cfb209a798f3,http://data.europa.eu/949/functionalInfrastructure/operationalPoints/PL02153,PL02153,Nieszawa Waganiec,52.803184,18.870093,http://data.europa.eu/949/concepts/op-types/rinf/20,20,http://publications.europa.eu/resource/authority/country/POL,20,small station
http://data.europa.eu/949/functionalInfrastructure/operationalPoints/a0ba19479e29b098a235325a67a2156bec4477e0,http://data.europa.eu/949/functionalInfrastructure/operationalPoints/PL00544,PL00544,Luzino,54.56723,18.103611,http://data.europa.eu/949/concepts/op-types/rinf/20,20,http://publications.europa.eu/resource/authority/country/POL,20,small station
http://data.europa.eu/949/functionalInfrastructure/operationalPoints/a0f395157a22c60a98d9f8875ef52917e6825dec,http://data.europa.eu/949/functionalInfrastructure/operationalPoints/PL03042,PL03042,Puszczykówko,52.272993,16.86382,http://data.europa.eu/949/concepts/op-types/rinf/20,20,http://publications.europa.eu/resource/authority/country/POL,20,small station
http://data.europa.eu/949/functionalInfrastructure/operationalPoints/a7efe3622bedcbe9da7322b0da07001f00a21d99,http://data.europa.eu/949/functionalInfrastructure/operationalPoints/PL07206,PL07206,Boronów,50.666281,18.900667,http://data.europa.eu/949/concepts/op-types/rinf/20,20,http://publications.europa.eu/resource/authority/country/POL,20,small station
http://data.europa.eu/949/functionalInfrastructure/operationalPoints/aa8548b609daf8501af8bf4ccb7965bc8989f0df,http://data.europa.eu/949/functionalInfrastructure/operationalPoints/PL07856,PL07856,Osielec,49.674649,19.756599,http://data.europa.eu/949/concepts/op-types/rinf/20,20,http://publications.europa.eu/resource/authority/country/POL,20,small station
http://data.europa.eu/949/functionalInfrastructure/operationalPoints/aee206b34d16b4d9679a180c610a8b0588b2b13c,http://data.europa.eu/949/functionalInfrastructure/operationalPoints/PL04916,PL04916,Rożki,51.338071,21.053248,http://data.europa.eu/949/concepts/op-types/rinf/20,20,http://publications.europa.eu/resource/authority/country/POL,20,small station
http://data.europa.eu/949/functionalInfrastructure/operationalPoints/b12f5967cfced800f59dd9d98e72cb1a0b9cc12c,http://data.europa.eu/949/functionalInfrastructure/operationalPoints/PL11520,PL11520,Rzochów,50.235822,21.498109,http://data.europa.eu/949/concepts/op-types/rinf/20,20,http://publications.europa.eu/resource/authority/country/POL,20,small station
http://data.europa.eu/949/functionalInfrastructure/operationalPoints/b345e5ca35243e6175fa1b5b17a507eb913c2282,http://data.europa.eu/949/functionalInfrastructure/operationalPoints/PL01003,PL01003,Sątopy-Samulewo,54.073447,21.02425,http://data.europa.eu/949/concepts/op-types/rinf/20,20,http://publications.europa.eu/resource/authority/country/POL,20,small station
http://data.europa.eu/949/functionalInfrastructure/operationalPoints/bb9dc9a4366c2e6387ad80bba5a31f57793d5b2e,http://data.europa.eu/949/functionalInfrastructure/operationalPoints/PL01451,PL01451,Wyrzysk Osiek,53.119041,17.292595,http://data.europa.eu/949/concepts/op-types/rinf/20,20,http://publications.europa.eu/resource/authority/country/POL,20,small station
http://data.europa.eu/949/functionalInfrastructure/operationalPoints/bed3fcaaf40857d797f95c9e888d5c52b8253853,http://data.europa.eu/949/functionalInfrastructure/operationalPoints/PL08095,PL08095,Łowczówek Pleśna,49.9283,20.949637,http://data.europa.eu/949/concepts/op-types/rinf/20,20,http://publications.europa.eu/resource/authority/country/POL,20,small station
http://data.europa.eu/949/functionalInfrastructure/operationalPoints/bffc9fbbcb32f79e1113b5544d0c802c292a93b5,http://data.europa.eu/949/functionalInfrastructure/operationalPoints/PL00070,PL00070,Police,53.549661,14.566036,http://data.europa.eu/949/concepts/op-types/rinf/20,20,http://publications.europa.eu/resource/authority/country/POL,20,small station
http://data.europa.eu/949/functionalInfrastructure/operationalPoints/c550cec68adb1f2bbc3bb66012993b6820ef25cc,http://data.europa.eu/949/functionalInfrastructure/operationalPoints/PL01888,PL01888,Inowrocław Mątwy,52.753662,18.253062,http://data.europa.eu/949/concepts/op-types/rinf/20,20,http://publications.europa.eu/resource/authority/country/POL,20,small station
http://data.europa.eu/949/functionalInfrastructure/operationalPoints/c770a9280673201550c20216dbd6677d5b00abf2,http://data.europa.eu/949/functionalInfrastructure/operationalPoints/PL01403,PL01403,Nowiny Wielkie,52.672682,15.002885,http://data.europa.eu/949/concepts/op-types/rinf/20,20,http://publications.europa.eu/resource/authority/country/POL,20,small station
http://data.europa.eu/949/functionalInfrastructure/operationalPoints/c84f33d992ff6a5df0af9d136af7a14be113e27f,http://data.europa.eu/949/functionalInfrastructure/operationalPoints/PL04850,PL04850,Warka,51.794041,21.168369,http://data.europa.eu/949/concepts/op-types/rinf/20,20,http://publications.europa.eu/resource/authority/country/POL,20,small station
http://data.europa.eu/949/functionalInfrastructure/operationalPoints/ccf0c3c9a2a2c66fe35d092fd00e05cb626fd0aa,http://data.europa.eu/949/functionalInfrastructure/operationalPoints/PL05967,PL05967,Milicz,51.527325,17.295016,http://data.europa.eu/949/concepts/op-types/rinf/20,20,http://publications.europa.eu/resource/authority/country/POL,20,small station
http://data.europa.eu/949/functionalInfrastructure/operationalPoints/cef939d2c096063a627e1fcfb5f81a8ce14575ad,http://data.europa.eu/949/functionalInfrastructure/operationalPoints/PL03238,PL03238,Łąck,52.48684,19.595812,http://data.europa.eu/949/concepts/op-types/rinf/20,20,http://publications.europa.eu/resource/authority/country/POL,20,small station
http://data.europa.eu/949/functionalInfrastructure/operationalPoints/cf1292bb9602e187fdd3ae5fada7f62fe26995f6,http://data.europa.eu/949/functionalInfrastructure/operationalPoints/PL05454,PL05454,Wałbrzych Szczawienko,50.815992,16.30211,http://data.europa.eu/949/concepts/op-types/rinf/20,20,http://publications.europa.eu/resource/authority/country/POL,20,small station
http://data.europa.eu/949/functionalInfrastructure/operationalPoints/d051d320e06792f541368679e81092a7ae2157bd,http://data.europa.eu/949/functionalInfrastructure/operationalPoints/PL05933,PL05933,Długołęka,51.178368,17.194053,http://data.europa.eu/949/concepts/op-types/rinf/20,20,http://publications.europa.eu/resource/authority/country/POL,20,small station
http://data.europa.eu/949/functionalInfrastructure/operationalPoints/d082e98f96c356c6cb34d833d366ef9948fa369a,http://data.europa.eu/949/functionalInfrastructure/operationalPoints/PL03096,PL03096,Pobiedziska,52.479174,17.27731,http://data.europa.eu/949/concepts/op-types/rinf/20,20,http://publications.europa.eu/resource/authority/country/POL,20,small station
http://data.europa.eu/949/functionalInfrastructure/operationalPoints/d1ae4a0350d6a0abc48af86b8783ace189312e96,http://data.europa.eu/949/functionalInfrastructure/operationalPoints/PL07627,PL07627,Andrychów,49.855549,19.352474,http://data.europa.eu/949/concepts/op-types/rinf/20,20,http://publications.europa.eu/resource/authority/country/POL,20,small station
http://data.europa.eu/949/functionalInfrastructure/operationalPoints/d67c43172a9095c3cd90e98ceeaa77d0c66e7321,http://data.europa.eu/949/functionalInfrastructure/operationalPoints/PL03082,PL03082,Gniezno Winiary,52.559705,17.611357,http://data.europa.eu/949/concepts/op-types/rinf/20,20,http://publications.europa.eu/resource/authority/country/POL,20,small station
http://data.europa.eu/949/functionalInfrastructure/operationalPoints/d83839c40acbeb08d663667a6e891d167086a01c,http://data.europa.eu/949/functionalInfrastructure/operationalPoints/PL03347,PL03347,Warszawa Główna,52.224046,20.980866,http://data.europa.eu/949/concepts/op-types/rinf/20,20,http://publications.europa.eu/resource/authority/country/POL,20,small station
http://data.europa.eu/949/functionalInfrastructure/operationalPoints/dec26530e245c96aea22de21151e48f15a6147df,http://data.europa.eu/949/functionalInfrastructure/operationalPoints/PL02314,PL02314,Sadlinki,53.667334,18.88063,http://data.europa.eu/949/concepts/op-types/rinf/20,20,http://publications.europa.eu/resource/authority/country/POL,20,small station
http://data.europa.eu/949/functionalInfrastructure/operationalPoints/e23cb8a678a14754ad7ccd0f4887ba54896a3507,http://data.europa.eu/949/functionalInfrastructure/operationalPoints/PL11920,PL11920,Zegrze Południowe,52.452019,21.008461,http://data.europa.eu/949/concepts/op-types/rinf/20,20,http://publications.europa.eu/resource/authority/country/POL,20,small station
http://data.europa.eu/949/functionalInfrastructure/operationalPoints/e28d5e06379e684b9a21f673671746a1d0cf619d,http://data.europa.eu/949/functionalInfrastructure/operationalPoints/PL02209,PL02209,Biesal,53.72029,20.194014,http://data.europa.eu/949/concepts/op-types/rinf/20,20,http://publications.europa.eu/resource/authority/country/POL,20,small station
http://data.europa.eu/949/functionalInfrastructure/operationalPoints/e544e6e7a538996f92693bf5b8a03f1557376d4c,http://data.europa.eu/949/functionalInfrastructure/operationalPoints/PL04034,PL04034,Góra Kalwaria,51.989574,21.194511,http://data.europa.eu/949/concepts/op-types/rinf/20,20,http://publications.europa.eu/resource/authority/country/POL,20,small station
http://data.europa.eu/949/functionalInfrastructure/operationalPoints/e558786dfe14607bc7b4095fd4a68176d2d3b3d1,http://data.europa.eu/949/functionalInfrastructure/operationalPoints/PL01800,PL01800,Kartuzy,54.33472,18.206542,http://data.europa.eu/949/concepts/op-types/rinf/20,20,http://publications.europa.eu/resource/authority/country/POL,20,small station
http://data.europa.eu/949/functionalInfrastructure/operationalPoints/e5d38b0b40a8184bf3f07e9ff77486e3da079fe7,http://data.europa.eu/949/functionalInfrastructure/operationalPoints/PL00580,PL00580,Gdynia Port,54.544446,18.485689,http://data.europa.eu/949/concepts/op-types/rinf/20,20,http://publications.europa.eu/resource/authority/country/POL,20,small station
http://data.europa.eu/949/functionalInfrastructure/operationalPoints/e92d11314c4d6d610ff99debbfa2ee0296260367,http://data.europa.eu/949/functionalInfrastructure/operationalPoints/PL00823,PL00823,Elbląg Zdrój,54.180737,19.387915,http://data.europa.eu/949/concepts/op-types/rinf/20,20,http://publications.europa.eu/resource/authority/country/POL,20,small station
http://data.europa.eu/949/functionalInfrastructure/operationalPoints/eb5beae54b9efbe5b8de51f4e60bd3e1e0a969b6,http://data.europa.eu/949/functionalInfrastructure/operationalPoints/PL04278,PL04278,Poniec,51.761511,16.808105,http://data.europa.eu/949/concepts/op-types/rinf/20,20,http://publications.europa.eu/resource/authority/country/POL,20,small station
http://data.europa.eu/949/functionalInfrastructure/operationalPoints/ed0cd384a339a9c407037df7924f4c1e00da9f73,http://data.europa.eu/949/functionalInfrastructure/operationalPoints/PL06640,PL06640,Biłgoraj,50.551456,22.731696,http://data.europa.eu/949/concepts/op-types/rinf/20,20,http://publications.europa.eu/resource/authority/country/POL,20,small station
http://data.europa.eu/949/functionalInfrastructure/operationalPoints/f362e54414598aa7a9427669eedc774e7f479c71,http://data.europa.eu/949/functionalInfrastructure/operationalPoints/PL03444,PL03444,Teresin Niepokalanów,52.202056,20.416887,http://data.europa.eu/949/concepts/op-types/rinf/20,20,http://publications.europa.eu/resource/authority/country/POL,20,small station
http://data.europa.eu/949/functionalInfrastructure/operationalPoints/f7cfff5fca28279662bf2fbb623796755c0c01e4,http://data.europa.eu/949/functionalInfrastructure/operationalPoints/PL03243,PL03243,Żychlin,52.213298,19.617546,http://data.europa.eu/949/concepts/op-types/rinf/20,20,http://publications.europa.eu/resource/authority/country/POL,20,small station
http://data.europa.eu/949/functionalInfrastructure/operationalPoints/f8a6104e565bcc4eacc7d04bbbfc7e86aee59fc0,http://data.europa.eu/949/functionalInfrastructure/operationalPoints/PL03658,PL03658,Wieliszew,52.428157,20.974803,http://data.europa.eu/949/concepts/op-types/rinf/20,20,http://publications.europa.eu/resource/authority/country/POL,20,small station
http://data.europa.eu/949/functionalInfrastructure/operationalPoints/f919451da69183a34d4c69f52ca52c6247343e60,http://data.europa.eu/949/functionalInfrastructure/operationalPoints/PL04680,PL04680,Zgierz,51.849497,19.42582,http://data.europa.eu/949/concepts/op-types/rinf/20,20,http://publications.europa.eu/resource/authority/country/POL,20,small station
http://data.europa.eu/949/functionalInfrastructure/operationalPoints/fc412f0863429d892d2d261014e6bf9460c9af03,http://data.europa.eu/949/functionalInfrastructure/operationalPoints/PL00085,PL00085,Gryfino,53.254522,14.492952,http://data.europa.eu/949/concepts/op-types/rinf/20,20,http://publications.europa.eu/resource/authority/country/POL,20,small station
http://data.europa.eu/949/functionalInfrastructure/operationalPoints/013ad8717e9bbb68acfdcf6634d1de6394e5e038,http://data.europa.eu/949/functionalInfrastructure/operationalPoints/PL05026,PL05026,Sarnów koło Wysokiego Koła,51.47291,21.759299,http://data.europa.eu/949/concepts/op-types/rinf/20,20,http://publications.europa.eu/resource/authority/country/POL,20,small station
http://data.europa.eu/949/functionalInfrastructure/operationalPoints/02970e3e9597b41e50754e871ee32ef1e77f2475,http://data.europa.eu/949/functionalInfrastructure/operationalPoints/PL03888,PL03888,Otwock,52.108565,21.264401,http://data.europa.eu/949/concepts/op-types/rinf/20,20,http://publications.europa.eu/resource/authority/country/POL,20,small station
http://data.europa.eu/949/functionalInfrastructure/operationalPoints/02d6bb24ad52c3a43f5000a0e98d6bdecad83361,http://data.europa.eu/949/functionalInfrastructure/operationalPoints/PL02756,PL02756,Budachów,52.152894,15.081709,http://data.europa.eu/949/concepts/op-types/rinf/20,20,http://publications.europa.eu/resource/authority/country/POL,20,small station
http://data.europa.eu/949/functionalInfrastructure/operationalPoints/03f89295a3633e18024e2972855405d775603317,http://data.europa.eu/949/functionalInfrastructure/operationalPoints/PL02922,PL02922,Wieleń,52.907409,16.179972,http://data.europa.eu/949/concepts/op-types/rinf/20,20,http://publications.europa.eu/resource/authority/country/POL,20,small station
http://data.europa.eu/949/functionalInfrastructure/operationalPoints/0641f25e5afcbeb1c80fa2f6fe6298079bea994c,http://data.europa.eu/949/functionalInfrastructure/operationalPoints/PL07154,PL07154,Sowczyce,50.846439,18.500431,http://data.europa.eu/949/concepts/op-types/rinf/20,20,http://publications.europa.eu/resource/authority/country/POL,20,small station
http://data.europa.eu/949/functionalInfrastructure/operationalPoints/06d465a06d75ff5ce10629702bb110c33579f9e5,http://data.europa.eu/949/functionalInfrastructure/operationalPoints/PL01917,PL01917,Babiak,52.353594,18.670253,http://data.europa.eu/949/concepts/op-types/rinf/20,20,http://publications.europa.eu/resource/authority/country/POL,20,small station
http://data.europa.eu/949/functionalInfrastructure/operationalPoints/0acb1132a419b8621aead3367a58a576aac039da,http://data.europa.eu/949/functionalInfrastructure/operationalPoints/PL02390,PL02390,Ostrów Mazowiecka,52.826142,21.885961,http://data.europa.eu/949/concepts/op-types/rinf/20,20,http://publications.europa.eu/resource/authority/country/POL,20,small station
http://data.europa.eu/949/functionalInfrastructure/operationalPoints/0f52bf0cc26f65a52ebe3df002f7eff5976f47c0,http://data.europa.eu/949/functionalInfrastructure/operationalPoints/PL07579,PL07579,Chybie,49.893064,18.811608,http://data.europa.eu/949/concepts/op-types/rinf/20,20,http://publications.europa.eu/resource/authority/country/POL,20,small station
http://data.europa.eu/949/functionalInfrastructure/operationalPoints/0fc527bc253fdb8b64ac2bc39e244b58d6f0f36e,http://data.europa.eu/949/functionalInfrastructure/operationalPoints/PL05121,PL05121,Krasnystaw Fabryczny,51.02443,23.182781,http://data.europa.eu/949/concepts/op-types/rinf/20,20,http://publications.europa.eu/resource/authority/country/POL,20,small station
http://data.europa.eu/949/functionalInfrastructure/operationalPoints/10190f4385b82daebdf294a0de901cf627fcec5a,http://data.europa.eu/949/functionalInfrastructure/operationalPoints/PL04312,PL04312,Granowo Nowotomyskie,52.225547,16.530007,http://data.europa.eu/949/concepts/op-types/rinf/20,20,http://publications.europa.eu/resource/authority/country/POL,20,small station
http://data.europa.eu/949/functionalInfrastructure/operationalPoints/1079cd9eca6db171ad68ca75f4381d57e02cfc60,http://data.europa.eu/949/functionalInfrastructure/operationalPoints/PL05194,PL05194,Pieńsk,51.245324,15.047055,http://data.europa.eu/949/concepts/op-types/rinf/20,20,http://publications.europa.eu/resource/authority/country/POL,20,small station
http://data.europa.eu/949/functionalInfrastructure/operationalPoints/121c37bfe1aae7ec85a6bbcccc5e2992d3490b1b,http://data.europa.eu/949/functionalInfrastructure/operationalPoints/PL02544,PL02544,Narewka,52.868538,23.73757,http://data.europa.eu/949/concepts/op-types/rinf/20,20,http://publications.europa.eu/resource/authority/country/POL,20,small station
http://data.europa.eu/949/functionalInfrastructure/operationalPoints/130b37ff723c44ea7938808a61507b8a9944a197,http://data.europa.eu/949/functionalInfrastructure/operationalPoints/PL06207,PL06207,Otmice,50.551226,18.12374,http://data.europa.eu/949/concepts/op-types/rinf/20,20,http://publications.europa.eu/resource/authority/country/POL,20,small station
http://data.europa.eu/949/functionalInfrastructure/operationalPoints/13652fd86099350190332418c46709b648e801a8,http://data.europa.eu/949/functionalInfrastructure/operationalPoints/PL06472,PL06472,Ludynia,50.852034,20.162692,http://data.europa.eu/949/concepts/op-types/rinf/20,20,http://publications.europa.eu/resource/authority/country/POL,20,small station
http://data.europa.eu/949/functionalInfrastructure/operationalPoints/13909d008885cd6172e6cb7b582971140cc773d6,http://data.europa.eu/949/functionalInfrastructure/operationalPoints/PL00350,PL00350,Łobez,53.63661,15.627778,http://data.europa.eu/949/concepts/op-types/rinf/20,20,http://publications.europa.eu/resource/authority/country/POL,20,small station
http://data.europa.eu/949/functionalInfrastructure/operationalPoints/13d2b3c5f462f94f5d74b2e79f6876e87c4d1510,http://data.europa.eu/949/functionalInfrastructure/operationalPoints/PL08395,PL08395,Krościenko,49.475234,22.661083,http://data.europa.eu/949/concepts/op-types/rinf/20,20,http://publications.europa.eu/resource/authority/country/POL,20,small station
http://data.europa.eu/949/functionalInfrastructure/operationalPoints/150df54bd13141e28ed1edac27c8a4d6d60545b6,http://data.europa.eu/949/functionalInfrastructure/operationalPoints/PL02960,PL02960,Oborniki Wielkopolskie,52.657426,16.829538,http://data.europa.eu/949/concepts/op-types/rinf/20,20,http://publications.europa.eu/resource/authority/country/POL,20,small station
http://data.europa.eu/949/functionalInfrastructure/operationalPoints/162f8007b7dbe40e9654fc0b72bbc1e716dfc553,http://data.europa.eu/949/functionalInfrastructure/operationalPoints/PL08486,PL08486,Werchrata,50.248127,23.485939,http://data.europa.eu/949/concepts/op-types/rinf/20,20,http://publications.europa.eu/resource/authority/country/POL,20,small station
http://data.europa.eu/949/functionalInfrastructure/operationalPoints/197d2286fa70f2845522079df435d5a42878ea23,http://data.europa.eu/949/functionalInfrastructure/operationalPoints/PL08392,PL08392,Uherce,49.465208,22.399674,http://data.europa.eu/949/concepts/op-types/rinf/20,20,http://publications.europa.eu/resource/authority/country/POL,20,small station
http://data.europa.eu/949/functionalInfrastructure/operationalPoints/1988b5e5f47d6fb7898ac90a20045a28176ab534,http://data.europa.eu/949/functionalInfrastructure/operationalPoints/PL06174,PL06174,Szymiszów,50.528418,18.223608,http://data.europa.eu/949/concepts/op-types/rinf/20,20,http://publications.europa.eu/resource/authority/country/POL,20,small station
http://data.europa.eu/949/functionalInfrastructure/operationalPoints/1ad9f00a24f48cacbc702ad3fa03516a82422744,http://data.europa.eu/949/functionalInfrastructure/operationalPoints/PL00351,PL00351,Chociwel,53.470687,15.33588,http://data.europa.eu/949/concepts/op-types/rinf/20,20,http://publications.europa.eu/resource/authority/country/POL,20,small station
http://data.europa.eu/949/functionalInfrastructure/operationalPoints/1c0e6a2e9fddfbe8dc58f52e669f65c96f59e147,http://data.europa.eu/949/functionalInfrastructure/operationalPoints/PL07646,PL07646,Bielsko-Biała Wapienica,49.810999,18.98074,http://data.europa.eu/949/concepts/op-types/rinf/20,20,http://publications.europa.eu/resource/authority/country/POL,20,small station
http://data.europa.eu/949/functionalInfrastructure/operationalPoints/1c446efd02c63a90e2c85f3fd9920ba836814446,http://data.europa.eu/949/functionalInfrastructure/operationalPoints/PL04880,PL04880,Przysucha,51.378042,20.65873,http://data.europa.eu/949/concepts/op-types/rinf/20,20,http://publications.europa.eu/resource/authority/country/POL,20,small station
http://data.europa.eu/949/functionalInfrastructure/operationalPoints/1c79cff8245b01fe49010abe1b361423d5c448f9,http://data.europa.eu/949/functionalInfrastructure/operationalPoints/PL03645,PL03645,Nowy Dwór Mazowiecki,52.425207,20.72482,http://data.europa.eu/949/concepts/op-types/rinf/20,20,http://publications.europa.eu/resource/authority/country/POL,20,small station
http://data.europa.eu/949/functionalInfrastructure/operationalPoints/1d9b2673db302ebf204d9e4d11f462f3ad2ccfc7,http://data.europa.eu/949/functionalInfrastructure/operationalPoints/PL07663,PL07663,Żywiec Sporysz,49.676071,19.223162,http://data.europa.eu/949/concepts/op-types/rinf/20,20,http://publications.europa.eu/resource/authority/country/POL,20,small station
http://data.europa.eu/949/functionalInfrastructure/operationalPoints/217c5e6cbca8603cf061de872a14934dc61acc31,http://data.europa.eu/949/functionalInfrastructure/operationalPoints/PL04404,PL04404,Biadki,51.676976,17.567344,http://data.europa.eu/949/concepts/op-types/rinf/20,20,http://publications.europa.eu/resource/authority/country/POL,20,small station
http://data.europa.eu/949/functionalInfrastructure/operationalPoints/2181f4597e8f78fcd83bcff22ea855ff944fa987,http://data.europa.eu/949/functionalInfrastructure/operationalPoints/PL08205,PL08205,Nowy Sącz Biegonice,49.585832,20.660198,http://data.europa.eu/949/concepts/op-types/rinf/20,20,http://publications.europa.eu/resource/authority/country/POL,20,small station
http://data.europa.eu/949/functionalInfrastructure/operationalPoints/225c25a860cc9f4e05bd416a0dfd0f78c92582e8,http://data.europa.eu/949/functionalInfrastructure/operationalPoints/PL00302,PL00302,Łubowo,53.583872,16.389595,http://data.europa.eu/949/concepts/op-types/rinf/20,20,http://publications.europa.eu/resource/authority/country/POL,20,small station
http://data.europa.eu/949/functionalInfrastructure/operationalPoints/245a78102bfbf9470fecc905078a27b334cc6e81,http://data.europa.eu/949/functionalInfrastructure/operationalPoints/PL07576,PL07576,Pierściec,49.830391,18.81338,http://data.europa.eu/949/concepts/op-types/rinf/20,20,http://publications.europa.eu/resource/authority/country/POL,20,small station
http://data.europa.eu/949/functionalInfrastructure/operationalPoints/24e263c73d4bf1a8a4a40942db8b59ce97dfe256,http://data.europa.eu/949/functionalInfrastructure/operationalPoints/PL01144,PL01144,Młynary,54.186668,19.745666,http://data.europa.eu/949/concepts/op-types/rinf/20,20,http://publications.europa.eu/resource/authority/country/POL,20,small station
http://data.europa.eu/949/functionalInfrastructure/operationalPoints/25e34d64e12bb53c3bc1b4c6e3e7378df3d9fe11,http://data.europa.eu/949/functionalInfrastructure/operationalPoints/PL07874,PL07874,Rabka Zaryte,49.626841,19.990517,http://data.europa.eu/949/concepts/op-types/rinf/20,20,http://publications.europa.eu/resource/authority/country/POL,20,small station
http://data.europa.eu/949/functionalInfrastructure/operationalPoints/267120a3a14b9dc7436212dccf480a8a86f5b41f,http://data.europa.eu/949/functionalInfrastructure/operationalPoints/PL00301,PL00301,Iwin,53.795016,16.515548,http://data.europa.eu/949/concepts/op-types/rinf/20,20,http://publications.europa.eu/resource/authority/country/POL,20,small station
http://data.europa.eu/949/functionalInfrastructure/operationalPoints/2960369ea9d07d21ea555a5eb00af6e0c8a57079,http://data.europa.eu/949/functionalInfrastructure/operationalPoints/PL05645,PL05645,Henryków,50.663428,17.029935,http://data.europa.eu/949/concepts/op-types/rinf/20,20,http://publications.europa.eu/resource/authority/country/POL,20,small station
http://data.europa.eu/949/functionalInfrastructure/operationalPoints/2a6abc6b35ba546ebec54947ed43614670e426d2,http://data.europa.eu/949/functionalInfrastructure/operationalPoints/PL06302,PL06302,Julianka,50.764677,19.473179,http://data.europa.eu/949/concepts/op-types/rinf/20,20,http://publications.europa.eu/resource/authority/country/POL,20,small station
http://data.europa.eu/949/functionalInfrastructure/operationalPoints/2b5a7ff5f787823cf4218bb7729c1592900a6d29,http://data.europa.eu/949/functionalInfrastructure/operationalPoints/PL04945,PL04945,Jakubowice,50.811028,21.664612,http://data.europa.eu/949/concepts/op-types/rinf/20,20,http://publications.europa.eu/resource/authority/country/POL,20,small station
http://data.europa.eu/949/functionalInfrastructure/operationalPoints/2b9734add57cf09ff4de246ecd0b7624f6ab5d8a,http://data.europa.eu/949/functionalInfrastructure/operationalPoints/PL01094,PL01094,Bogaczewo,54.100107,19.57313,http://data.europa.eu/949/concepts/op-types/rinf/20,20,http://publications.europa.eu/resource/authority/country/POL,20,small station
http://data.europa.eu/949/functionalInfrastructure/operationalPoints/2c5d9c54c919e995689075525b5468630ac64d27,http://data.europa.eu/949/functionalInfrastructure/operationalPoints/PL08470,PL08470,Munina,49.989649,22.71929,http://data.europa.eu/949/concepts/op-types/rinf/20,20,http://publications.europa.eu/resource/authority/country/POL,20,small station
http://data.europa.eu/949/functionalInfrastructure/operationalPoints/2c735268e6e12f66f9ea5cc8647f84bb5322979c,http://data.europa.eu/949/functionalInfrastructure/operationalPoints/PL00494,PL00494,Kępice,54.241491,16.890754,http://data.europa.eu/949/concepts/op-types/rinf/20,20,http://publications.europa.eu/resource/authority/country/POL,20,small station
http://data.europa.eu/949/functionalInfrastructure/operationalPoints/2cf2193465c48d5f2cfe76b292cdc132c436f139,http://data.europa.eu/949/functionalInfrastructure/operationalPoints/PL07368,PL07368,Sosnowiec Jęzor,50.240786,19.1951,http://data.europa.eu/949/concepts/op-types/rinf/20,20,http://publications.europa.eu/resource/authority/country/POL,20,small station
http://data.europa.eu/949/functionalInfrastructure/operationalPoints/2ebaf7a6b1b64cf0fd5ae14c2c734275b99f4fbc,http://data.europa.eu/949/functionalInfrastructure/operationalPoints/PL06523,PL06523,Lipa,50.690043,22.068062,http://data.europa.eu/949/concepts/op-types/rinf/20,20,http://publications.europa.eu/resource/authority/country/POL,20,small station
http://data.europa.eu/949/functionalInfrastructure/operationalPoints/2f35a8265a7351abb511a36724249b1efbc0e54b,http://data.europa.eu/949/functionalInfrastructure/operationalPoints/PL03160,PL03160,Kcynia,52.995268,17.500508,http://data.europa.eu/949/concepts/op-types/rinf/20,20,http://publications.europa.eu/resource/authority/country/POL,20,small station
http://data.europa.eu/949/functionalInfrastructure/operationalPoints/307b804027f9180425223bf1f5672f328e790b66,http://data.europa.eu/949/functionalInfrastructure/operationalPoints/PL01857,PL01857,Brzoza Bydgoska,53.028366,18.019399,http://data.europa.eu/949/concepts/op-types/rinf/20,20,http://publications.europa.eu/resource/authority/country/POL,20,small station
http://data.europa.eu/949/functionalInfrastructure/operationalPoints/318016b8ea40ae65ed201a1e840bdbe98451fa53,http://data.europa.eu/949/functionalInfrastructure/operationalPoints/PL07060,PL07060,Ruda Chebzie,50.303976,18.877819,http://data.europa.eu/949/concepts/op-types/rinf/20,20,http://publications.europa.eu/resource/authority/country/POL,20,small station
http://data.europa.eu/949/functionalInfrastructure/operationalPoints/356427e5d31c7c67015e55ba246f1102d602bafb,http://data.europa.eu/949/functionalInfrastructure/operationalPoints/PL00945,PL00945,Olsztynek,53.585076,20.295236,http://data.europa.eu/949/concepts/op-types/rinf/20,20,http://publications.europa.eu/resource/authority/country/POL,20,small station
http://data.europa.eu/949/functionalInfrastructure/operationalPoints/356c031a02494e1935f261ffcfd666a59e33f0ed,http://data.europa.eu/949/functionalInfrastructure/operationalPoints/PL01745,PL01745,Grupa,53.503923,18.629817,http://data.europa.eu/949/concepts/op-types/rinf/20,20,http://publications.europa.eu/resource/authority/country/POL,20,small station
http://data.europa.eu/949/functionalInfrastructure/operationalPoints/361b24ed16fb4caa6c5b52b0d69bed904c413e4c,http://data.europa.eu/949/functionalInfrastructure/operationalPoints/PL02589,PL02589,Jerzmanice Lubuskie,52.306626,14.867475,http://data.europa.eu/949/concepts/op-types/rinf/20,20,http://publications.europa.eu/resource/authority/country/POL,20,small station
http://data.europa.eu/949/functionalInfrastructure/operationalPoints/36fafdbdad20eb97144e348c71ab7f35706ed911,http://data.europa.eu/949/functionalInfrastructure/operationalPoints/PL06540,PL06540,Grębów,50.60387,21.836818,http://data.europa.eu/949/concepts/op-types/rinf/20,20,http://publications.europa.eu/resource/authority/country/POL,20,small station
http://data.europa.eu/949/functionalInfrastructure/operationalPoints/36fc26a9f40afca5a4d79b68c0d6ffb8f4bbb87b,http://data.europa.eu/949/functionalInfrastructure/operationalPoints/PL04170,PL04170,Tuplice,51.6714,14.838714,http://data.europa.eu/949/concepts/op-types/rinf/20,20,http://publications.europa.eu/resource/authority/country/POL,20,small station
http://data.europa.eu/949/functionalInfrastructure/operationalPoints/38f40b424dfa600a8c9399ff2d87a547e8998f8f,http://data.europa.eu/949/functionalInfrastructure/operationalPoints/PL07076,PL07076,Ruda Kochłowice,50.256686,18.911528,http://data.europa.eu/949/concepts/op-types/rinf/20,20,http://publications.europa.eu/resource/authority/country/POL,20,small station
http://data.europa.eu/949/functionalInfrastructure/operationalPoints/39d2aef948192870b09c32138a7919cc8aea39ec,http://data.europa.eu/949/functionalInfrastructure/operationalPoints/PL06526,PL06526,Rzeczyca,50.839688,22.207997,http://data.europa.eu/949/concepts/op-types/rinf/20,20,http://publications.europa.eu/resource/authority/country/POL,20,small station
http://data.europa.eu/949/functionalInfrastructure/operationalPoints/3e296bb8abc6ebb7a7d2fd461b352e9c49c9704a,http://data.europa.eu/949/functionalInfrastructure/operationalPoints/PL01957,PL01957,Rusiec Łódzki,51.317043,18.969404,http://data.europa.eu/949/concepts/op-types/rinf/20,20,http://publications.europa.eu/resource/authority/country/POL,20,small station
http://data.europa.eu/949/functionalInfrastructure/operationalPoints/3ec108848cbf95c1b1d8f73e401511a24b5f75ef,http://data.europa.eu/949/functionalInfrastructure/operationalPoints/PL04753,PL04753,Mikołajów,51.707202,19.860955,http://data.europa.eu/949/concepts/op-types/rinf/20,20,http://publications.europa.eu/resource/authority/country/POL,20,small station
http://data.europa.eu/949/functionalInfrastructure/operationalPoints/403c5d3cf94a66992f703be031777e2e966d7e17,http://data.europa.eu/949/functionalInfrastructure/operationalPoints/PL03974,PL03974,Niemojki,52.258295,22.700107,http://data.europa.eu/949/concepts/op-types/rinf/20,20,http://publications.europa.eu/resource/authority/country/POL,20,small station
http://data.europa.eu/949/functionalInfrastructure/operationalPoints/443716717214ccc856ed412df3302bf0e839a81b,http://data.europa.eu/949/functionalInfrastructure/operationalPoints/PL04142,PL04142,Lipa Łużycka,51.436102,14.993514,http://data.europa.eu/949/concepts/op-types/rinf/20,20,http://publications.europa.eu/resource/authority/country/POL,20,small station
http://data.europa.eu/949/functionalInfrastructure/operationalPoints/44aa1eda006de5b1b2d269fe0d799a676ab171c0,http://data.europa.eu/949/functionalInfrastructure/operationalPoints/PL01616,PL01616,Budzyń,52.894267,16.966072,http://data.europa.eu/949/concepts/op-types/rinf/20,20,http://publications.europa.eu/resource/authority/country/POL,20,small station
http://data.europa.eu/949/functionalInfrastructure/operationalPoints/44d867796ff5e84010a73547d271716e6cac25a7,http://data.europa.eu/949/functionalInfrastructure/operationalPoints/PL01342,PL01342,Boleszkowice,52.737425,14.518333,http://data.europa.eu/949/concepts/op-types/rinf/20,20,http://publications.europa.eu/resource/authority/country/POL,20,small station
http://data.europa.eu/949/functionalInfrastructure/operationalPoints/45bf9fb5ffe81d193088e35cd9289b593a147229,http://data.europa.eu/949/functionalInfrastructure/operationalPoints/PL04488,PL04488,Biniew,51.739969,17.792268,http://data.europa.eu/949/concepts/op-types/rinf/20,20,http://publications.europa.eu/resource/authority/country/POL,20,small station
http://data.europa.eu/949/functionalInfrastructure/operationalPoints/47bd879c5f23fe6dd32d1895515306d4aec31965,http://data.europa.eu/949/functionalInfrastructure/operationalPoints/PL04360,PL04360,Gostyń,51.88365,17.009754,http://data.europa.eu/949/concepts/op-types/rinf/20,20,http://publications.europa.eu/resource/authority/country/POL,20,small station
http://data.europa.eu/949/functionalInfrastructure/operationalPoints/4886f03df606f59263b8810e784a47e4ebd767ea,http://data.europa.eu/949/functionalInfrastructure/operationalPoints/PL08017,PL08017,Leńcze,49.891876,19.730888,http://data.europa.eu/949/concepts/op-types/rinf/20,20,http://publications.europa.eu/resource/authority/country/POL,20,small station
http://data.europa.eu/949/functionalInfrastructure/operationalPoints/4b46b154cf72b1209f55230e60fcc9923f7996e2,http://data.europa.eu/949/functionalInfrastructure/operationalPoints/PL01535,PL01535,Złotów,53.358987,17.052934,http://data.europa.eu/949/concepts/op-types/rinf/20,20,http://publications.europa.eu/resource/authority/country/POL,20,small station
http://data.europa.eu/949/functionalInfrastructure/operationalPoints/4d4e5ad721997a5ca8e5208190dac5656e0da250,http://data.europa.eu/949/functionalInfrastructure/operationalPoints/PL06607,PL06607,Klemensów,50.698264,23.044373,http://data.europa.eu/949/concepts/op-types/rinf/20,20,http://publications.europa.eu/resource/authority/country/POL,20,small station
http://data.europa.eu/949/functionalInfrastructure/operationalPoints/4f9e94babf5b1d8d91c774241a8bada60d8ccc21,http://data.europa.eu/949/functionalInfrastructure/operationalPoints/PL02247,PL02247,Gralewo,53.320022,20.035522,http://data.europa.eu/949/concepts/op-types/rinf/20,20,http://publications.europa.eu/resource/authority/country/POL,20,small station
http://data.europa.eu/949/functionalInfrastructure/operationalPoints/522600a36bc462ba1d8b4447dbdd848cb1a832ab,http://data.europa.eu/949/functionalInfrastructure/operationalPoints/PL05135,PL05135,Wilkołaz,50.985689,22.328712,http://data.europa.eu/949/concepts/op-types/rinf/20,20,http://publications.europa.eu/resource/authority/country/POL,20,small station
http://data.europa.eu/949/functionalInfrastructure/operationalPoints/54bdad318600a6f696ed71561c9ab9848bc54755,http://data.europa.eu/949/functionalInfrastructure/operationalPoints/PL06370,PL06370,Zagnańsk,50.974596,20.662772,http://data.europa.eu/949/concepts/op-types/rinf/20,20,http://publications.europa.eu/resource/authority/country/POL,20,small station
http://data.europa.eu/949/functionalInfrastructure/operationalPoints/54db663707594597a1b9198e32f39f4d14629907,http://data.europa.eu/949/functionalInfrastructure/operationalPoints/PL00084,PL00084,Dolna Odra,53.211236,14.480997,http://data.europa.eu/949/concepts/op-types/rinf/20,20,http://publications.europa.eu/resource/authority/country/POL,20,small station
http://data.europa.eu/949/functionalInfrastructure/operationalPoints/56eec8e9aa6d054ab67a567a09b0e2c442ee3b74,http://data.europa.eu/949/functionalInfrastructure/operationalPoints/PL05710,PL05710,Głuchołazy,50.330327,17.394509,http://data.europa.eu/949/concepts/op-types/rinf/20,20,http://publications.europa.eu/resource/authority/country/POL,20,small station
http://data.europa.eu/949/functionalInfrastructure/operationalPoints/5738d4e7a58b6fc87181ae5ca17d1857a8088748,http://data.europa.eu/949/functionalInfrastructure/operationalPoints/PL01877,PL01877,Więcławice,52.842033,18.306287,http://data.europa.eu/949/concepts/op-types/rinf/20,20,http://publications.europa.eu/resource/authority/country/POL,20,small station
http://data.europa.eu/949/functionalInfrastructure/operationalPoints/590bea5fd33cd7d6b5928007e47191cae2af68aa,http://data.europa.eu/949/functionalInfrastructure/operationalPoints/PL01984,PL01984,Solec Kujawski,53.078447,18.224787,http://data.europa.eu/949/concepts/op-types/rinf/20,20,http://publications.europa.eu/resource/authority/country/POL,20,small station
http://data.europa.eu/949/functionalInfrastructure/operationalPoints/5960793dd1f7fda28d2defd3f55299d412238134,http://data.europa.eu/949/functionalInfrastructure/operationalPoints/PL01878,PL01878,Wierzchosławice,52.869071,18.359761,http://data.europa.eu/949/concepts/op-types/rinf/20,20,http://publications.europa.eu/resource/authority/country/POL,20,small station
http://data.europa.eu/949/functionalInfrastructure/operationalPoints/5b624dd9a44f809f8e67fb2909343e753408b0c3,http://data.europa.eu/949/functionalInfrastructure/operationalPoints/PL05532,PL05532,Wałbrzych Fabryczny,50.761376,16.267525,http://data.europa.eu/949/concepts/op-types/rinf/20,20,http://publications.europa.eu/resource/authority/country/POL,20,small station
http://data.europa.eu/949/functionalInfrastructure/operationalPoints/5cfbc718ecfaea9cbf68bf8b5d5b940358658b4d,http://data.europa.eu/949/functionalInfrastructure/operationalPoints/PL00670,PL00670,Puck,54.715711,18.408344,http://data.europa.eu/949/concepts/op-types/rinf/20,20,http://publications.europa.eu/resource/authority/country/POL,20,small station
http://data.europa.eu/949/functionalInfrastructure/operationalPoints/5da9e910864ad93daa4105338dacd150ff3d60b1,http://data.europa.eu/949/functionalInfrastructure/operationalPoints/PL03260,PL03260,Płock,52.552744,19.712694,http://data.europa.eu/949/concepts/op-types/rinf/20,20,http://publications.europa.eu/resource/authority/country/POL,20,small station
http://data.europa.eu/949/functionalInfrastructure/operationalPoints/5ffc22c2c7688e1fafd545e93b8869e09af13060,http://data.europa.eu/949/functionalInfrastructure/operationalPoints/PL05060,PL05060,Lubartów,51.445796,22.608086,http://data.europa.eu/949/concepts/op-types/rinf/20,20,http://publications.europa.eu/resource/authority/country/POL,20,small station
http://data.europa.eu/949/functionalInfrastructure/operationalPoints/5ffccc39c953f41dbbdc0eb315944f6573591cdb,http://data.europa.eu/949/functionalInfrastructure/operationalPoints/PL04011,PL04011,Łuków Łapiguz,51.923374,22.359353,http://data.europa.eu/949/concepts/op-types/rinf/20,20,http://publications.europa.eu/resource/authority/country/POL,20,small station
http://data.europa.eu/949/functionalInfrastructure/operationalPoints/61532ad44e2de780b8200de4c1119fa201668c9b,http://data.europa.eu/949/functionalInfrastructure/operationalPoints/PL04649,PL04649,Łódź Andrzejów,51.741996,19.615016,http://data.europa.eu/949/concepts/op-types/rinf/20,20,http://publications.europa.eu/resource/authority/country/POL,20,small station
http://data.europa.eu/949/functionalInfrastructure/operationalPoints/618222ba90022c33441746752be52919b3a72581,http://data.europa.eu/949/functionalInfrastructure/operationalPoints/PL06204,PL06204,Przywory Opolskie,50.580223,17.989421,http://data.europa.eu/949/concepts/op-types/rinf/20,20,http://publications.europa.eu/resource/authority/country/POL,20,small station
http://data.europa.eu/949/functionalInfrastructure/operationalPoints/633fb89c98c33075d18730a78f9a5a2e7fd45bc2,http://data.europa.eu/949/functionalInfrastructure/operationalPoints/PL02813,PL02813,Szczaniec,52.264341,15.693352,http://data.europa.eu/949/concepts/op-types/rinf/20,20,http://publications.europa.eu/resource/authority/country/POL,20,small station
http://data.europa.eu/949/functionalInfrastructure/operationalPoints/661aa40eb0c5378672de9a354f4e577d7c56c86c,http://data.europa.eu/949/functionalInfrastructure/operationalPoints/PL03359,PL03359,Warszawa Czyste,52.21643,20.946317,http://data.europa.eu/949/concepts/op-types/rinf/20,20,http://publications.europa.eu/resource/authority/country/POL,20,small station
http://data.europa.eu/949/functionalInfrastructure/operationalPoints/66bd4e85f428e401653e8e396d97c1c1518baa3f,http://data.europa.eu/949/functionalInfrastructure/operationalPoints/PL07205,PL07205,Chorzew Siemkowice,51.210263,18.941295,http://data.europa.eu/949/concepts/op-types/rinf/20,20,http://publications.europa.eu/resource/authority/country/POL,20,small station
http://data.europa.eu/949/functionalInfrastructure/operationalPoints/68475f69ddd6914fa6d48d32716f9c7fa45679e8,http://data.europa.eu/949/functionalInfrastructure/operationalPoints/PL03434,PL03434,Ożarów Mazowiecki,52.207308,20.795923,http://data.europa.eu/949/concepts/op-types/rinf/20,20,http://publications.europa.eu/resource/authority/country/POL,20,small station
http://data.europa.eu/949/functionalInfrastructure/operationalPoints/69acb889c46359e3bcd75279bff26af6d8828d8a,http://data.europa.eu/949/functionalInfrastructure/operationalPoints/PL00730,PL00730,Pruszcz Gdański,54.258562,18.646919,http://data.europa.eu/949/concepts/op-types/rinf/20,20,http://publications.europa.eu/resource/authority/country/POL,20,small station
http://data.europa.eu/949/functionalInfrastructure/operationalPoints/6a68aa3838e34f4f7ec91009b3fc3a789b0e12c6,http://data.europa.eu/949/functionalInfrastructure/operationalPoints/PL03006,PL03006,Kostrzyn Wielkopolski,52.393273,17.224874,http://data.europa.eu/949/concepts/op-types/rinf/20,20,http://publications.europa.eu/resource/authority/country/POL,20,small station
http://data.europa.eu/949/functionalInfrastructure/operationalPoints/6a7ae6673359f9f7e3ca272ea2a1219e2ac32710,http://data.europa.eu/949/functionalInfrastructure/operationalPoints/PL08106,PL08106,Bogoniowice Ciężkowice,49.798313,20.976589,http://data.europa.eu/949/concepts/op-types/rinf/20,20,http://publications.europa.eu/resource/authority/country/POL,20,small station
http://data.europa.eu/949/functionalInfrastructure/operationalPoints/6c424bc60efcfe12149a99604576c0b09f5b3022,http://data.europa.eu/949/functionalInfrastructure/operationalPoints/PL06134,PL06134,Byczyna Kluczborska,51.114115,18.199879,http://data.europa.eu/949/concepts/op-types/rinf/20,20,http://publications.europa.eu/resource/authority/country/POL,20,small station
http://data.europa.eu/949/functionalInfrastructure/operationalPoints/6c48ba71751b8a652e1d82a774c62a203917cb84,http://data.europa.eu/949/functionalInfrastructure/operationalPoints/PL00140,PL00140,Goleniów,53.559467,14.839679,http://data.europa.eu/949/concepts/op-types/rinf/20,20,http://publications.europa.eu/resource/authority/country/POL,20,small station
http://data.europa.eu/949/functionalInfrastructure/operationalPoints/6d3fc2e421727ee6776457b59433d58a38b54e17,http://data.europa.eu/949/functionalInfrastructure/operationalPoints/PL02004,PL02004,Skępe,52.872128,19.341639,http://data.europa.eu/949/concepts/op-types/rinf/20,20,http://publications.europa.eu/resource/authority/country/POL,20,small station
http://data.europa.eu/949/functionalInfrastructure/operationalPoints/6e02f97b8071b631a6d11d6d17ecdc7cb3d26321,http://data.europa.eu/949/functionalInfrastructure/operationalPoints/PL01402,PL01402,Bogdaniec,52.689135,15.078525,http://data.europa.eu/949/concepts/op-types/rinf/20,20,http://publications.europa.eu/resource/authority/country/POL,20,small station
http://data.europa.eu/949/functionalInfrastructure/operationalPoints/70c7164d21d368b0532d053b6d52d15bd015438c,http://data.europa.eu/949/functionalInfrastructure/operationalPoints/PL04878,PL04878,Żytkowice,51.483162,21.558186,http://data.europa.eu/949/concepts/op-types/rinf/20,20,http://publications.europa.eu/resource/authority/country/POL,20,small station
http://data.europa.eu/949/functionalInfrastructure/operationalPoints/70cd47984e443feb918cf92e54354c8c2b1e9133,http://data.europa.eu/949/functionalInfrastructure/operationalPoints/PL04141,PL04141,Przewóz,51.482166,14.956103,http://data.europa.eu/949/concepts/op-types/rinf/20,20,http://publications.europa.eu/resource/authority/country/POL,20,small station
http://data.europa.eu/949/functionalInfrastructure/operationalPoints/70d5e19791379bf952e62207df1a76ae3bc32259,http://data.europa.eu/949/functionalInfrastructure/operationalPoints/PL07618,PL07618,Kozy,49.849348,19.141693,http://data.europa.eu/949/concepts/op-types/rinf/20,20,http://publications.europa.eu/resource/authority/country/POL,20,small station
http://data.europa.eu/949/functionalInfrastructure/operationalPoints/7371ad3428d4025951ad4ac491d22a5643cd6b3b,http://data.europa.eu/949/functionalInfrastructure/operationalPoints/PL05499,PL05499,Piława Górna,50.677972,16.773153,http://data.europa.eu/949/concepts/op-types/rinf/20,20,http://publications.europa.eu/resource/authority/country/POL,20,small station
http://data.europa.eu/949/functionalInfrastructure/operationalPoints/7585d24a7bc709b9ebc4b56a98bbf88bfbb3c37b,http://data.europa.eu/949/functionalInfrastructure/operationalPoints/PL06105,PL06105,Opole Czarnowąsy,50.716091,17.904087,http://data.europa.eu/949/concepts/op-types/rinf/20,20,http://publications.europa.eu/resource/authority/country/POL,20,small station
http://data.europa.eu/949/functionalInfrastructure/operationalPoints/761694090923665d23a8128bdd27571d6a8edc29,http://data.europa.eu/949/functionalInfrastructure/operationalPoints/PL03976,PL03976,Platerów,52.301104,22.821081,http://data.europa.eu/949/concepts/op-types/rinf/20,20,http://publications.europa.eu/resource/authority/country/POL,20,small station
http://data.europa.eu/949/functionalInfrastructure/operationalPoints/7694744d8e14c86dd81f6e38ae5801823cbfac35,http://data.europa.eu/949/functionalInfrastructure/operationalPoints/PL02220,PL02220,Nidzica,53.357129,20.414004,http://data.europa.eu/949/concepts/op-types/rinf/20,20,http://publications.europa.eu/resource/authority/country/POL,20,small station
http://data.europa.eu/949/functionalInfrastructure/operationalPoints/773831c6a211685623e1cb66c456dcfc81b416e3,http://data.europa.eu/949/functionalInfrastructure/operationalPoints/PL05823,PL05823,Święta Katarzyna,51.029732,17.122988,http://data.europa.eu/949/concepts/op-types/rinf/20,20,http://publications.europa.eu/resource/authority/country/POL,20,small station
http://data.europa.eu/949/functionalInfrastructure/operationalPoints/774c68b9f065e7c4c0348af1a84dce3002359448,http://data.europa.eu/949/functionalInfrastructure/operationalPoints/PL00928,PL00928,Dobre Miasto,53.984149,20.384383,http://data.europa.eu/949/concepts/op-types/rinf/20,20,http://publications.europa.eu/resource/authority/country/POL,20,small station
http://data.europa.eu/949/functionalInfrastructure/operationalPoints/797d514dfa8cdc76db80993675514fb6fd74800e,http://data.europa.eu/949/functionalInfrastructure/operationalPoints/PL03093,PL03093,Pierzyska,52.505525,17.481516,http://data.europa.eu/949/concepts/op-types/rinf/20,20,http://publications.europa.eu/resource/authority/country/POL,20,small station
http://data.europa.eu/949/functionalInfrastructure/operationalPoints/7b2d9df16a5ff1243c1ec56130f6b9371fef7c15,http://data.europa.eu/949/functionalInfrastructure/operationalPoints/PL03003,PL03003,Podstolice,52.341944,17.479718,http://data.europa.eu/949/concepts/op-types/rinf/20,20,http://publications.europa.eu/resource/authority/country/POL,20,small station
http://data.europa.eu/949/functionalInfrastructure/operationalPoints/7b61019274ccdf3b70a78549775c8cf82a661686,http://data.europa.eu/949/functionalInfrastructure/operationalPoints/PL06552,PL06552,Dęba Rozalin,50.428734,21.743114,http://data.europa.eu/949/concepts/op-types/rinf/20,20,http://publications.europa.eu/resource/authority/country/POL,20,small station
http://data.europa.eu/949/functionalInfrastructure/operationalPoints/7bb4a7cdc51c9ba1d4ab82e0b46bd611b5101d2a,http://data.europa.eu/949/functionalInfrastructure/operationalPoints/PL06624,PL06624,Susiec,50.416048,23.227103,http://data.europa.eu/949/concepts/op-types/rinf/20,20,http://publications.europa.eu/resource/authority/country/POL,20,small station
http://data.europa.eu/949/functionalInfrastructure/operationalPoints/7c3992a9479301d8c7920e9023da4cba48946672,http://data.europa.eu/949/functionalInfrastructure/operationalPoints/PL03249,PL03249,Florek,52.261199,19.321484,http://data.europa.eu/949/concepts/op-types/rinf/20,20,http://publications.europa.eu/resource/authority/country/POL,20,small station
http://data.europa.eu/949/functionalInfrastructure/operationalPoints/7f7e38b3634c6cc7459737ee940445d49f7dc1f1,http://data.europa.eu/949/functionalInfrastructure/operationalPoints/PL00630,PL00630,Wejherowo,54.605821,18.229229,http://data.europa.eu/949/concepts/op-types/rinf/20,20,http://publications.europa.eu/resource/authority/country/POL,20,small station
http://data.europa.eu/949/functionalInfrastructure/operationalPoints/7f97aa18d357820e5ed02aee725e573df572bfba,http://data.europa.eu/949/functionalInfrastructure/operationalPoints/PL05481,PL05481,Świdnica Miasto,50.841165,16.481614,http://data.europa.eu/949/concepts/op-types/rinf/20,20,http://publications.europa.eu/resource/authority/country/POL,20,small station
http://data.europa.eu/949/functionalInfrastructure/operationalPoints/829f137a526431d3e01bfadf33a4082af84d969a,http://data.europa.eu/949/functionalInfrastructure/operationalPoints/PL04317,PL04317,Świętno,52.009814,16.04392,http://data.europa.eu/949/concepts/op-types/rinf/20,20,http://publications.europa.eu/resource/authority/country/POL,20,small station
http://data.europa.eu/949/functionalInfrastructure/operationalPoints/82f7fceb318c550fb55fa09d76056533c6600063,http://data.europa.eu/949/functionalInfrastructure/operationalPoints/PL00110,PL00110,Szczecin Dąbie,53.391362,14.670444,http://data.europa.eu/949/concepts/op-types/rinf/20,20,http://publications.europa.eu/resource/authority/country/POL,20,small station
http://data.europa.eu/949/functionalInfrastructure/operationalPoints/83f96ff9339dad523c37128bc062536d7613e5f3,http://data.europa.eu/949/functionalInfrastructure/operationalPoints/PL01264,PL01264,Sterławki Wielkie,54.015171,21.575141,http://data.europa.eu/949/concepts/op-types/rinf/20,20,http://publications.europa.eu/resource/authority/country/POL,20,small station
http://data.europa.eu/949/functionalInfrastructure/operationalPoints/8607b98adee37cb12c0aeec2eacf2bea3b0f5b75,http://data.europa.eu/949/functionalInfrastructure/operationalPoints/PL02880,PL02880,Szamotuły,52.603409,16.585597,http://data.europa.eu/949/concepts/op-types/rinf/20,20,http://publications.europa.eu/resource/authority/country/POL,20,small station
http://data.europa.eu/949/functionalInfrastructure/operationalPoints/872ac3553717920cd2a72d67868fb881a9988ccb,http://data.europa.eu/949/functionalInfrastructure/operationalPoints/PL06545,PL06545,Sobów,50.595656,21.739213,http://data.europa.eu/949/concepts/op-types/rinf/20,20,http://publications.europa.eu/resource/authority/country/POL,20,small station
http://data.europa.eu/949/functionalInfrastructure/operationalPoints/879960bcd976e09456ebfc682aa9d879e1c892b8,http://data.europa.eu/949/functionalInfrastructure/operationalPoints/PL07734,PL07734,Mysłowice Kosztowy,50.174119,19.160432,http://data.europa.eu/949/concepts/op-types/rinf/20,20,http://publications.europa.eu/resource/authority/country/POL,20,small station
http://data.europa.eu/949/functionalInfrastructure/operationalPoints/87c1118be7fc13740fb165ce620177829626f412,http://data.europa.eu/949/functionalInfrastructure/operationalPoints/PL05794,PL05794,Nowa Ruda,50.577256,16.496976,http://data.europa.eu/949/concepts/op-types/rinf/20,20,http://publications.europa.eu/resource/authority/country/POL,20,small station
http://data.europa.eu/949/functionalInfrastructure/operationalPoints/8870c8e709ed9866fc164c0f29599b4509cb7379,http://data.europa.eu/949/functionalInfrastructure/operationalPoints/PL07367,PL07367,Mysłowice Brzezinka,50.197652,19.154338,http://data.europa.eu/949/concepts/op-types/rinf/20,20,http://publications.europa.eu/resource/authority/country/POL,20,small station
http://data.europa.eu/949/functionalInfrastructure/operationalPoints/88f2fc620875ae67d4881df61bfdad561d40e495,http://data.europa.eu/949/functionalInfrastructure/operationalPoints/PL05586,PL05586,Rybnica,50.91053,15.645651,http://data.europa.eu/949/concepts/op-types/rinf/20,20,http://publications.europa.eu/resource/authority/country/POL,20,small station
http://data.europa.eu/949/functionalInfrastructure/operationalPoints/8f409a8514bb4abc23f6979ccb09cf1d8765a227,http://data.europa.eu/949/functionalInfrastructure/operationalPoints/PL06784,PL06784,Rudziniec Gliwicki,50.366506,18.404485,http://data.europa.eu/949/concepts/op-types/rinf/20,20,http://publications.europa.eu/resource/authority/country/POL,20,small station
http://data.europa.eu/949/functionalInfrastructure/operationalPoints/91677e9662863e9aa5604bc47aa777857e42d18c,http://data.europa.eu/949/functionalInfrastructure/operationalPoints/PL05954,PL05954,Grabowno Wielkie,51.343353,17.403465,http://data.europa.eu/949/concepts/op-types/rinf/20,20,http://publications.europa.eu/resource/authority/country/POL,20,small station
http://data.europa.eu/949/functionalInfrastructure/operationalPoints/935705c1db64ff88e95aadb9814614f7ec6e6af4,http://data.europa.eu/949/functionalInfrastructure/operationalPoints/PL02590,PL02590,Gądków Wielki,52.246156,14.963663,http://data.europa.eu/949/concepts/op-types/rinf/20,20,http://publications.europa.eu/resource/authority/country/POL,20,small station
http://data.europa.eu/949/functionalInfrastructure/operationalPoints/946bcb3cb8cc0345e23426b8b98d1b1b91bc7330,http://data.europa.eu/949/functionalInfrastructure/operationalPoints/PL08305,PL08305,Rogóżno koło Łańcuta,50.08353,22.361295,http://data.europa.eu/949/concepts/op-types/rinf/20,20,http://publications.europa.eu/resource/authority/country/POL,20,small station
http://data.europa.eu/949/functionalInfrastructure/operationalPoints/94ff0fd7c861050df9fd6c3998e2f79b2f8ae50e,http://data.europa.eu/949/functionalInfrastructure/operationalPoints/PL01640,PL01640,Jastrowie,53.40809,16.798024,http://data.europa.eu/949/concepts/op-types/rinf/20,20,http://publications.europa.eu/resource/authority/country/POL,20,small station
http://data.europa.eu/949/functionalInfrastructure/operationalPoints/96277e4b9a3992287b2a70de582d630b2e9adee5,http://data.europa.eu/949/functionalInfrastructure/operationalPoints/PL00551,PL00551,Lębork Dretowo,54.521524,17.770031,http://data.europa.eu/949/concepts/op-types/rinf/20,20,http://publications.europa.eu/resource/authority/country/POL,20,small station
http://data.europa.eu/949/functionalInfrastructure/operationalPoints/96e261d7d80a79acd450365ecc0bbe9e7a353b05,http://data.europa.eu/949/functionalInfrastructure/operationalPoints/PL05250,PL05250,Lubań Śląski,51.111418,15.293396,http://data.europa.eu/949/concepts/op-types/rinf/20,20,http://publications.europa.eu/resource/authority/country/POL,20,small station
http://data.europa.eu/949/functionalInfrastructure/operationalPoints/978d065c771f73a6b7dc5e3f00ad1972c97d84cf,http://data.europa.eu/949/functionalInfrastructure/operationalPoints/PL04886,PL04886,Dęba Opoczyńska,51.481904,20.257016,http://data.europa.eu/949/concepts/op-types/rinf/20,20,http://publications.europa.eu/resource/authority/country/POL,20,small station
http://data.europa.eu/949/functionalInfrastructure/operationalPoints/981e7cf3b0c3241d65069fae1d3923bdcc940a73,http://data.europa.eu/949/functionalInfrastructure/operationalPoints/PL08015,PL08015,Radziszów,49.91831,19.809242,http://data.europa.eu/949/concepts/op-types/rinf/20,20,http://publications.europa.eu/resource/authority/country/POL,20,small station
http://data.europa.eu/949/functionalInfrastructure/operationalPoints/98564ab0fead23b840b896559d1c6e9f3158f93d,http://data.europa.eu/949/functionalInfrastructure/operationalPoints/PL08484,PL08484,Horyniec-Zdrój,50.194403,23.356369,http://data.europa.eu/949/concepts/op-types/rinf/20,20,http://publications.europa.eu/resource/authority/country/POL,20,small station
http://data.europa.eu/949/functionalInfrastructure/operationalPoints/998e67c667ebff94085c0635134f54eaeb160f4d,http://data.europa.eu/949/functionalInfrastructure/operationalPoints/PL01936,PL01936,Szadek,51.677656,18.961577,http://data.europa.eu/949/concepts/op-types/rinf/20,20,http://publications.europa.eu/resource/authority/country/POL,20,small station
http://data.europa.eu/949/functionalInfrastructure/operationalPoints/9b22a5d9da1bbde604f14c8edc509c6e56ac0518,http://data.europa.eu/949/functionalInfrastructure/operationalPoints/PL02944,PL02944,Słonice,53.090799,15.518366,http://data.europa.eu/949/concepts/op-types/rinf/20,20,http://publications.europa.eu/resource/authority/country/POL,20,small station
http://data.europa.eu/949/functionalInfrastructure/operationalPoints/9b4668a5d00ebb5c1499de47758d147bb608542e,http://data.europa.eu/949/functionalInfrastructure/operationalPoints/PL01912,PL01912,Kołodziejewo,52.712846,18.03486,http://data.europa.eu/949/concepts/op-types/rinf/20,20,http://publications.europa.eu/resource/authority/country/POL,20,small station
http://data.europa.eu/949/functionalInfrastructure/operationalPoints/9b5e6dac56fb9f010af4fdc054e2e5aa3196253e,http://data.europa.eu/949/functionalInfrastructure/operationalPoints/PL01943,PL01943,Zduńska Wola,51.611277,18.946895,http://data.europa.eu/949/concepts/op-types/rinf/20,20,http://publications.europa.eu/resource/authority/country/POL,20,small station
http://data.europa.eu/949/functionalInfrastructure/operationalPoints/9d0ecf51b8db0aed7e2b18c5d5f01a90f294a7e6,http://data.europa.eu/949/functionalInfrastructure/operationalPoints/PL05028,PL05028,Garbatka-Letnisko,51.494823,21.630043,http://data.europa.eu/949/concepts/op-types/rinf/20,20,http://publications.europa.eu/resource/authority/country/POL,20,small station
http://data.europa.eu/949/functionalInfrastructure/operationalPoints/9e6575170bccd79a6130b5388e696078cde31ed7,http://data.europa.eu/949/functionalInfrastructure/operationalPoints/PL07790,PL07790,Libiąż,50.112788,19.327596,http://data.europa.eu/949/concepts/op-types/rinf/20,20,http://publications.europa.eu/resource/authority/country/POL,20,small station
http://data.europa.eu/949/functionalInfrastructure/operationalPoints/9ebe4fab91300f8191beb070b3b99ae7fba4045e,http://data.europa.eu/949/functionalInfrastructure/operationalPoints/PL05285,PL05285,Krzewina Zgorzelecka,51.015484,14.939773,http://data.europa.eu/949/concepts/op-types/rinf/20,20,http://publications.europa.eu/resource/authority/country/POL,20,small station
http://data.europa.eu/949/functionalInfrastructure/operationalPoints/9f07a16ac2a7cc30822b507171ff5b6b4f6f06c2,http://data.europa.eu/949/functionalInfrastructure/operationalPoints/PL07938,PL07938,Słomniki,50.248324,20.064067,http://data.europa.eu/949/concepts/op-types/rinf/20,20,http://publications.europa.eu/resource/authority/country/POL,20,small station
http://data.europa.eu/949/functionalInfrastructure/operationalPoints/9fe3ad918b5ba0cc8a556d7cab20ac126ec65ab5,http://data.europa.eu/949/functionalInfrastructure/operationalPoints/PL07623,PL07623,Kęty,49.880635,19.225648,http://data.europa.eu/949/concepts/op-types/rinf/20,20,http://publications.europa.eu/resource/authority/country/POL,20,small station
http://data.europa.eu/949/functionalInfrastructure/operationalPoints/9ffd7cd6caa13838f76132e48fac7ac04a048ce5,http://data.europa.eu/949/functionalInfrastructure/operationalPoints/PL07306,PL07306,Katowice Kostuchna,50.18575,19.00415,http://data.europa.eu/949/concepts/op-types/rinf/20,20,http://publications.europa.eu/resource/authority/country/POL,20,small station
http://data.europa.eu/949/functionalInfrastructure/operationalPoints/a05ac3b72d8aff99d59155594860522c3dbb0355,http://data.europa.eu/949/functionalInfrastructure/operationalPoints/PL08276,PL08276,Czudec,49.940375,21.832838,http://data.europa.eu/949/concepts/op-types/rinf/20,20,http://publications.europa.eu/resource/authority/country/POL,20,small station
http://data.europa.eu/949/functionalInfrastructure/operationalPoints/a12bb34e137ad5ca8185a5fded72a1a0e0b66bd2,http://data.europa.eu/949/functionalInfrastructure/operationalPoints/PL04686,PL04686,Głowno,51.961407,19.702896,http://data.europa.eu/949/concepts/op-types/rinf/20,20,http://publications.europa.eu/resource/authority/country/POL,20,small station
http://data.europa.eu/949/functionalInfrastructure/operationalPoints/a1af52b9872ff79147d6575d33c50baa001d28a1,http://data.europa.eu/949/functionalInfrastructure/operationalPoints/PL04484,PL04484,Pleszew,51.892333,17.733001,http://data.europa.eu/949/concepts/op-types/rinf/20,20,http://publications.europa.eu/resource/authority/country/POL,20,small station
http://data.europa.eu/949/functionalInfrastructure/operationalPoints/a245dbeed5448fb06ace404b2fcfac2951e13826,http://data.europa.eu/949/functionalInfrastructure/operationalPoints/PL07678,PL07678,Rajcza,49.516538,19.112904,http://data.europa.eu/949/concepts/op-types/rinf/20,20,http://publications.europa.eu/resource/authority/country/POL,20,small station
http://data.europa.eu/949/functionalInfrastructure/operationalPoints/a249d4baf1962eb3683b2634ea328961afef5a6b,http://data.europa.eu/949/functionalInfrastructure/operationalPoints/PL04678,PL04678,Łódź Żabieniec,51.793584,19.407044,http://data.europa.eu/949/concepts/op-types/rinf/20,20,http://publications.europa.eu/resource/authority/country/POL,20,small station
http://data.europa.eu/949/functionalInfrastructure/operationalPoints/a488e1f333d72d4d75284073cd695dd1e0aedc8c,http://data.europa.eu/949/functionalInfrastructure/operationalPoints/PL01919,PL01919,Piotrków Kujawski,52.537763,18.519534,http://data.europa.eu/949/concepts/op-types/rinf/20,20,http://publications.europa.eu/resource/authority/country/POL,20,small station
http://data.europa.eu/949/functionalInfrastructure/operationalPoints/a64be40418b52d82051653a4da2f0f37ef09c4fc,http://data.europa.eu/949/functionalInfrastructure/operationalPoints/PL06516,PL06516,Zbydniów,50.634796,21.920446,http://data.europa.eu/949/concepts/op-types/rinf/20,20,http://publications.europa.eu/resource/authority/country/POL,20,small station
http://data.europa.eu/949/functionalInfrastructure/operationalPoints/a66b540fcfbc540e6f090c7c2ecf091efd159b58,http://data.europa.eu/949/functionalInfrastructure/operationalPoints/PL02875,PL02875,Palędzie,52.374404,16.746016,http://data.europa.eu/949/concepts/op-types/rinf/20,20,http://publications.europa.eu/resource/authority/country/POL,20,small station
http://data.europa.eu/949/functionalInfrastructure/operationalPoints/a6fd0464c37c210fb8ca630ae4d4dc970e6cf240,http://data.europa.eu/949/functionalInfrastructure/operationalPoints/PL00024,PL00024,Szczecin Wzgórze Hetmańskie,53.407725,14.522067,http://data.europa.eu/949/concepts/op-types/rinf/20,20,http://publications.europa.eu/resource/authority/country/POL,20,small station
http://data.europa.eu/949/functionalInfrastructure/operationalPoints/a7de3257bb7bcda24daabeeb5e579c888ffd7ed3,http://data.europa.eu/949/functionalInfrastructure/operationalPoints/PL05770,PL05770,Ząbkowice Śląskie,50.597389,16.812755,http://data.europa.eu/949/concepts/op-types/rinf/20,20,http://publications.europa.eu/resource/authority/country/POL,20,small station
http://data.europa.eu/949/functionalInfrastructure/operationalPoints/a94e5852c6a0dfa34c268a6cfbdc506bb57cacb4,http://data.europa.eu/949/functionalInfrastructure/operationalPoints/PL00317,PL00317,Bińcze,53.660147,17.128321,http://data.europa.eu/949/concepts/op-types/rinf/20,20,http://publications.europa.eu/resource/authority/country/POL,20,small station
http://data.europa.eu/949/functionalInfrastructure/operationalPoints/aa0a38a905e9fce26fc0d4beaf83d3da2ee76b60,http://data.europa.eu/949/functionalInfrastructure/operationalPoints/PL00412,PL00412,Wrzosowo,54.114512,15.837913,http://data.europa.eu/949/concepts/op-types/rinf/20,20,http://publications.europa.eu/resource/authority/country/POL,20,small station
http://data.europa.eu/949/functionalInfrastructure/operationalPoints/ab6ec1e35aefa88ee36bea661ab74cb975a3e6e8,http://data.europa.eu/949/functionalInfrastructure/operationalPoints/PL07429,PL07429,Olkusz,50.273934,19.573978,http://data.europa.eu/949/concepts/op-types/rinf/20,20,http://publications.europa.eu/resource/authority/country/POL,20,small station
http://data.europa.eu/949/functionalInfrastructure/operationalPoints/abe8e6ed00ee277f04ad6c72c425b668f8a44caa,http://data.europa.eu/949/functionalInfrastructure/operationalPoints/PL08294,PL08294,Głogów Małopolski,50.14698,21.959953,http://data.europa.eu/949/concepts/op-types/rinf/20,20,http://publications.europa.eu/resource/authority/country/POL,20,small station
http://data.europa.eu/949/functionalInfrastructure/operationalPoints/ae515c88bcdd0cd68ff80e7ce9335fea37f4fec4,http://data.europa.eu/949/functionalInfrastructure/operationalPoints/PL05062,PL05062,Bystrzyca koło Lublina,51.348359,22.637652,http://data.europa.eu/949/concepts/op-types/rinf/20,20,http://publications.europa.eu/resource/authority/country/POL,20,small station
http://data.europa.eu/949/functionalInfrastructure/operationalPoints/af65e91cd84c160ef0cd14f2fbb182141ae93d77,http://data.europa.eu/949/functionalInfrastructure/operationalPoints/PL03935,PL03935,Życzyn,51.647495,21.760748,http://data.europa.eu/949/concepts/op-types/rinf/20,20,http://publications.europa.eu/resource/authority/country/POL,20,small station
http://data.europa.eu/949/functionalInfrastructure/operationalPoints/b079c1ff41e94bad01a2b2efb304c5cd37852a71,http://data.europa.eu/949/functionalInfrastructure/operationalPoints/PL08220,PL08220,Limanowa,49.712479,20.422716,http://data.europa.eu/949/concepts/op-types/rinf/20,20,http://publications.europa.eu/resource/authority/country/POL,20,small station
http://data.europa.eu/949/functionalInfrastructure/operationalPoints/b0b1fd96ee86db771b42e3d1543ed9f1f3e38e23,http://data.europa.eu/949/functionalInfrastructure/operationalPoints/PL04651,PL04651,Gałkówek,51.729652,19.73052,http://data.europa.eu/949/concepts/op-types/rinf/20,20,http://publications.europa.eu/resource/authority/country/POL,20,small station
http://data.europa.eu/949/functionalInfrastructure/operationalPoints/b1149dee86ae1c0ebf681e0a5aa270843329864d,http://data.europa.eu/949/functionalInfrastructure/operationalPoints/PL02916,PL02916,Podlesiec,52.936811,15.876301,http://data.europa.eu/949/concepts/op-types/rinf/20,20,http://publications.europa.eu/resource/authority/country/POL,20,small station
http://data.europa.eu/949/functionalInfrastructure/operationalPoints/b59f533b968477a9ceadb0b5c64a0d69b485cee1,http://data.europa.eu/949/functionalInfrastructure/operationalPoints/PL05739,PL05739,Bystrzyca Kłodzka Przedmieście,50.285286,16.646869,http://data.europa.eu/949/concepts/op-types/rinf/20,20,http://publications.europa.eu/resource/authority/country/POL,20,small station
http://data.europa.eu/949/functionalInfrastructure/operationalPoints/b67dbfdd9fd28925b241c0d1dbfdfaae99445e90,http://data.europa.eu/949/functionalInfrastructure/operationalPoints/PL01933,PL01933,Kłudna,51.967559,18.944038,http://data.europa.eu/949/concepts/op-types/rinf/20,20,http://publications.europa.eu/resource/authority/country/POL,20,small station
http://data.europa.eu/949/functionalInfrastructure/operationalPoints/b6d757c0104ba4cb44fa70d535b1cb95c5ca2e67,http://data.europa.eu/949/functionalInfrastructure/operationalPoints/PL02002,PL02002,Lipno,52.854177,19.178774,http://data.europa.eu/949/concepts/op-types/rinf/20,20,http://publications.europa.eu/resource/authority/country/POL,20,small station
http://data.europa.eu/949/functionalInfrastructure/operationalPoints/b73c8f83c696e5786417fa42bc2a121e48952a7f,http://data.europa.eu/949/functionalInfrastructure/operationalPoints/PL08350,PL08350,Krosno,49.693935,21.748338,http://data.europa.eu/949/concepts/op-types/rinf/20,20,http://publications.europa.eu/resource/authority/country/POL,20,small station
http://data.europa.eu/949/functionalInfrastructure/operationalPoints/b80b52235aed5393308218f0c235b8cc69331ae0,http://data.europa.eu/949/functionalInfrastructure/operationalPoints/PL00214,PL00214,Trzebiatów,54.060462,15.277548,http://data.europa.eu/949/concepts/op-types/rinf/20,20,http://publications.europa.eu/resource/authority/country/POL,20,small station
http://data.europa.eu/949/functionalInfrastructure/operationalPoints/b83620bdd7f7b27de90a8e8e748e636a78c4fb5e,http://data.europa.eu/949/functionalInfrastructure/operationalPoints/PL04269,PL04269,Kąkolewo,51.857799,16.686809,http://data.europa.eu/949/concepts/op-types/rinf/20,20,http://publications.europa.eu/resource/authority/country/POL,20,small station
http://data.europa.eu/949/functionalInfrastructure/operationalPoints/b98026b89c30c913c3299eeb848584d5c84210b1,http://data.europa.eu/949/functionalInfrastructure/operationalPoints/PL06486,PL06486,Góra Włodowska,50.584797,19.463711,http://data.europa.eu/949/concepts/op-types/rinf/20,20,http://publications.europa.eu/resource/authority/country/POL,20,small station
http://data.europa.eu/949/functionalInfrastructure/operationalPoints/b9c55a46a967bceab8afbe14110a610927200d3e,http://data.europa.eu/949/functionalInfrastructure/operationalPoints/PL02899,PL02899,Miały,52.80937,16.175875,http://data.europa.eu/949/concepts/op-types/rinf/20,20,http://publications.europa.eu/resource/authority/country/POL,20,small station
http://data.europa.eu/949/functionalInfrastructure/operationalPoints/b9d94ca1e501f0c9a20ac4ab1b6c67260a3bd6cc,http://data.europa.eu/949/functionalInfrastructure/operationalPoints/PL06646,PL06646,Huta Krzeszowska,50.530545,22.456365,http://data.europa.eu/949/concepts/op-types/rinf/20,20,http://publications.europa.eu/resource/authority/country/POL,20,small station
http://data.europa.eu/949/functionalInfrastructure/operationalPoints/bdd34620f733f7387df0672830f1d13d907b7daa,http://data.europa.eu/949/functionalInfrastructure/operationalPoints/PL01956,PL01956,Chociw Łaski,51.405289,18.982801,http://data.europa.eu/949/concepts/op-types/rinf/20,20,http://publications.europa.eu/resource/authority/country/POL,20,small station
http://data.europa.eu/949/functionalInfrastructure/operationalPoints/bf63643568dfe8b1012cf98046da0283301c2acd,http://data.europa.eu/949/functionalInfrastructure/operationalPoints/PL01631,PL01631,Lubasz koło Czarnkowa,52.845224,16.52956,http://data.europa.eu/949/concepts/op-types/rinf/20,20,http://publications.europa.eu/resource/authority/country/POL,20,small station
http://data.europa.eu/949/functionalInfrastructure/operationalPoints/c0a42aa1a9f42cc66ad989dbe4cad7266b282c23,http://data.europa.eu/949/functionalInfrastructure/operationalPoints/PL01909,PL01909,Janikowo,52.748686,18.11593,http://data.europa.eu/949/concepts/op-types/rinf/20,20,http://publications.europa.eu/resource/authority/country/POL,20,small station
http://data.europa.eu/949/functionalInfrastructure/operationalPoints/c3f4a6010c1092aaff4636fd1217b571d7c0eebb,http://data.europa.eu/949/functionalInfrastructure/operationalPoints/PL04304,PL04304,Rakoniewice,52.138805,16.265212,http://data.europa.eu/949/concepts/op-types/rinf/20,20,http://publications.europa.eu/resource/authority/country/POL,20,small station
http://data.europa.eu/949/functionalInfrastructure/operationalPoints/c43177f5e7dcbf6ddb2f10bfa001e8d07ed1914a,http://data.europa.eu/949/functionalInfrastructure/operationalPoints/PL05907,PL05907,Wrocław Pracze,51.169335,16.90398,http://data.europa.eu/949/concepts/op-types/rinf/20,20,http://publications.europa.eu/resource/authority/country/POL,20,small station
http://data.europa.eu/949/functionalInfrastructure/operationalPoints/c4be668b28238b17b83618e3c79b42665dbd3c4e,http://data.europa.eu/949/functionalInfrastructure/operationalPoints/PL06920,PL06920,Żory,50.051693,18.702773,http://data.europa.eu/949/concepts/op-types/rinf/20,20,http://publications.europa.eu/resource/authority/country/POL,20,small station
http://data.europa.eu/949/functionalInfrastructure/operationalPoints/c51ee218ac9615ba6b29e592d722d19177720c11,http://data.europa.eu/949/functionalInfrastructure/operationalPoints/PL04546,PL04546,Domanin,51.34473,17.995259,http://data.europa.eu/949/concepts/op-types/rinf/20,20,http://publications.europa.eu/resource/authority/country/POL,20,small station
http://data.europa.eu/949/functionalInfrastructure/operationalPoints/c534101a32f32ccb49ea7b07711b559fe8bbaaaf,http://data.europa.eu/949/functionalInfrastructure/operationalPoints/PL00935,PL00935,Łęgajny,53.821103,20.61734,http://data.europa.eu/949/concepts/op-types/rinf/20,20,http://publications.europa.eu/resource/authority/country/POL,20,small station
http://data.europa.eu/949/functionalInfrastructure/operationalPoints/c548f143b825c94fe236ba7d11d40f5d7606f36b,http://data.europa.eu/949/functionalInfrastructure/operationalPoints/PL05883,PL05883,Wrocław Świebodzki,51.10315,16.998503,http://data.europa.eu/949/concepts/op-types/rinf/20,20,http://publications.europa.eu/resource/authority/country/POL,20,small station
http://data.europa.eu/949/functionalInfrastructure/operationalPoints/c63487842524fd7e921367aea5705119fc632603,http://data.europa.eu/949/functionalInfrastructure/operationalPoints/PL06546,PL06546,Tarnobrzeg,50.567969,21.696234,http://data.europa.eu/949/concepts/op-types/rinf/20,20,http://publications.europa.eu/resource/authority/country/POL,20,small station
http://data.europa.eu/949/functionalInfrastructure/operationalPoints/c72c4b95ee6722f7d045cf6b78b919b5ef35fd04,http://data.europa.eu/949/functionalInfrastructure/operationalPoints/PL07578,PL07578,Skoczów,49.793593,18.790147,http://data.europa.eu/949/concepts/op-types/rinf/20,20,http://publications.europa.eu/resource/authority/country/POL,20,small station
http://data.europa.eu/949/functionalInfrastructure/operationalPoints/c94f274834e87433c61cd83a289107e357adddf8,http://data.europa.eu/949/functionalInfrastructure/operationalPoints/PL02290,PL02290,Prabuty,53.758941,19.20957,http://data.europa.eu/949/concepts/op-types/rinf/20,20,http://publications.europa.eu/resource/authority/country/POL,20,small station
http://data.europa.eu/949/functionalInfrastructure/operationalPoints/c9b0821032df4553b67e65ec65a4275d457010cf,http://data.europa.eu/949/functionalInfrastructure/operationalPoints/PL03302,PL03302,Bełchów,52.025976,20.033438,http://data.europa.eu/949/concepts/op-types/rinf/20,20,http://publications.europa.eu/resource/authority/country/POL,20,small station
