osm_id,name_osm,type_osm,ref_osm,lat_osm,lon_osm,nearest_op_uri,nearest_op_id,nearest_op_name,nearest_distance_m
node/9982294591,Chojnice,stop,,53.6891104,17.5783375,http://data.europa.eu/949/functionalInfrastructure/operationalPoints/9c371c2f964dbd627f2d9d0ae1eb5fab0db061f0,PL01560,Chojnice,200.2
node/9982294595,Chojnice,stop,,53.6889435,17.5785953,http://data.europa.eu/949/functionalInfrastructure/operationalPoints/9c371c2f964dbd627f2d9d0ae1eb5fab0db061f0,PL01560,Chojnice,200.2
node/1402600428,Rębiechowo,halt,,54.3870599,18.4190224,http://data.europa.eu/949/functionalInfrastructure/operationalPoints/5c996abdac09ea3c6bcbc1c86fc463f2f940505a,PL01787,Rębiechowo,200.4
node/1729229709,Przybyłowice,halt,,51.1251361,16.1586891,http://data.europa.eu/949/functionalInfrastructure/operationalPoints/e38bf3cfc66eae7f3902d24209a11e4e32a27c49,PL05358,Przybyłowice,200.6
node/9930003216,Gdańsk Główny,stop,,54.3570497,18.6451608,http://data.europa.eu/949/functionalInfrastructure/operationalPoints/5f3990796154636f1a0560c088b666e54b4b5f5a,PL00750,Gdańsk Główny,200.7
node/9124654968,Sierakówek,stop,,52.3707078,19.4205652,http://data.europa.eu/949/functionalInfrastructure/operationalPoints/74304ffa7a8c4f1b4f93da1674ea61f22b564145,PL03234,Sierakówek,200.9
node/2157507617,Sierakówek,station,Sr,52.3707152,19.4205021,http://data.europa.eu/949/functionalInfrastructure/operationalPoints/74304ffa7a8c4f1b4f93da1674ea61f22b564145,PL03234,Sierakówek,201.7
node/6057242295,Sopot,stop,,54.4400243,18.5622837,http://data.europa.eu/949/functionalInfrastructure/operationalPoints/84daeac3b567a6978557e5b88d7153292c250fc6,PL00594,Sopot,201.9
node/11020859342,Kostrzyn,stop,,52.5930952,14.6476681,http://data.europa.eu/949/functionalInfrastructure/operationalPoints/2d5ad78cdc2fca6177c3789953718b3a73dab203,PL01300,Kostrzyn,202.1
node/11020859343,Kostrzyn,stop,,52.5930854,14.6477326,http://data.europa.eu/949/functionalInfrastructure/operationalPoints/2d5ad78cdc2fca6177c3789953718b3a73dab203,PL01300,Kostrzyn,202.1
node/9124654969,Sierakówek,stop,,52.3707298,19.4204298,http://data.europa.eu/949/functionalInfrastructure/operationalPoints/74304ffa7a8c4f1b4f93da1674ea61f22b564145,PL03234,Sierakówek,202.1
node/5677603979,Sopot,stop,,54.4400303,18.5623595,http://data.europa.eu/949/functionalInfrastructure/operationalPoints/84daeac3b567a6978557e5b88d7153292c250fc6,PL00594,Sopot,202.1
node/9982294593,Chojnice,stop,,53.6890552,17.578472,http://data.europa.eu/949/functionalInfrastructure/operationalPoints/9c371c2f964dbd627f2d9d0ae1eb5fab0db061f0,PL01560,Chojnice,202.2
node/11020859344,Kostrzyn,stop,,52.5930487,14.647946,http://data.europa.eu/949/functionalInfrastructure/operationalPoints/2d5ad78cdc2fca6177c3789953718b3a73dab203,PL01300,Kostrzyn,202.2
node/5677603980,Sopot,stop,,54.4400522,18.5625628,http://data.europa.eu/949/functionalInfrastructure/operationalPoints/84daeac3b567a6978557e5b88d7153292c250fc6,PL00594,Sopot,202.6
node/9931565624,Gdynia Główna,stop,,54.5215546,18.5263923,http://data.europa.eu/949/functionalInfrastructure/operationalPoints/f89e6d7fc084da433db4852220f67d314098fe6f,PL00590,Gdynia Główna,203.1
node/3467924533,Sterławki Małe,halt,,54.0113315,21.6490634,http://data.europa.eu/949/functionalInfrastructure/operationalPoints/b98c2819e3883ded2257de47a29075a3202ca9f4,PL01266,Sterławki Małe,203.1
node/10567114711,Olkusz,stop,,50.2743664,19.5712002,http://data.europa.eu/949/functionalInfrastructure/operationalPoints/ab6ec1e35aefa88ee36bea661ab74cb975a3e6e8,PL07429,Olkusz,203.2
node/9929437689,Różyny,stop,,54.2105952,18.663018,http://data.europa.eu/949/functionalInfrastructure/operationalPoints/faec024df3ea3e60b3371074af2274679c5bad27,PL00706,Różyny,203.3
node/2472071027,Sopot,stop,,54.4399949,18.5620833,http://data.europa.eu/949/functionalInfrastructure/operationalPoints/84daeac3b567a6978557e5b88d7153292c250fc6,PL00594,Sopot,203.4
node/9126305460,Płock Trzepowo,stop,,52.588731,19.7339092,http://data.europa.eu/949/functionalInfrastructure/operationalPoints/2616b01a72781ae11799b550fd96dbc8229aa6b4,PL03262,Płock Trzepowo,204.1
node/9126305441,Płock Trzepowo,stop,,52.5887058,19.733747,http://data.europa.eu/949/functionalInfrastructure/operationalPoints/2616b01a72781ae11799b550fd96dbc8229aa6b4,PL03262,Płock Trzepowo,204.2
node/1991730283,Płock Trzepowo,station,PT,52.5887174,19.7338325,http://data.europa.eu/949/functionalInfrastructure/operationalPoints/2616b01a72781ae11799b550fd96dbc8229aa6b4,PL03262,Płock Trzepowo,204.3
node/9876054184,Kaliska Kujawskie tor 1,stop,,52.4136546,19.1226091,http://data.europa.eu/949/functionalInfrastructure/operationalPoints/990debd8deb27c47b5d090d2dd18acff6a6ac53d,PL02175,Kaliska Kujawskie,204.5
node/2674855583,Sołtyków,halt,,51.1379985,20.690917,http://data.europa.eu/949/functionalInfrastructure/operationalPoints/de31ff8543030475fa66493f1ba5ef03ffa9ef1a,PL04958,Sołtyków,205.2
node/637004421,Warszawa Włochy,halt,Wł,52.206084,20.9145689,http://data.europa.eu/949/functionalInfrastructure/operationalPoints/36aa59c3a406652503937f404f734c4116981dbb,PL03351,Warszawa Włochy,205.2
node/9878453932,Skrzynki,stop,,51.6015159,19.9677274,http://data.europa.eu/949/functionalInfrastructure/operationalPoints/6d86d807115435e32740feea52d7af7043386300,PL04756,Skrzynki,206.5
node/10298115353,Sołtyków,stop,,51.1380234,20.6909306,http://data.europa.eu/949/functionalInfrastructure/operationalPoints/de31ff8543030475fa66493f1ba5ef03ffa9ef1a,PL04958,Sołtyków,206.5
node/11196227334,Podbory Skawińskie,stop,,49.9668625,19.7751085,http://data.europa.eu/949/functionalInfrastructure/operationalPoints/d9fed139fff9371934f91dc31c4db0b525e589e3,PL08012,Podbory Skawińskie,206.8
node/2152136316,Mokrzyca Wielka,halt,,53.8744379,14.5804285,http://data.europa.eu/949/functionalInfrastructure/operationalPoints/117534bcfab424ceb3013fe0faa870a2db7e95a8,PL00163,Mokrzyca Wielka,207.4
node/6348562360,Mokrzyca Wielka,stop,,53.8744304,14.5804044,http://data.europa.eu/949/functionalInfrastructure/operationalPoints/117534bcfab424ceb3013fe0faa870a2db7e95a8,PL00163,Mokrzyca Wielka,207.4
node/6348562359,Mokrzyca Wielka,stop,,53.8744489,14.5804786,http://data.europa.eu/949/functionalInfrastructure/operationalPoints/117534bcfab424ceb3013fe0faa870a2db7e95a8,PL00163,Mokrzyca Wielka,207.7
node/10686632378,Ostrowiec Świętokrzyski,stop,,50.9329855,21.3795074,http://data.europa.eu/949/functionalInfrastructure/operationalPoints/d09223b7501744d9948689b1376175c675d3b0a1,PL04920,Ostrowiec Świętokrzyski,207.7
node/9929448331,Cieplewo,stop,,54.2325753,18.6477073,http://data.europa.eu/949/functionalInfrastructure/operationalPoints/fe7365b80f36ea5346eb2183595fdb4283d5ab14,PL00732,Cieplewo,208.3
node/10686632377,Ostrowiec Świętokrzyski,stop,,50.9330735,21.3795853,http://data.europa.eu/949/functionalInfrastructure/operationalPoints/d09223b7501744d9948689b1376175c675d3b0a1,PL04920,Ostrowiec Świętokrzyski,208.4
node/10308517060,Wrocław Sołtysowice,stop,,51.1424242,17.083483,http://data.europa.eu/949/functionalInfrastructure/operationalPoints/b3ea8f408e9c6c53b3ea43a96c3b3787c52f30fc,PL05920,Wrocław Sołtysowice,209.4
node/11010949379,Łososiowice,stop,,51.2971247,16.6750572,http://data.europa.eu/949/functionalInfrastructure/operationalPoints/729dc7755cdce738b3ee7f08d78dc02c8f2206d9,PL06036,Łososiowice,210.6
node/9332094404,Przybyłowice tor 1,stop,,51.1250549,16.1586161,http://data.europa.eu/949/functionalInfrastructure/operationalPoints/e38bf3cfc66eae7f3902d24209a11e4e32a27c49,PL05358,Przybyłowice,210.7
node/7680920539,Zgorzelec Miasto,stop,,51.1552985,15.0200887,http://data.europa.eu/949/functionalInfrastructure/operationalPoints/a0de5590b855510dddeb4cb98dd7b077a0c1a0bb,PL05186,Zgorzelec Miasto,210.7
node/1743357623,Dziemiany Kaszubskie,halt,,54.0099643,17.7739359,http://data.europa.eu/949/functionalInfrastructure/operationalPoints/fca35fd36424d4f42e80368d9f9583dd97ea854a,PL01763,Dziemiany Kaszubskie,210.8
node/2859694377,Inowrocław Rąbinek,station,IR,52.7693872,18.2431612,http://data.europa.eu/949/functionalInfrastructure/operationalPoints/943905be3dcf2d03de13944d5a333c0bbd07ca5b,PL01883,Inowrocław Rąbinek,211.6
node/3190711261,Padew,station,Pw,50.4342004,21.5059447,http://data.europa.eu/949/functionalInfrastructure/operationalPoints/4da3094174311ca3e26d95b420c9215e44c3bded,PL06575,Padew,211.7
node/3257422861,Torzym,stop,,52.3120758,15.0612681,http://data.europa.eu/949/functionalInfrastructure/operationalPoints/c0f3e749de419e356fed147487ce6c59102147b4,PL02598,Torzym,211.8
node/3127308718,Padew,stop,,50.4342154,21.5059251,http://data.europa.eu/949/functionalInfrastructure/operationalPoints/4da3094174311ca3e26d95b420c9215e44c3bded,PL06575,Padew,212.0
node/9332094405,Przybyłowice tor 3,stop,,51.1250296,16.1586746,http://data.europa.eu/949/functionalInfrastructure/operationalPoints/e38bf3cfc66eae7f3902d24209a11e4e32a27c49,PL05358,Przybyłowice,212.3
node/2183694742,Koluszki,station,Kl,51.7434724,19.8184515,http://data.europa.eu/949/functionalInfrastructure/operationalPoints/20ef959b05e1506bdeb1d0ccb33e1e1640ec345c,PL04725,Koluszki,212.4
node/3040033731,Legionowo Przystanek,stop,191102,52.4111884,20.9151195,http://data.europa.eu/949/functionalInfrastructure/operationalPoints/9d5c8335b1a886fda8becaa50d7ff9145c62acf1,PL03651,Legionowo Przystanek,212.7
node/9926591472,Gdakowo,stop,,53.8164956,19.1700659,http://data.europa.eu/949/functionalInfrastructure/operationalPoints/4e83ec513c993c3dbf895035daec6e69ce2bb924,PL02305,Gdakowo,214.0
node/1999217445,Gdakowo,stop,,53.8165155,19.1701514,http://data.europa.eu/949/functionalInfrastructure/operationalPoints/4e83ec513c993c3dbf895035daec6e69ce2bb924,PL02305,Gdakowo,214.1
node/10567114712,Jaroszowiec Olkuski,stop,,50.3422539,19.6218437,http://data.europa.eu/949/functionalInfrastructure/operationalPoints/97600b6ef73ec05e74b98204f24d11ff92a40a10,PL07431,Jaroszowiec Olkuski,215.7
node/2187720119,Jaroszowiec Olkuski,station,JO,50.3422847,19.6218089,http://data.europa.eu/949/functionalInfrastructure/operationalPoints/97600b6ef73ec05e74b98204f24d11ff92a40a10,PL07431,Jaroszowiec Olkuski,215.8
node/2290890704,Jaroszowiec Olkuski,stop,,50.3423169,19.6217697,http://data.europa.eu/949/functionalInfrastructure/operationalPoints/97600b6ef73ec05e74b98204f24d11ff92a40a10,PL07431,Jaroszowiec Olkuski,215.8
node/10931372011,Pęgów,stop,,51.246274,16.9278699,http://data.europa.eu/949/functionalInfrastructure/operationalPoints/0621dbb8e33294ab04ef08fec0adcf520193e43e,PL05877,Pęgów,215.8
node/10308517059,Wrocław Sołtysowice,stop,,51.1425267,17.0835302,http://data.europa.eu/949/functionalInfrastructure/operationalPoints/b3ea8f408e9c6c53b3ea43a96c3b3787c52f30fc,PL05920,Wrocław Sołtysowice,216.5
node/3241498005,Otusz,halt,,52.3466915,16.5973943,http://data.europa.eu/949/functionalInfrastructure/operationalPoints/5ae9b8a3d27a50643e1cda5f603201ee34a050b0,PL02725,Otusz,216.9
node/3441021752,Ostrowiec Świętokrzyski,station,Ow,50.9329872,21.3796571,http://data.europa.eu/949/functionalInfrastructure/operationalPoints/d09223b7501744d9948689b1376175c675d3b0a1,PL04920,Ostrowiec Świętokrzyski,217.0
node/1963047055,Wielbark,station,Wl,53.4006491,20.9530013,http://data.europa.eu/949/functionalInfrastructure/operationalPoints/2f9bef855b90918bbed6725cdc08fc2c6a52e53d,PL02343,Wielbark,217.5
node/2154844676,Gdakowo,halt,,53.8164737,19.17013,http://data.europa.eu/949/functionalInfrastructure/operationalPoints/4e83ec513c993c3dbf895035daec6e69ce2bb924,PL02305,Gdakowo,217.8
node/12103048053,Wielbark,stop,,53.4006531,20.9529504,http://data.europa.eu/949/functionalInfrastructure/operationalPoints/2f9bef855b90918bbed6725cdc08fc2c6a52e53d,PL02343,Wielbark,217.8
node/12103048054,Wielbark,stop,,53.4006485,20.953059,http://data.europa.eu/949/functionalInfrastructure/operationalPoints/2f9bef855b90918bbed6725cdc08fc2c6a52e53d,PL02343,Wielbark,217.8
node/241763683,Wrocław Sołtysowice,station,WSł,51.1425485,17.0835373,http://data.europa.eu/949/functionalInfrastructure/operationalPoints/b3ea8f408e9c6c53b3ea43a96c3b3787c52f30fc,PL05920,Wrocław Sołtysowice,217.9
node/2042630591,Piaseczno Wiadukt,halt,,52.0654788,21.0192608,http://data.europa.eu/949/functionalInfrastructure/operationalPoints/ab67339c138a0a846fe2129534472dc6e1aae7fc,PL03390,Piaseczno,218.0
node/10308517061,Wrocław Sołtysowice,stop,,51.1425643,17.0835306,http://data.europa.eu/949/functionalInfrastructure/operationalPoints/b3ea8f408e9c6c53b3ea43a96c3b3787c52f30fc,PL05920,Wrocław Sołtysowice,218.2
node/3171195903,Dworzec Wileński,stop,,52.2538114,21.0358815,http://data.europa.eu/949/functionalInfrastructure/operationalPoints/0b8f0ada2202ac4ae8798d83b0c09750ec6803c7,PL03744,Warszawa Wileńska,218.9
node/3658452544,Twarda Góra,station,TG,53.6824769,18.6715195,http://data.europa.eu/949/functionalInfrastructure/operationalPoints/af8c9b014d3220766af5221c2d2b43167bcd01ab,PL01722,Twarda Góra,219.0
node/9983938857,Twarda Góra,stop,,53.6824683,18.6715739,http://data.europa.eu/949/functionalInfrastructure/operationalPoints/af8c9b014d3220766af5221c2d2b43167bcd01ab,PL01722,Twarda Góra,219.3
node/9983938856,Twarda Góra,stop,,53.6824989,18.6714332,http://data.europa.eu/949/functionalInfrastructure/operationalPoints/af8c9b014d3220766af5221c2d2b43167bcd01ab,PL01722,Twarda Góra,219.5
node/371368745,Warszawa Aleje Jerozolimskie,stop,,52.2058641,20.941001,http://data.europa.eu/949/functionalInfrastructure/operationalPoints/b46b255a8b59755da93a07eb42467caa38565166,PL03345,Warszawa Aleje Jerozolimskie,219.5
node/41943557,Kraków Mydlniki,station,KMd,50.0835874,19.8597855,http://data.europa.eu/949/functionalInfrastructure/operationalPoints/80cb2f56c705967f6910c3c6d0fae466e5d79883,PL08070,Kraków Młynówka,220.2
node/13061870857,Dąbrowa Górnicza Południowa,stop,,50.3126334,19.2873576,http://data.europa.eu/949/functionalInfrastructure/operationalPoints/0d788e6ddc0a5479a9c446bea6edeb2af010eb68,PL07416,Dąbrowa Górnicza Południowa,220.3
node/13061870858,Dąbrowa Górnicza Południowa,stop,,50.3126378,19.2872245,http://data.europa.eu/949/functionalInfrastructure/operationalPoints/0d788e6ddc0a5479a9c446bea6edeb2af010eb68,PL07416,Dąbrowa Górnicza Południowa,220.9
node/2134907362,Radom Południowy,stop,,51.3495782,21.1018059,http://data.europa.eu/949/functionalInfrastructure/operationalPoints/5327e6bf358e2f4f6dab14e74313795b1b8dc4a3,PL04841,Radom Południowy,221.8
node/9929437683,Skowarcz,stop,,54.1859226,18.6815212,http://data.europa.eu/949/functionalInfrastructure/operationalPoints/50ad4773832a8cf799bbbc94f42bc8a10807701e,PL00707,Skowarcz,222.2
node/9133107572,Studzianki Nowe,stop,,52.539164,20.7515082,http://data.europa.eu/949/functionalInfrastructure/operationalPoints/e4222494dc0ca218e565bad6f885fa57c1f30af4,PL03649,Studzianki Nowe,223.2
node/12436825969,Ważne Młyny,halt,,51.0393679,19.1467955,http://data.europa.eu/949/functionalInfrastructure/operationalPoints/d7eec0fcd12adf1df9541eb3ceea9eda56f34384,PL06315,Ważne Młyny,224.0
node/3040065334,Otwock Śródborów,stop,,52.1013289,21.2926967,http://data.europa.eu/949/functionalInfrastructure/operationalPoints/5b7457c6b0f0e29c6f0d4ff56df21dbfb644636a,PL03891,Otwock Śródborów,224.7
node/2211645275,Grębów,station,,50.6051506,21.8392825,http://data.europa.eu/949/functionalInfrastructure/operationalPoints/36fafdbdad20eb97144e348c71ab7f35706ed911,PL06540,Grębów,224.8
node/2007317533,Warszawa Aleje Jerozolimskie,stop,,52.2059244,20.9410108,http://data.europa.eu/949/functionalInfrastructure/operationalPoints/b46b255a8b59755da93a07eb42467caa38565166,PL03345,Warszawa Aleje Jerozolimskie,224.8
node/3390187815,Dworzec Wileński,station,C15,52.2537771,21.0357972,http://data.europa.eu/949/functionalInfrastructure/operationalPoints/0b8f0ada2202ac4ae8798d83b0c09750ec6803c7,PL03744,Warszawa Wileńska,225.3
node/4718872482,Poznań Krzesiny,stop,,52.341995,16.975146,http://data.europa.eu/949/functionalInfrastructure/operationalPoints/993fd97ad54caae63566342d16d719384ee2bbfc,PL02856,Poznań Krzesiny,225.8
node/10980663272,Warkocz,stop,,50.8301146,17.0460186,http://data.europa.eu/949/functionalInfrastructure/operationalPoints/36f14b938205e4b0ac751cf05541de3290515525,PL05984,Warkocz,227.3
node/3900467009,Poznań Krzesiny,stop,,52.3419435,16.9750228,http://data.europa.eu/949/functionalInfrastructure/operationalPoints/993fd97ad54caae63566342d16d719384ee2bbfc,PL02856,Poznań Krzesiny,227.9
node/11941967891,Zastów,stop,,50.1227965,20.0673945,http://data.europa.eu/949/functionalInfrastructure/operationalPoints/0ff8c216cd55cef5fce726058d040cfc7d839a32,PL07932,Zastów,231.1
node/12442252130,Ważne Młyny,stop,,51.0394338,19.1467072,http://data.europa.eu/949/functionalInfrastructure/operationalPoints/d7eec0fcd12adf1df9541eb3ceea9eda56f34384,PL06315,Ważne Młyny,231.3
node/3208963705,Dworzec Wileński,stop,,52.2537417,21.0357104,http://data.europa.eu/949/functionalInfrastructure/operationalPoints/0b8f0ada2202ac4ae8798d83b0c09750ec6803c7,PL03744,Warszawa Wileńska,231.9
node/10031425386,Jaksice,stop,,52.8552577,18.2000497,http://data.europa.eu/949/functionalInfrastructure/operationalPoints/21ea0cf164317bce90f4a1cee6338d9d853186f0,PL01903,Jaksice,232.0
node/10031425387,Jaksice,stop,,52.8553102,18.2001789,http://data.europa.eu/949/functionalInfrastructure/operationalPoints/21ea0cf164317bce90f4a1cee6338d9d853186f0,PL01903,Jaksice,232.1
node/2424146505,Jędrzychowice,stop,,51.1745439,15.0177269,http://data.europa.eu/949/functionalInfrastructure/operationalPoints/b0373268bf15a9ce9e690f600442972e49812cd9,PL05196,Jędrzychowice,233.1
node/13168355549,Rząsawa,stop,,50.8857999,19.1780418,http://data.europa.eu/949/functionalInfrastructure/operationalPoints/a63392a71c2ef8fda2dea367f263e648b4fba1fa,PL06312,Rząsawa,233.8
node/10704357538,Rząsawa,halt,Rz,50.8858132,19.1779938,http://data.europa.eu/949/functionalInfrastructure/operationalPoints/a63392a71c2ef8fda2dea367f263e648b4fba1fa,PL06312,Rząsawa,233.9
node/9878453937,Wykno,stop,,51.6592612,19.9061589,http://data.europa.eu/949/functionalInfrastructure/operationalPoints/a9e481d6e0af055af1d16093dbacbff3e98a9fd1,PL04754,Wykno,235.7
node/3208963711,Stadion Narodowy,stop,,52.2468357,21.0429497,http://data.europa.eu/949/functionalInfrastructure/operationalPoints/b2a82cf0def29b611208d3f31df43888967aa0c3,PL03364,Warszawa Stadion,236.0
node/3390197100,Stadion Narodowy,station,C14;E01,52.2468346,21.042847,http://data.europa.eu/949/functionalInfrastructure/operationalPoints/b2a82cf0def29b611208d3f31df43888967aa0c3,PL03364,Warszawa Stadion,238.1
node/1481760016,Kraków Mydlniki,stop,,50.0839101,19.8580388,http://data.europa.eu/949/functionalInfrastructure/operationalPoints/80cb2f56c705967f6910c3c6d0fae466e5d79883,PL08070,Kraków Młynówka,239.2
node/3390925139,Warszawa Reduta Ordona,stop,,52.2143675,20.9473489,http://data.europa.eu/949/functionalInfrastructure/operationalPoints/661aa40eb0c5378672de9a354f4e577d7c56c86c,PL03359,Warszawa Czyste,239.9
node/3208963712,Stadion Narodowy,stop,,52.2468334,21.0427443,http://data.europa.eu/949/functionalInfrastructure/operationalPoints/b2a82cf0def29b611208d3f31df43888967aa0c3,PL03364,Warszawa Stadion,240.4
node/10735648840,Balin,stop,,50.1797302,19.382125,http://data.europa.eu/949/functionalInfrastructure/operationalPoints/01eb9d1f8b9cfe4b0dc97a6e1cbad9cf77724ae0,PL07753,Balin,240.5
node/10820223556,Zielona Góra,stop,,51.947487,15.5176772,http://data.europa.eu/949/functionalInfrastructure/operationalPoints/936c78fb2fbe8955e66b8079f1d5a3cfc0b5a6eb,PL02780,Zielona Góra Główna,240.7
node/9942983813,Słupsk,stop,,54.469466,17.0166617,http://data.europa.eu/949/functionalInfrastructure/operationalPoints/01ebd8a7c50b8c1e9de333a45af79faa24c75c6b,PL00470,Słupsk,241.5
node/9942983812,Słupsk,stop,,54.4694742,17.0164924,http://data.europa.eu/949/functionalInfrastructure/operationalPoints/01ebd8a7c50b8c1e9de333a45af79faa24c75c6b,PL00470,Słupsk,242.3
node/790080045,Dąbrowa Górnicza Południowa,station,DP,50.312834,19.2872924,http://data.europa.eu/949/functionalInfrastructure/operationalPoints/0d788e6ddc0a5479a9c446bea6edeb2af010eb68,PL07416,Dąbrowa Górnicza Południowa,242.6
node/2007317532,Warszawa Aleje Jerozolimskie,stop,,52.2061221,20.9410489,http://data.europa.eu/949/functionalInfrastructure/operationalPoints/b46b255a8b59755da93a07eb42467caa38565166,PL03345,Warszawa Aleje Jerozolimskie,242.6
node/3241851873,Warszawa Aleje Jerozolimskie,halt,AJ,52.2060562,20.9408396,http://data.europa.eu/949/functionalInfrastructure/operationalPoints/b46b255a8b59755da93a07eb42467caa38565166,PL03345,Warszawa Aleje Jerozolimskie,243.4
node/12631146717,Chorzelów,stop,,50.3412768,21.4513854,http://data.europa.eu/949/functionalInfrastructure/operationalPoints/a095834a0290edd9b06e26d221a2d02e095118e7,PL11681,Chorzelów,243.5
node/13142395314,Nowa Wieś Wielka,stop,,52.9673053,18.0973573,http://data.europa.eu/949/functionalInfrastructure/operationalPoints/fb9c0dc11c67a4191148e8349d8d5c8237795b58,PL01905,Nowa Wieś Wielka,245.7
node/13142395313,Nowa Wieś Wielka,stop,,52.9673123,18.0974526,http://data.europa.eu/949/functionalInfrastructure/operationalPoints/fb9c0dc11c67a4191148e8349d8d5c8237795b58,PL01905,Nowa Wieś Wielka,246.7
node/10282743404,Skarżysko-Kamienna,stop,,51.1149682,20.8784272,http://data.europa.eu/949/functionalInfrastructure/operationalPoints/4ae1055289b08edb306570ff73ec288052f2a2ab,PL04800,Skarżysko-Kamienna,246.9
node/9936554111,Pasłęk,stop,,54.0548589,19.6567726,http://data.europa.eu/949/functionalInfrastructure/operationalPoints/9e8bba64ae549ce4937e91245badccbd115f9ba9,PL01093,Pasłęk,248.3
node/291573943,Bielsko-Biała Lipnik,halt,BLp,49.8140102,19.04964,http://data.europa.eu/949/functionalInfrastructure/operationalPoints/ac0aef91c3ca8cc5f51f39872c1e5c74808728b7,PL07635,Bielsko-Biała Lipnik,248.7
node/9936554112,Pasłęk,stop,,54.0548409,19.65664,http://data.europa.eu/949/functionalInfrastructure/operationalPoints/9e8bba64ae549ce4937e91245badccbd115f9ba9,PL01093,Pasłęk,248.7
node/11035407548,Białośliwie,stop,,53.0979455,17.1256173,http://data.europa.eu/949/functionalInfrastructure/operationalPoints/93171f130f2a7038921914889a660d3d7aaf6f97,PL01448,Białośliwie,249.0
node/7995656990,Bielsko-Biała Lipnik,stop,,49.8140037,19.0495981,http://data.europa.eu/949/functionalInfrastructure/operationalPoints/ac0aef91c3ca8cc5f51f39872c1e5c74808728b7,PL07635,Bielsko-Biała Lipnik,249.2
node/11035407547,Białośliwie,stop,,53.0980243,17.1255795,http://data.europa.eu/949/functionalInfrastructure/operationalPoints/93171f130f2a7038921914889a660d3d7aaf6f97,PL01448,Białośliwie,249.3
node/7995656991,Bielsko-Biała Lipnik,stop,,49.8140007,19.0496813,http://data.europa.eu/949/functionalInfrastructure/operationalPoints/ac0aef91c3ca8cc5f51f39872c1e5c74808728b7,PL07635,Bielsko-Biała Lipnik,250.0
node/4957434370,Piła Kalina,stop,,53.1019729,16.7880464,http://data.europa.eu/949/functionalInfrastructure/operationalPoints/994b147914135f74c8144b0de81e422288e45d1d,PL01445,Piła Kalina,250.0
node/3390925140,Warszawa Reduta Ordona,halt,,52.2143854,20.9478636,http://data.europa.eu/949/functionalInfrastructure/operationalPoints/661aa40eb0c5378672de9a354f4e577d7c56c86c,PL03359,Warszawa Czyste,250.6
node/10974095593,Kłodzko Główne,stop,,50.4492126,16.6578508,http://data.europa.eu/949/functionalInfrastructure/operationalPoints/40a99ca99cc22d7791906ce775c4c80b3e94fa6c,PL05730,Kłodzko Główne,254.1
node/13289765100,Chojna,stop,,52.9648861,14.4434548,http://data.europa.eu/949/functionalInfrastructure/operationalPoints/1eb1344d2cb4d1a13daabff1cb46425179571162,PL01333,Chojna,255.2
node/10977255717,Kłodzko Główne,stop,,50.4492275,16.6579867,http://data.europa.eu/949/functionalInfrastructure/operationalPoints/40a99ca99cc22d7791906ce775c4c80b3e94fa6c,PL05730,Kłodzko Główne,255.9
node/12718346303,Czyżew,stop,,52.8010439,22.3453327,http://data.europa.eu/949/functionalInfrastructure/operationalPoints/d3e6397db2bfcaa8e2395f5953b9b3249cf18a0a,PL02473,Czyżew,256.7
node/1394682731,Olkusz,station,Ol,50.2744103,19.5704293,http://data.europa.eu/949/functionalInfrastructure/operationalPoints/ab6ec1e35aefa88ee36bea661ab74cb975a3e6e8,PL07429,Olkusz,257.7
node/10567114710,Olkusz,stop,,50.2743395,19.5704022,http://data.europa.eu/949/functionalInfrastructure/operationalPoints/ab6ec1e35aefa88ee36bea661ab74cb975a3e6e8,PL07429,Olkusz,258.1
node/10271172887,Częstochowa,stop,,50.8063736,19.1213563,http://data.europa.eu/949/functionalInfrastructure/operationalPoints/c76439f77e328adf4e1baae0703373e89277f85a,PL06265,Częstochowa,258.7
node/12362492237,Nowy Młyn,stop,,54.0675014,21.3243472,http://data.europa.eu/949/functionalInfrastructure/operationalPoints/8fd9ebda6e94f1341947b190b38bdca6a8cb76b3,PL01028,Nowy Młyn,258.9
node/253334051,Nowy Młyn,halt,,54.0674758,21.3243196,http://data.europa.eu/949/functionalInfrastructure/operationalPoints/8fd9ebda6e94f1341947b190b38bdca6a8cb76b3,PL01028,Nowy Młyn,259.2
node/10017635331,Inowrocław Rąbinek,stop,,52.7692152,18.2438119,http://data.europa.eu/949/functionalInfrastructure/operationalPoints/943905be3dcf2d03de13944d5a333c0bbd07ca5b,PL01883,Inowrocław Rąbinek,259.3
node/10271172888,Częstochowa,stop,,50.8063649,19.1214812,http://data.europa.eu/949/functionalInfrastructure/operationalPoints/c76439f77e328adf4e1baae0703373e89277f85a,PL06265,Częstochowa,260.6
node/9132585778,Nasielsk,stop,,52.5722537,20.7674751,http://data.europa.eu/949/functionalInfrastructure/operationalPoints/3eb516e7998318f1135ea50903e35a7c3d08c46a,PL03670,Nasielsk,262.6
node/2512803735,Nasielsk,station,Ns,52.5721933,20.7677423,http://data.europa.eu/949/functionalInfrastructure/operationalPoints/3eb516e7998318f1135ea50903e35a7c3d08c46a,PL03670,Nasielsk,262.7
node/9132585775,Nasielsk,stop,,52.5721806,20.7677706,http://data.europa.eu/949/functionalInfrastructure/operationalPoints/3eb516e7998318f1135ea50903e35a7c3d08c46a,PL03670,Nasielsk,263.4
node/9132585776,Nasielsk,stop,,52.5721484,20.7679545,http://data.europa.eu/949/functionalInfrastructure/operationalPoints/3eb516e7998318f1135ea50903e35a7c3d08c46a,PL03670,Nasielsk,263.4
node/9132585777,Nasielsk,stop,,52.5722302,20.767536,http://data.europa.eu/949/functionalInfrastructure/operationalPoints/3eb516e7998318f1135ea50903e35a7c3d08c46a,PL03670,Nasielsk,263.5
node/9132585774,Nasielsk,stop,,52.5721922,20.767702,http://data.europa.eu/949/functionalInfrastructure/operationalPoints/3eb516e7998318f1135ea50903e35a7c3d08c46a,PL03670,Nasielsk,263.7
node/1509577543,Warszawa Reduta Ordona,stop,,52.2143975,20.9483474,http://data.europa.eu/949/functionalInfrastructure/operationalPoints/661aa40eb0c5378672de9a354f4e577d7c56c86c,PL03359,Warszawa Czyste,265.0
node/13140921966,Przemyśl Główny,stop,,49.7835907,22.7799777,http://data.europa.eu/949/functionalInfrastructure/operationalPoints/fafa5a28e2a8888e7a888f07f3a5878e05b85c0f,PL08440,Przemyśl Główny,269.5
node/13140921967,Przemyśl Główny,stop,,49.7836347,22.7799821,http://data.europa.eu/949/functionalInfrastructure/operationalPoints/fafa5a28e2a8888e7a888f07f3a5878e05b85c0f,PL08440,Przemyśl Główny,269.5
node/6093920533,Bydgoszcz Leśna,halt,BL,53.1443446,18.030854,http://data.europa.eu/949/functionalInfrastructure/operationalPoints/9136a63a27d2f04dfa791d6b54c2d856d1aede8d,PL01837,Bydgoszcz Leśna,269.9
node/13140921968,Przemyśl Główny,stop,,49.783749,22.7799901,http://data.europa.eu/949/functionalInfrastructure/operationalPoints/fafa5a28e2a8888e7a888f07f3a5878e05b85c0f,PL08440,Przemyśl Główny,269.9
node/13317738564,Przemyśl Główny,stop,,49.7835054,22.7799763,http://data.europa.eu/949/functionalInfrastructure/operationalPoints/fafa5a28e2a8888e7a888f07f3a5878e05b85c0f,PL08440,Przemyśl Główny,270.1
node/13140921969,Przemyśl Główny,stop,,49.7837948,22.7799944,http://data.europa.eu/949/functionalInfrastructure/operationalPoints/fafa5a28e2a8888e7a888f07f3a5878e05b85c0f,PL08440,Przemyśl Główny,270.3
node/13140933375,Poznań Główny,stop,,52.3991405,16.9104363,http://data.europa.eu/949/functionalInfrastructure/operationalPoints/be20ec7682c1d67bcca0ca5d94265cada05aa772,PL03060,Poznań Główny,274.5
node/10931372027,Szewce,stop,,51.2170863,16.9532969,http://data.europa.eu/949/functionalInfrastructure/operationalPoints/50f5f161d22cb433a2a668a6808b25d24a2b0c0f,PL05876,Szewce,275.6
node/13140933376,Poznań Główny,stop,,52.3991664,16.9102878,http://data.europa.eu/949/functionalInfrastructure/operationalPoints/be20ec7682c1d67bcca0ca5d94265cada05aa772,PL03060,Poznań Główny,275.7
node/10969161039,Chorzele,stop,,53.281929,20.9396003,http://data.europa.eu/949/functionalInfrastructure/operationalPoints/d5a9b727cb44092344e72fd3fabaf97d1a54748e,PL02341,Chorzele,283.0
node/10969161038,Chorzele,stop,,53.2818652,20.939494,http://data.europa.eu/949/functionalInfrastructure/operationalPoints/d5a9b727cb44092344e72fd3fabaf97d1a54748e,PL02341,Chorzele,283.5
node/3461771886,Chorzele,station,Ch,53.2818911,20.939551,http://data.europa.eu/949/functionalInfrastructure/operationalPoints/d5a9b727cb44092344e72fd3fabaf97d1a54748e,PL02341,Chorzele,283.8
node/8190667243,Jaworzno Szczakowa,stop,,50.2464918,19.2974069,http://data.europa.eu/949/functionalInfrastructure/operationalPoints/eedf1a045da41af07bb570dec70b1da665f73337,PL50059,Jaworzno Szczakowa JSE,284.1
node/8190667244,Jaworzno Szczakowa,stop,,50.2464004,19.2973598,http://data.europa.eu/949/functionalInfrastructure/operationalPoints/eedf1a045da41af07bb570dec70b1da665f73337,PL50059,Jaworzno Szczakowa JSE,289.1
node/5320311385,Koluszki,stop,,51.7427564,19.8184118,http://data.europa.eu/949/functionalInfrastructure/operationalPoints/20ef959b05e1506bdeb1d0ccb33e1e1640ec345c,PL04725,Koluszki,290.1
node/5320311384,Koluszki,stop,,51.7427143,19.8186106,http://data.europa.eu/949/functionalInfrastructure/operationalPoints/20ef959b05e1506bdeb1d0ccb33e1e1640ec345c,PL04725,Koluszki,292.0
node/8190667242,Jaworzno Szczakowa,stop,,50.2463483,19.2973382,http://data.europa.eu/949/functionalInfrastructure/operationalPoints/eedf1a045da41af07bb570dec70b1da665f73337,PL50059,Jaworzno Szczakowa JSE,292.3
node/10031798190,Chmielniki Bydgoskie,stop,,53.0008154,18.0510293,http://data.europa.eu/949/functionalInfrastructure/operationalPoints/93fc1ea39d4bea4d07073d617e1d4d058dca31cc,PL01907,Chmielniki Bydgoskie,297.1
node/8190667241,Jaworzno Szczakowa,stop,,50.24624,19.2972939,http://data.europa.eu/949/functionalInfrastructure/operationalPoints/eedf1a045da41af07bb570dec70b1da665f73337,PL50059,Jaworzno Szczakowa JSE,299.2
node/10009042028,Bydgoszcz Leśna,stop,,53.1446079,18.0306305,http://data.europa.eu/949/functionalInfrastructure/operationalPoints/9136a63a27d2f04dfa791d6b54c2d856d1aede8d,PL01837,Bydgoszcz Leśna,301.3
node/502872060,Sochaczew Muzeum,station,,52.2178658,20.2377155,http://data.europa.eu/949/functionalInfrastructure/operationalPoints/c13ccd8dd0910e3298d303c7b977d25616977d1e,PL03460,Sochaczew,303.6
node/10009042027,Bydgoszcz Leśna,stop,,53.1445567,18.0304898,http://data.europa.eu/949/functionalInfrastructure/operationalPoints/9136a63a27d2f04dfa791d6b54c2d856d1aede8d,PL01837,Bydgoszcz Leśna,303.8
node/1587252220,Jaworzno Szczakowa,station,JS,50.2463323,19.2975531,http://data.europa.eu/949/functionalInfrastructure/operationalPoints/eedf1a045da41af07bb570dec70b1da665f73337,PL50059,Jaworzno Szczakowa JSE,304.0
node/2154419520,Wysoka Braniewska,halt,,54.2766921,20.0235705,http://data.europa.eu/949/functionalInfrastructure/operationalPoints/7b8303c2597dd3d34cdeebe9aa6bf0e4126b0c03,PL01129,Wysoka Braniewska,315.5
node/12101459391,Wysoka Braniewska,stop,,54.276676,20.0235225,http://data.europa.eu/949/functionalInfrastructure/operationalPoints/7b8303c2597dd3d34cdeebe9aa6bf0e4126b0c03,PL01129,Wysoka Braniewska,315.6
node/1947166706,Pęgów,halt,Pg,51.2471851,16.9271182,http://data.europa.eu/949/functionalInfrastructure/operationalPoints/0621dbb8e33294ab04ef08fec0adcf520193e43e,PL05877,Pęgów,329.8
node/10922268902,Żmigród,stop,,51.4751884,16.9018851,http://data.europa.eu/949/functionalInfrastructure/operationalPoints/cc78734acf1020e6e045b029cbeed880e6bd443c,PL04442,Żmigród,339.6
node/3893240665,Leźno,halt,,54.3478157,18.4593191,http://data.europa.eu/949/functionalInfrastructure/operationalPoints/ee1159ca99c187ff027122b6686523ee20e96107,PL00745,Leźno,345.9
node/10922268901,Żmigród,stop,,51.475257,16.9018292,http://data.europa.eu/949/functionalInfrastructure/operationalPoints/cc78734acf1020e6e045b029cbeed880e6bd443c,PL04442,Żmigród,346.9
node/660810005,Żmigród,station,Żd,51.4753316,16.9018748,http://data.europa.eu/949/functionalInfrastructure/operationalPoints/cc78734acf1020e6e045b029cbeed880e6bd443c,PL04442,Żmigród,355.4
node/3713698511,Nowa Brzeźnica,halt,Bza,51.0755397,19.1467025,http://data.europa.eu/949/functionalInfrastructure/operationalPoints/043491dddcea633044c872e0847d0c6c2e62c4e3,PL06316,Brzeźnica nad Wartą,364.9
node/13168331588,Nowa Brzeźnica,stop,,51.0755851,19.1465957,http://data.europa.eu/949/functionalInfrastructure/operationalPoints/043491dddcea633044c872e0847d0c6c2e62c4e3,PL06316,Brzeźnica nad Wartą,369.8
node/3973986194,Annopole,halt,,52.2093025,17.2087641,,,,
node/1812379093,Annosław,halt,,51.7707513,20.4195258,,,,
node/253116097,Babica,halt,Ba,49.9344336,21.8995541,,,,
node/13158108212,Babice,stop,,50.1421695,18.2991994,,,,
node/562820423,Bachórz,station,,49.8353037,22.2452364,,,,
node/2486765674,Balbinka,stop,,52.404746,16.9791136,,,,
node/3988864934,Balbinka,halt,,52.4047653,16.9791249,,,,
node/4457139093,Balbinka,stop,,52.4047803,16.9791336,,,,
node/4326755961,Balnica,station,,49.1853567,22.2154725,,,,
node/3318695009,Bartny Dół,halt,,53.9992655,23.0539004,,,,
node/9141581993,Basznia,stop,,50.1786182,23.2503876,,,,
node/2513932500,Bednary,station,Bd,52.1055389,20.064785,,,,
node/9123168257,Bednary,stop,,52.1055118,20.0647774,,,,
node/9123168258,Bednary,stop,,52.1055509,20.0647492,,,,
node/9123168259,Bednary,stop,,52.1056452,20.0646793,,,,
node/9123168260,Bednary,stop,,52.1054164,20.0648421,,,,
node/7362922676,Bemowo,station,C4,52.2392071,20.9154991,,,,
node/9859052672,Bemowo,stop,,52.2392687,20.9154787,,,,
node/9859052673,Bemowo,stop,,52.2391455,20.9155195,,,,
node/8228580471,Biała Górna,halt,,51.297513,15.9284738,,,,
node/11097481933,Biała Górna,stop,,51.2975163,15.9285283,,,,
node/1812378895,Biała Rawska,halt,,51.8022998,20.4727944,,,,
node/1661085569,Biała Szlachecka,halt,BPj,51.1752413,19.0249527,,,,
node/12442252150,Biała Szlachecka,stop,,51.1752136,19.0248596,,,,
node/3312803808,Białośliwie Wąskotorowe,station,,53.0966636,17.1182937,,,,
node/1811259417,Białynin,halt,,51.7985491,19.9990351,,,,
node/13261841200,Bielawa Centralna,halt,,50.6927768,16.6207799,,,,
node/6239225577,Bielawa Zachodnia,stop,,50.6858457,16.6067467,,,,
node/6990104435,Bielawa Zachodnia,halt,,50.6858735,16.606717,,,,
node/2387656696,Binduga,halt,,54.0129082,23.0118783,,,,
node/1872229385,Biskupin Muzeum,halt,,52.7850833,17.7438724,,,,
node/11956749564,Bochnia,stop,,49.9771639,20.4277075,,,,
node/3258008477,Boczów,stop,,52.3265809,14.9447496,,,,
node/3258008478,Boczów,stop,,52.3266652,14.9447418,,,,
node/12995748737,Bodzechów,station,,50.9134722,21.4343993,,,,
node/7169753320,Bogdanowo,stop,,52.6278996,16.8181238,,,,
node/7170577938,Bogdanowo,stop,,52.6278976,16.818086,,,,
node/11742348946,Bogdanowo,halt,,52.6273429,16.8181744,,,,
node/1666653466,Bogumiłowice,station,Bg,50.0075192,20.8727561,,,,
node/4658319486,Bogumiłowice,stop,,50.0074479,20.8727537,,,,
node/11956778209,Bogumiłowice,stop,,50.0076388,20.8727654,,,,
node/1812379002,Boguszyce,halt,,51.7510879,20.1912434,,,,
node/1430402970,Bonin,halt,,54.1503218,16.253568,,,,
node/5678015769,Bożepole Wielkie,stop,,54.5685669,17.969075,,,,
node/1112631418,Brochocin Trzebnicki,halt,,51.2760267,17.0941302,,,,
node/4089426851,Brochocin Trzebnicki,stop,,51.2760316,17.0941819,,,,
node/502872129,Brochów,halt,,52.314693,20.2842352,,,,
node/3737196526,Brzózki,halt,,52.1050312,20.6782971,,,,
node/11298882065,Brzózki,stop,,52.1052522,20.6791196,,,,
node/11298882066,Brzózki,stop,,52.1048097,20.6774737,,,,
node/8565947335,Bródno,stop,,52.2936473,21.0289531,,,,
node/8565947450,Bródno,stop,,52.2935227,21.0289243,,,,
node/10058224345,Bródno,station,C21,52.293585,21.0289387,,,,
node/466249605,Buk,stop,,52.343495,16.5208138,,,,
node/3241498023,Buk,stop,,52.3435291,16.5207755,,,,
node/3420540693,Buk,station,,52.3434755,16.5206784,,,,
node/589834220,Bydgoszcz Wschód,station,501,53.1278962,18.0838582,,,,
node/2709150333,Bydgoszcz Wschód,stop,,53.1279166,18.0814634,,,,
node/10006702395,Bydgoszcz Wschód,stop,,53.12792,18.0838354,,,,
node/10006702407,Bydgoszcz Wschód,stop,,53.1277696,18.0814927,,,,
node/599726224,Bytom Karb Wąskotorowy,station,BKw,50.3496714,18.885519,,,,
node/3640758245,Bytom Stroszek,halt,,50.3841043,18.8840037,,,,
node/12651966216,Bytom Stroszek,stop,,50.3841041,18.8840263,,,,
node/12651966218,Bytom Stroszek,stop,,50.3842709,18.8840598,,,,
node/35121252,Centrum,stop,,52.2309959,21.0101427,,,,
node/1615661937,Centrum,stop,,52.2310178,21.0102294,,,,
node/3390365405,Centrum,station,C,52.2310069,21.010186,,,,
node/1839856501,Centrum Nauki Kopernik,stop,,52.2398595,21.0318576,,,,
node/3208963704,Centrum Nauki Kopernik,stop,,52.2399559,21.0317224,,,,
node/3390230685,Centrum Nauki Kopernik,station,C13,52.2399148,21.0317878,,,,
node/2156762100,Chełm Śląski,halt,,50.1093504,19.1838404,,,,
node/8039294460,Chełm Śląski,stop,,50.1093562,19.1838037,,,,
node/8039294461,Chełm Śląski,stop,,50.1093517,19.1838744,,,,
node/9177835387,Chocianów,halt,Cw,51.4164174,15.9120693,,,,
node/11097428297,Chocianów,stop,,51.4164173,15.9120303,,,,
node/505060974,Chodaków,halt,,52.258073,20.2696977,,,,
node/12423306147,Chorzów Uniwersytet,halt,,50.2928558,18.9413082,,,,
node/12423306148,Chorzów Uniwersytet,stop,,50.2928933,18.9412501,,,,
node/12423306149,Chorzów Uniwersytet,stop,,50.2928416,18.9413902,,,,
node/1406353353,Cisna,halt,,49.2095586,22.3294531,,,,
node/1799416103,Cyganek,halt,,54.2422608,19.1412258,,,,
node/12098866330,Cyganek,stop,,54.2422749,19.1412157,,,,
node/8690580619,Cyganka Przejazd,stop,,54.2280573,19.1187352,,,,
node/12098866329,Cyganka Przejazd,halt,,54.2280533,19.1187036,,,,
node/7481986659,Cykarzew Północny,halt,Ck,50.9643927,19.1634686,,,,
node/12442252120,Cykarzew Północny,stop,,50.964422,19.1633868,,,,
node/1991366525,Czachówek Wschodni,station,CW,51.9734724,21.104208,,,,
node/9897719602,Czachówek Wschodni,stop,,51.9735071,21.1042278,,,,
node/9897719603,Czachówek Wschodni,stop,,51.9734272,21.1042621,,,,
node/1020590906,Dorohusk,station,D,51.17204,23.7834279,,,,
node/13313027800,Dorohusk,stop,,51.17208,23.7831557,,,,
node/1406351774,Dołżyca,halt,,49.2239729,22.3585825,,,,
node/2450930373,Dreżewo,halt,,54.0490004,14.9968947,,,,
node/3257022417,Drzewce,stop,,52.2688192,15.1631445,,,,
node/3257022418,Drzewce,halt,,52.2694389,15.161704,,,,
node/3257022419,Drzewce,stop,,52.2701041,15.1601701,,,,
node/10773119601,Dynów,station,,49.8057949,22.239641,,,,
node/11119159551,Dzierżążno,station,Dz,54.3150695,18.2661106,,,,
node/2145546882,Dziewięcierz,halt,,50.2178297,23.4328187,,,,
node/12873099201,Dąbrowa Chełmińska Centrum,halt,,53.1812984,18.2939517,,,,
node/599726291,Dąbrowa Miejska,halt,,50.3869218,18.8684119,,,,
node/3279992638,Dąbrowa-Łazy,stop,,52.839509,22.4539962,,,,
node/3405435044,Dęblin,stop,,51.5796936,21.8316155,,,,
node/9139683485,Dęblin,stop,,51.5797747,21.8317221,,,,
node/9139683486,Dęblin,stop,,51.5797873,21.8317978,,,,
node/9139683487,Dęblin,stop,,51.5798543,21.8319149,,,,
node/7809219080,Folwark,halt,,52.6194997,16.1341705,,,,
node/3517120094,Frankamionka,halt,,50.7224246,23.6532241,,,,
node/3110839572,Gdańsk Brętowo,halt,Bt,54.3651261,18.5735495,,,,
node/3683622975,Gdańsk Brętowo,stop,,54.365241,18.5736534,,,,
node/4873238984,Gdańsk Brętowo,stop,,54.3652521,18.5735934,,,,
node/2493592664,Gdańsk Firoga,stop,,54.3783037,18.487096,,,,
node/9222055646,Gdańsk Firoga,stop,,54.3782672,18.4870918,,,,
node/10253429029,Gdańsk Firoga,halt,Fg,54.3782828,18.4871284,,,,
node/3410254986,Gdańsk Jasień,halt,,54.3537062,18.5502959,,,,
node/3675076513,Gdańsk Jasień,stop,,54.3536199,18.5500425,,,,
node/3675076516,Gdańsk Jasień,stop,,54.3536528,18.5500148,,,,
node/3110839574,Gdańsk Kiełpinek,halt,,54.3553612,18.5285628,,,,
node/9932043335,Gdańsk Kiełpinek,stop,,54.3555646,18.5277316,,,,
node/9932043336,Gdańsk Kiełpinek,stop,,54.3555288,18.5277188,,,,
node/3110839575,Gdańsk Matarnia,halt,,54.3734866,18.5063816,,,,
node/9222055613,Gdańsk Matarnia,stop,,54.3735583,18.5063293,,,,
node/9932043375,Gdańsk Matarnia,stop,,54.3735101,18.5063146,,,,
node/3110839576,Gdańsk Niedźwiednik,halt,,54.378158,18.5720769,,,,
node/4873239007,Gdańsk Niedźwiednik,stop,,54.3780951,18.5720736,,,,
node/4873239010,Gdańsk Niedźwiednik,stop,,54.3781067,18.5720152,,,,
node/309338828,Gdańsk Politechnika,stop,,54.3741384,18.627363,,,,
node/540202966,Gdańsk Politechnika,halt,,54.3741905,18.6274077,,,,
node/5677631090,Gdańsk Politechnika,stop,,54.3742475,18.6274559,,,,
node/5046039098,Gdańsk Port Lotniczy,halt,,54.3827282,18.4665403,,,,
node/9468028740,Gdańsk Port Lotniczy,stop,,54.3827984,18.4663337,,,,
node/9468028742,Gdańsk Port Lotniczy,stop,,54.3827654,18.466308,,,,
node/2467382035,Gdańsk Przymorze-Uniwersytet,stop,,54.4005916,18.5768541,,,,
node/3785989417,Gdańsk Przymorze-Uniwersytet,stop,,54.4005673,18.576604,,,,
node/5169352117,Gdańsk Przymorze-Uniwersytet,halt,,54.4007278,18.5766182,,,,
node/9204371370,Gdańsk Rębiechowo,halt,Rb,54.3874305,18.4465066,,,,
node/9932145775,Gdańsk Rębiechowo,stop,,54.3876953,18.4458489,,,,
node/9932145776,Gdańsk Rębiechowo,stop,,54.3876607,18.4458132,,,,
node/5119789992,Gdańsk Strzyża,stop,,54.3917025,18.5786734,,,,
node/5119789993,Gdańsk Strzyża,stop,,54.3916687,18.5787096,,,,
node/9227935495,Gdańsk Strzyża,halt,,54.3917534,18.5788345,,,,
node/3430288561,Gdańsk Śródmieście,halt,,54.3468793,18.6443526,,,,
node/3430288577,Gdańsk Śródmieście,stop,,54.3468571,18.6442195,,,,
node/5677646744,Gdańsk Śródmieście,stop,,54.3469191,18.6444696,,,,
node/1883541911,Gdańsk Żabianka-AWFiS,halt,,54.4207672,18.5684877,,,,
node/5677611890,Gdańsk Żabianka-AWFiS,stop,,54.4206183,18.5686392,,,,
node/5677616424,Gdańsk Żabianka-AWFiS,stop,,54.4206063,18.568424,,,,
node/1046538257,Gdynia Cisowa,halt,,54.5498083,18.4471926,,,,
node/5677565766,Gdynia Cisowa,stop,,54.5498736,18.4472116,,,,
node/5677565767,Gdynia Cisowa,stop,,54.5497695,18.4471744,,,,
node/5677280478,Gdynia Cisowa Elektrowozownia SKM,stop,,54.5531075,18.4220448,,,,
node/5677487323,Gdynia Cisowa Elektrowozownia SKM,stop,,54.5550145,18.4270071,,,,
node/319205267,Gdynia Grabówek,halt,,54.5340423,18.4966486,,,,
node/5677590224,Gdynia Grabówek,stop,,54.5344083,18.4959438,,,,
node/5677590225,Gdynia Grabówek,stop,,54.5343037,18.4958303,,,,
node/5677597910,Gdynia Redłowo,stop,,54.4915632,18.5382453,,,,
node/5677597911,Gdynia Redłowo,stop,,54.4915904,18.5384477,,,,
node/9931565439,Gdynia Redłowo,halt,,54.4915771,18.538351,,,,
node/1126213751,Gdynia Stocznia - Uniwersytet Morski,halt,,54.5255488,18.5192576,,,,
node/5677592928,Gdynia Stocznia - Uniwersytet Morski,stop,,54.5254955,18.5191938,,,,
node/5677592929,Gdynia Stocznia - Uniwersytet Morski,stop,,54.5255921,18.5193118,,,,
node/760690340,Gdynia Wzgórze Świętego Maksymiliana,halt,,54.5076246,18.535489,,,,
node/5677596919,Gdynia Wzgórze Świętego Maksymiliana,stop,,54.5076246,18.5353932,,,,
node/5677596920,Gdynia Wzgórze Świętego Maksymiliana,stop,,54.5076255,18.5355986,,,,
node/2517955025,Glinnik,halt,Gn,51.8869383,19.4971986,,,,
node/12174720859,Glinnik,stop,,51.8869136,19.4972117,,,,
node/12174720860,Glinnik,stop,,51.886963,19.4971854,,,,
node/10022211598,Gniezno,stop,,52.5301593,17.6072328,,,,
node/678572127,Goliszew,halt,,51.8730226,18.1796064,,,,
node/13158139622,Gorzów Łagodzin,stop,,52.6839157,15.2487424,,,,
node/13249440584,Grabik,halt,,51.6536423,15.116329,,,,
node/3461610491,Grabowo,station,Gr,53.0726159,21.5338927,,,,
node/10969161430,Grabowo,stop,,53.0726641,21.5339314,,,,
node/10969161431,Grabowo,stop,,53.0725639,21.5338543,,,,
node/3737196528,Grodzisk Mazowiecki Jordanowice,halt,,52.103324,20.6367844,,,,
node/9246092582,Grodzisk Mazowiecki Jordanowice,stop,,52.1035975,20.6375748,,,,
node/10706722879,Grodzisk Mazowiecki Jordanowice,stop,,52.1030467,20.6359912,,,,
node/3737196525,Grodzisk Mazowiecki Okrężna,halt,,52.1007055,20.6595599,,,,
node/9246109435,Grodzisk Mazowiecki Okrężna,stop,,52.100777,20.6603942,,,,
node/10682887713,Grodzisk Mazowiecki Okrężna,stop,,52.1006864,20.6589335,,,,
node/3737196527,Grodzisk Mazowiecki Piaskowa,halt,,52.1027598,20.65107,,,,
node/10682887715,Grodzisk Mazowiecki Piaskowa,stop,,52.1029894,20.6504224,,,,
node/10706722880,Grodzisk Mazowiecki Piaskowa,stop,,52.10253,20.6517088,,,,
node/371098784,Grodzisk Mazowiecki Radońska,station,GR,52.1006418,20.6284506,,,,
node/10682887718,Grodzisk Mazowiecki Radońska,stop,,52.1007279,20.6283737,,,,
node/10682887719,Grodzisk Mazowiecki Radońska,stop,,52.1006557,20.6284366,,,,
node/10682887720,Grodzisk Mazowiecki Radońska,stop,,52.1006206,20.6284674,,,,
node/11341361297,Grudziądz Tuszewo,halt,,53.4863448,18.8120949,,,,
node/57506044,Gąsawa,station,,52.7663272,17.7445829,,,,
node/3931893726,Gębice,halt,,52.6051262,18.0258954,,,,
node/1738734470,Głuchów,halt,,51.7775278,20.0730139,,,,
node/8372078250,Głusko,halt,,51.2024476,22.0055811,,,,
node/1999887298,Głuszyno Pomorskie,halt,,54.4898744,17.4238884,,,,
node/12036458993,Głuszyno Pomorskie,stop,,54.4898937,17.4260442,,,,
node/12036458994,Głuszyno Pomorskie,stop,,54.4898546,17.4217327,,,,
node/10768878466,Hadle Szklarskie,halt,,49.9110676,22.3011789,,,,
node/1271332385,Hajnówka Wąskotorowa,station,,52.7359763,23.6068454,,,,
node/2154421586,Henrykowo,halt,,54.1740047,20.1445993,,,,
node/12101458792,Henrykowo,stop,,54.1739975,20.1445444,,,,
node/35121263,Imielin,stop,,52.1492285,21.0461042,,,,
node/1958517463,Imielin,stop,,52.1493113,21.0461775,,,,
node/3390290598,Imielin,station,I,52.1493,21.0461062,,,,
node/12604302798,Izabelów,halt,,51.6101301,18.9142215,,,,
node/2336942089,Iłża,halt,,51.1532746,21.2366696,,,,
node/1955230608,Jantar,halt,,54.333499,19.0253679,,,,
node/12098866338,Jantar,stop,,54.3335196,19.0253676,,,,
node/12098866339,Jantar,stop,,54.3334816,19.0253689,,,,
node/1955230616,Jantar Leśniczówka,halt,,54.3345418,19.0038695,,,,
node/12098866340,Jantar Leśniczówka,stop,,54.3345143,19.0038757,,,,
node/5978140183,Jantar Młyn,halt,,54.333183,19.04551,,,,
node/5978140184,Jantar Port,halt,,54.3334351,19.033754,,,,
node/12098866337,Jantar Port,stop,,54.3334095,19.0337512,,,,
node/6702756934,Jasionna,station,,50.6163966,20.3864164,,,,
node/10766752768,Jawornik Polski,station,,49.8885373,22.2751843,,,,
node/6183663548,Jelonek,halt,,52.5049399,17.6252831,,,,
node/2146202129,Jerzmanki,station,Jm,51.1277582,15.0609584,,,,
node/10811934649,Jerzmanki,stop,,51.127822,15.0609258,,,,
node/10811934657,Jerzmanki,stop,,51.1277615,15.0608833,,,,
node/1811259384,Jeżów,halt,,51.8056213,19.9614688,,,,
node/1955262822,Junoszyno,halt,,54.332054,19.0709328,,,,
node/11264480128,Józefin,halt,,52.2290465,21.3332903,,,,
node/11326694314,Józefin,stop,,52.2290287,21.3332749,,,,
node/11326694315,Józefin,stop,,52.2290614,21.3333022,,,,
node/2122420639,Jędrzejów Wąskotorowy,station,,50.644106,20.287982,,,,
node/35121265,Kabaty,stop,,52.1320569,21.0649742,,,,
node/3075002519,Kabaty,stop,,52.1320899,21.0651548,,,,
node/3390283399,Kabaty,station,A1,52.1320765,21.0650711,,,,
node/10978614919,Kamieniec Ząbkowicki,stop,,50.5361723,16.9000124,,,,
node/1582819822,Kanie Helenowskie,halt,,52.1316542,20.7743104,,,,
node/10706722887,Kanie Helenowskie,stop,,52.1317142,20.7744054,,,,
node/10706722888,Kanie Helenowskie,stop,,52.1316066,20.7742486,,,,
node/1746642544,Karczmiska Wąskotorowe,station,,51.2159089,21.997481,,,,
node/1377238994,Karnice,station,,54.028267,15.0479417,,,,
node/2136783800,Karpacz,station,,50.7825021,15.7616497,,,,
node/12871928033,Karpacz,stop,,50.7824144,15.7615806,,,,
node/320994355,Kazimierówka,halt,,52.1108786,20.6980025,,,,
node/9246109497,Kazimierówka,stop,,52.1113141,20.6984217,,,,
node/9898233451,Kazimierówka,stop,,52.110693,20.6978344,,,,
node/10773119600,Kańczuga,station,,49.979994,22.4230778,,,,
node/3279992640,Kity,stop,,52.8289209,22.4240066,,,,
node/9885605156,Kleszczele,halt,,52.5643178,23.3189832,,,,
node/9885605166,Kleszczele,stop,,52.5643206,23.3190757,,,,
node/2280121598,Kocik-Młyn,halt,,53.1163385,17.0879807,,,,
node/1717653387,Komorów,stop,,52.1483856,20.8114362,,,,
node/3472193515,Komorów,station,Km,52.1481148,20.8113718,,,,
node/10706722891,Komorów,stop,,52.147869,20.8112949,,,,
node/10058224346,Kondratowicza,stop,,52.2921476,21.0486938,,,,
node/10058224347,Kondratowicza,stop,,52.292022,21.0486841,,,,
node/10058224348,Kondratowicza,station,C20,52.2920848,21.0486889,,,,
node/1940719075,Kopalnia Złota Główna,halt,,50.4393728,16.8747292,,,,
node/13197976816,Kostrzyca,stop,,50.814545,15.798335,,,,
node/1430402965,Koszalin Kretomino,halt,,54.1656733,16.2166459,,,,
node/11673274885,Koszalin Wenedów,halt,,54.1809483,16.1773209,,,,
node/985371615,Koszalin Wąskotorowy,station,,54.187148,16.1692114,,,,
node/4427961171,Kowalew Plac Zabaw,halt,,51.89359,17.7466469,,,,
node/10198043767,Kowalew Plac Zabaw (n.ż.),stop,,51.8935703,17.7466414,,,,
node/11697965954,Kołobrzeg Amfiteatr,halt,,54.1811199,15.595548,,,,
node/11964138077,Kołobrzeg Amfiteatr,stop,,54.1810855,15.595572,,,,
node/1481760010,Kraków Mydlniki,stop,,50.0840151,19.8581129,,,,
node/1524793348,Kraków Piastów,stop,,50.1069081,20.0137237,,,,
node/1524793390,Kraków Piastów,stop,,50.106939,20.0137091,,,,
node/12422805867,Kraków Piastów,halt,,50.1069685,20.0140653,,,,
node/13191552490,Kraków Piastów,stop,,50.1070524,20.0137183,,,,
node/13191552491,Kraków Piastów,stop,,50.1070161,20.0137136,,,,
node/9963263742,Kraków Przylasek,halt,,50.0519984,20.1635909,,,,
node/13158139616,Krasowiec,stop,,52.6511691,15.2200646,,,,
node/1973406608,Krośnice Wąskotorowe,station,,51.4787116,17.3437304,,,,
node/2180974574,Krusze,station,Kr,52.4271604,21.3585656,,,,
node/10679107974,Krusze,stop,,52.4271963,21.358564,,,,
node/10679107975,Krusze,stop,,52.4271178,21.3585653,,,,
node/3318648525,Krusznik,halt,,53.9899643,23.0932002,,,,
node/1809417920,Krzeszna,halt,,54.2337521,18.082949,,,,
node/7998760884,Krzywe,station,,49.1972794,22.3653308,,,,
node/472379536,Krzywińska Kolej Drezynowa,halt,,51.9754356,16.9379148,,,,
node/4591102932,Księcia Janusza,stop,,52.2391199,20.9443618,,,,
node/5907821373,Księcia Janusza,station,C06,52.2391822,20.9443771,,,,
node/7362944802,Księcia Janusza,stop,,52.2392443,20.944393,,,,
node/12918903149,Kunice,halt,,51.2150066,16.2546327,,,,
node/3931862443,Kwieciszewo,halt,,52.6232522,18.015872,,,,
node/599726423,Lasowice Zalew,halt,,50.4626507,18.8911985,,,,
node/7809219081,Letnisko,halt,,52.6193984,16.1332357,,,,
node/2335581331,Lipie,halt,,51.0673552,21.1282007,,,,
node/1406352358,Majdan,station,,49.2057835,22.2990371,,,,
node/1718180081,Malichy,halt,,52.1693938,20.8411745,,,,
node/6969308518,Malichy,stop,,52.1694468,20.8409619,,,,
node/6969308519,Malichy,stop,,52.169372,20.8412835,,,,
node/449377930,Maltanka,stop,,52.408425,16.9572952,,,,
node/13194313164,Maltanka,station,,52.408437,16.9572398,,,,
node/10768924094,Manasterz,station,,49.9437995,22.3657198,,,,
node/1303264716,Manowo,halt,,54.1287744,16.2969994,,,,
node/2336942090,Marcule,halt,,51.0962354,21.2135512,,,,
node/291414851,Marymont,station,A19,52.2715768,20.9719399,,,,
node/1958108841,Marymont,stop,,52.2716879,20.9717186,,,,
node/3672328641,Marymont,stop,,52.2715725,20.9716826,,,,
node/554971225,Małkinia,stop,,52.6940873,22.0332975,,,,
node/3275141669,Małkinia,stop,,52.6940524,22.033331,,,,
node/3275141670,Małkinia,stop,,52.6941942,22.0331804,,,,
node/9880587620,Małkinia,stop,,52.6939389,22.033429,,,,
node/3546814022,Medyka,halt,Md,49.8026712,22.9398209,,,,
node/11389767040,Miasteczko Śląskie Centrum,halt,,50.4869536,18.9192929,,,,
node/11389767041,Miasteczko Śląskie Centrum,stop,,50.4869439,18.9192845,,,,
node/598953776,Miasteczko Śląskie Wąskotorowe,halt,,50.4876073,18.9208565,,,,
node/1826829455,Miasteczko Śląskie Zalew,halt,,50.4751305,18.9083967,,,,
node/537200786,Miasto Las Zalesie,halt,,52.0593775,21.0094683,,,,
node/3472133199,Michałowice,halt,,52.175364,20.88126,,,,
node/6969308514,Michałowice,stop,,52.1755484,20.8819296,,,,
node/6969308515,Michałowice,stop,,52.1752904,20.8810627,,,,
node/2454135727,Mielec Wolności,stop,,50.2800336,21.4456009,,,,
node/12921492750,Mielec Wolności,halt,,50.2800772,21.4456659,,,,
node/990232929,Mielno Koszalińskie,halt,,54.2544119,16.0538916,,,,
node/1278165707,Mierzęcin,halt,,52.9509921,15.8272461,,,,
node/1954794740,Mikoszewo,halt,,54.3323699,18.9661872,,,,
node/12098866341,Mikoszewo,stop,,54.3323338,18.9661833,,,,
node/340662725,Milanówek Grudów,halt,,52.122236,20.682483,,,,
node/7853070074,Milanówek Grudów,stop,,52.1222239,20.6824104,,,,
node/4774181621,Mirsk,stop,,50.9731187,15.3803381,,,,
node/11374585708,Mirsk,halt,,50.9731622,15.3803284,,,,
node/11831904332,Miłków,halt,Mk,50.8098459,15.763888,,,,
node/11831904333,Miłków,stop,,50.8100241,15.7639694,,,,
node/9926738862,Mleczewo,station,Mc,53.9137425,19.1229124,,,,
node/9926738870,Mleczewo,stop,,53.9137444,19.1228739,,,,
node/9926738871,Mleczewo,stop,,53.9137507,19.1229497,,,,
node/1377239012,Modlimowo,halt,,53.9803323,15.0824537,,,,
node/353750137,Mosina Pożegowo,halt,,52.2479552,16.8417762,,,,
node/6702756936,Motkowice,station,,50.5935915,20.4789681,,,,
node/11374585699,Mroczkowice,halt,,50.9475224,15.3616628,,,,
node/11374585700,Mroczkowice,stop,,50.9475942,15.3616789,,,,
node/801162445,Mysłakowice,stop,,50.8352608,15.7880967,,,,
node/11380011571,Mysłakowice,station,Ms,50.8353309,15.7880189,,,,
node/12871928024,Mysłakowice Orzeł,stop,,50.8249998,15.7863845,,,,
node/12871928025,Mysłakowice Orzeł,halt,,50.8250794,15.7864094,,,,
node/2513932511,Mysłaków,halt,,52.0923979,20.0162257,,,,
node/9123168317,Mysłaków,stop,,52.092751,20.0179297,,,,
node/392941045,Mysłowice Kosztowy,stop,,50.1705057,19.1623544,,,,
node/2141275339,Mysłowice Kosztowy,stop,,50.1704933,19.1623077,,,,
node/3685563846,Mysłowice Kosztowy,halt,,50.170755,19.1622075,,,,
node/307389116,Młociny,station,A23,52.2907703,20.9298678,,,,
node/3211607573,Młociny,stop,,52.2907531,20.9298466,,,,
node/3211607574,Młociny,stop,,52.2907876,20.9298889,,,,
node/9156167948,Narzym,stop,,53.1887868,20.2560444,,,,
node/35121264,Natolin,stop,,52.141079,21.0563547,,,,
node/1958517443,Natolin,stop,,52.1411142,21.0565392,,,,
node/3390290324,Natolin,station,N,52.1411007,21.0564351,,,,
node/4054779607,Natura,halt,,51.4823969,17.3450119,,,,
node/635971760,Niechanowo,halt,,52.4707252,17.6878904,,,,
node/2172312557,Niedzieliska-Kolonia,station,,50.6979575,23.0388525,,,,
node/1377238955,Niedźwiedziska,halt,,53.946345,15.0712706,,,,
node/12520409304,Niemcza,halt,,50.7149755,16.8372104,,,,
node/8108723157,Nieporaz Oblaszki,halt,,50.102136,19.518155,,,,
node/9583408009,Nieporaz Puszcza Dulowska,halt,,50.1067106,19.5098898,,,,
node/9725720921,Nietążkowo Szkoła,halt,,52.0002455,16.5353594,,,,
node/4394577229,Nieżychowo,halt,,53.1440802,17.1560029,,,,
node/9725719698,Nowa Wieś,halt,,52.0268243,16.5032279,,,,
node/1582819837,Nowa Wieś Warszawska,halt,,52.1404882,20.7955766,,,,
node/10706722889,Nowa Wieś Warszawska,stop,,52.1406243,20.796084,,,,
node/10706722890,Nowa Wieś Warszawska,stop,,52.1403979,20.795224,,,,
node/5978140180,Nowy Dwór Gdański Cmentarz,halt,,54.1988413,19.1130163,,,,
node/9084757595,Nowy Dwór Gdański Żelichowo,halt,,54.2216106,19.119132,,,,
node/9084764229,Nowy Dwór Gdański Żeromskiego,halt,,54.2170364,19.1248272,,,,
node/3249493825,Nowy Tomyśl,stop,,52.3041198,16.1349834,,,,
node/11065196666,Nowy Tomyśl,stop,,52.3042042,16.1349783,,,,
node/3208963706,Nowy Świat-Uniwersytet,stop,,52.236763,21.0168432,,,,
node/3208963707,Nowy Świat-Uniwersytet,stop,,52.2368761,21.0167904,,,,
node/3390237898,Nowy Świat-Uniwersytet,station,C12,52.2368196,21.0168168,,,,
node/3308214732,Nysa Wschodnia,halt,,50.4658497,17.3585986,,,,
node/10554153099,Nysa Wschodnia,stop,,50.4658846,17.3586021,,,,
node/302221812,Oborniki Śląskie,station,OŚ,51.2996135,16.907326,,,,
node/10931371913,Oborniki Śląskie,stop,,51.2996069,16.9072315,,,,
node/10931371914,Oborniki Śląskie,stop,,51.2996235,16.9074133,,,,
node/10969161152,Olszewka,stop,,53.217201,21.0545459,,,,
node/10969161153,Olszewka,halt,,53.2171761,21.0545018,,,,
node/11964620325,Olsztyn Główny,stop,,53.7861088,20.5010242,,,,
node/1573084505,Opacz,halt,,52.1813883,20.9046686,,,,
node/3039626163,Opacz,stop,,52.1812889,20.9043488,,,,
node/3039626164,Opacz,stop,,52.1815101,20.9050792,,,,
node/206359592,Opalenica,stop,,52.3096286,16.3996927,,,,
node/3241658839,Opalenica,stop,,52.3096717,16.3996773,,,,
node/3241658842,Opalenica,stop,,52.3096688,16.3989572,,,,
node/3244454413,Opalenica,stop,,52.3094226,16.3990211,,,,
node/1660310729,Opole Lubelskie Wąskotorowe,station,,51.1506361,21.9793126,,,,
node/704323428,Orchowo,station,,52.5110842,18.0095977,,,,
node/678467639,Orłowice,stop,,50.9319741,15.3520595,,,,
node/11374585673,Orłowice,halt,,50.9318348,15.3521135,,,,
node/353749144,Osowa Góra,halt,,52.2494902,16.8184356,,,,
node/9914029469,Ostaszewo Toruńskie,station,,53.1103586,18.6272817,,,,
node/4063622825,Ostrowo Las,halt,,52.4314925,17.9537106,,,,
node/4063637852,Ostrowo Stare,halt,,52.443061,17.969867,,,,
node/59986437,Otrębusy,stop,,52.1264526,20.761975,,,,
node/1860122552,Otrębusy,halt,,52.1263663,20.7615282,,,,
node/10706722886,Otrębusy,stop,,52.1262973,20.7611144,,,,
node/12381011597,Oława Zachodnia,halt,,50.9450241,17.2687145,,,,
node/1377238925,Paprotno,halt,,53.9954334,15.0645191,,,,
node/2986770198,Paproć,station,,50.175375,18.4737556,,,,
node/4054779621,Park,halt,,51.4809975,17.3493075,,,,
node/10308843703,Pasikurowice,halt,,51.2088929,17.1096071,,,,
node/4054779610,Pałac Krośnice,halt,,51.479207,17.3503598,,,,
node/4054779619,Pałac Wierzchowice,halt,,51.4810032,17.3408531,,,,
node/12925735523,Petryki,halt,,51.9228151,18.1454463,,,,
node/339889076,Piaseczno Miasto Wąskotorowe,station,,52.0701889,21.0239428,,,,
node/1272881984,Pierwoszów Miłocin,halt,,51.2552194,17.0989112,,,,
node/10308843679,Pierwoszów Miłocin,stop,,51.2552397,17.0989578,,,,
node/2441954036,Pionki,stop,,51.4795884,21.4598044,,,,
node/12604303704,Pisary,halt,,50.1285264,19.6831842,,,,
node/13061870861,Pisary,stop,,50.128555,19.6831719,,,,
node/13061870862,Pisary,stop,,50.1285102,19.6831601,,,,
node/11034185425,Piła Główna,stop,,53.1423002,16.7462857,,,,
node/11034185426,Piła Główna,stop,,53.1424049,16.7462824,,,,
node/2122388577,Pińczów,station,,50.5234045,20.5191203,,,,
node/35121254,Plac Wilsona,stop,,52.2693539,20.9844076,,,,
node/3211607575,Plac Wilsona,stop,,52.2692387,20.9843282,,,,
node/3615569910,Plac Wilsona,station,A18,52.2692619,20.9844973,,,,
node/4063622815,Plaża Wojskowa,halt,,52.428483,17.9334263,,,,
node/4302164506,Pleszew Lipowa,halt,,51.89257,17.7754542,,,,
node/10198043807,Pleszew Lipowa (n.ż.),stop,,51.8925552,17.7754164,,,,
node/1600324202,Pleszew Miasto,station,,51.8911842,17.7832941,,,,
node/10198043876,Pleszew Miasto,stop,,51.8911731,17.7834953,,,,
node/10198043877,Pleszew Miasto,stop,,51.8911691,17.7832557,,,,
node/10198043879,Pleszew Miasto,stop,,51.8911258,17.7832386,,,,
node/4394577217,Pobórka Wielka,halt,,53.1315632,17.1095256,,,,
node/12457483992,Podchojny,station,Pch,50.6639147,20.320871,,,,
node/3472773035,Podkowa Leśna Główna,station,PL,52.1223685,20.7251423,,,,
node/10706722882,Podkowa Leśna Główna,stop,,52.1223544,20.7251614,,,,
node/10706722883,Podkowa Leśna Główna,stop,,52.1223854,20.7251476,,,,
node/1582819841,Podkowa Leśna Wschodnia,halt,,52.1237805,20.7384237,,,,
node/10706722884,Podkowa Leśna Wschodnia,stop,,52.1238195,20.7389473,,,,
node/10706722885,Podkowa Leśna Wschodnia,stop,,52.1237516,20.7380034,,,,
node/1582819846,Podkowa Leśna Zachodnia,halt,,52.1209282,20.7123229,,,,
node/10682887716,Podkowa Leśna Zachodnia,stop,,52.120936,20.7122784,,,,
node/10682887717,Podkowa Leśna Zachodnia,stop,,52.1209002,20.7122951,,,,
node/1812378970,Podskarbice,halt,,51.767679,20.3415191,,,,
node/1319296967,Podłęże,station,Pd,50.0181184,20.16906,,,,
node/9160890418,Podłęże,stop,,50.0180706,20.1690358,,,,
node/9160890419,Podłęże,stop,,50.0181612,20.1690768,,,,
node/9160890420,Podłęże,stop,,50.0182725,20.1691287,,,,
node/945906451,Pogorzelica,station,,54.0941366,15.1253083,,,,
node/4842038150,Pogorzelica Sandra,halt,,54.0939599,15.1014359,,,,
node/10258115265,Polana Jakuszycka,stop,,50.8145962,15.4295392,,,,
node/10258115266,Polana Jakuszycka,halt,,50.8146295,15.4295162,,,,
node/10687217661,Polanówka,station,,51.2330581,21.9410199,,,,
node/35121256,Pole Mokotowskie,stop,,52.2087683,21.0078346,,,,
node/1958403179,Pole Mokotowskie,stop,,52.2087869,21.0080265,,,,
node/3390342469,Pole Mokotowskie,station,A10,52.2087775,21.0079298,,,,
node/653450366,Polesie,halt,,52.1218524,20.6972075,,,,
node/11406457705,Polesie,stop,,52.1218359,20.6971411,,,,
node/35121253,Politechnika,stop,,52.2187709,21.0152487,,,,
node/3211607576,Politechnika,stop,,52.2187374,21.0154453,,,,
node/3390361095,Politechnika,station,A11,52.2186581,21.0153031,,,,
node/3974004831,Polwica,halt,,52.170183,17.1804153,,,,
node/2181658941,Poniatowa,station,,51.1794339,22.0655463,,,,
node/1377238989,Popiele,halt,,53.9057327,15.1393032,,,,
node/1578265348,Popowo,halt,,54.3095344,19.1094374,,,,
node/12098866333,Popowo,stop,,54.3095364,19.109385,,,,
node/3246030036,Porażyn,halt,,52.3022822,16.2868579,,,,
node/3318695008,Powały,halt,,54.0109851,23.0242541,,,,
node/4063574106,Powidz,halt,,52.4138095,17.9110408,,,,
node/2209058804,Powroźnik,station,Pr,49.3681641,20.9397752,,,,
node/10030041262,Poznań Główny,stop,,52.4040185,16.9127778,,,,
node/10030041263,Poznań Główny,stop,,52.4040709,16.9131038,,,,
node/13140933374,Poznań Główny,stop,,52.4050432,16.9122487,,,,
node/10217223540,Poznań Starołęka,station,PS,52.3662312,16.9342759,,,,
node/4718241315,Poznań Wschód,stop,,52.4181851,16.9710594,,,,
node/4718241316,Poznań Wschód,stop,,52.4181477,16.9710963,,,,
node/4718241317,Poznań Wschód,stop,,52.4180173,16.9711951,,,,
node/4718241318,Poznań Wschód,stop,,52.4179315,16.9712709,,,,
node/4718241319,Poznań Wschód,stop,,52.4180591,16.9711656,,,,
node/10029050343,Poznań Wschód,station,PW,52.4182197,16.971483,,,,
node/3724540701,Prawy Brzeg Wisły,halt,,54.3324112,18.9503797,,,,
node/3931878301,Procyń,halt,,52.5667233,18.0210583,,,,
node/11374585713,Proszówka,halt,,51.0100176,15.4245432,,,,
node/11374585728,Proszówka,stop,,51.0100539,15.4246612,,,,
node/3472183839,Pruszków WKD,halt,,52.1616122,20.8165804,,,,
node/10706722892,Pruszków WKD,stop,,52.1618668,20.8168569,,,,
node/10706722893,Pruszków WKD,stop,,52.1613821,20.8163315,,,,
node/560182965,Przemyśl Główny,station,Pm,49.78361,22.7801519,,,,
node/13140921970,Przemyśl Główny,stop,,49.7839281,22.7800106,,,,
node/13140921971,Przemyśl Główny,stop,,49.7839756,22.7800105,,,,
node/13140921972,Przemyśl Główny,stop,,49.7840693,22.7809366,,,,
node/12520409318,Przerzeczyn Zdrój,halt,,50.689176,16.8196526,,,,
node/48311251,Przeworsk,station,Pk,50.0670608,22.505303,,,,
node/3248614995,Przeworsk,stop,,50.066884,22.5061159,,,,
node/4063622821,Przybrodzin,halt,,52.4322476,17.9378385,,,,
node/1406330095,Przysłup,halt,,49.1840149,22.3879059,,,,
node/4457127111,Ptyś,stop,,52.4060356,16.9751905,,,,
node/13194313163,Ptyś,halt,,52.4060271,16.9751151,,,,
node/1814013824,Pągów,halt,,51.7768482,20.4433268,,,,
node/10931371996,Pęgów,stop,,51.2480979,16.926357,,,,
node/3973991240,Płaczki,halt,,52.1963867,17.2121788,,,,
node/465618871,Płociczno Tartak,station,,54.0206951,22.9830599,,,,
node/4930657482,Płocka,station,C08,52.2324542,20.9663847,,,,
node/7371940293,Płocka,stop,,52.2324916,20.966268,,,,
node/7371940294,Płocka,stop,,52.2325126,20.9664701,,,,
node/35121257,Racławicka,stop,,52.1988467,21.012146,,,,
node/3211607577,Racławicka,stop,,52.1988807,21.0123239,,,,
node/3390327068,Racławicka,station,A9,52.1988637,21.0122349,,,,
node/12435204608,Radziszewo,halt,,53.3199973,14.533443,,,,
node/3415101804,Ramiszów,stop,,51.1932029,17.0982931,,,,
node/3561494614,Ramiszów,halt,,51.1931981,17.0983438,,,,
node/3672328642,Ratusz Arsenał,stop,,52.2451876,21.0007835,,,,
node/35121250,Ratusz-Arsenał,station,Rz,52.2452163,21.0008823,,,,
node/3211607578,Ratusz-Arsenał,stop,,52.245245,21.0009812,,,,
node/3728215842,Rawa Mazowiecka,station,,51.766738,20.2457314,,,,
node/13311718658,Reblino,stop,,54.431067,16.9200717,,,,
node/11988048431,Recz Pomorski,halt,,53.2712934,15.5651393,,,,
node/5516899026,Reda Pieleszewo,stop,,54.6025092,18.315853,,,,
node/1812379074,Regnów,halt,,51.7669501,20.3810461,,,,
node/1573144247,Reguły,halt,,52.1703525,20.8586538,,,,
node/4960527868,Reptowo,stop,,53.372348,14.8642759,,,,
node/4960527869,Reptowo,stop,,53.3723059,14.864264,,,,
node/4960527878,Reptowo,station,Rp,53.3722469,14.8650096,,,,
node/12082813741,Reptowo,stop,,53.3724708,14.8643137,,,,
node/12082813742,Reptowo,stop,,53.3721918,14.8642295,,,,
node/487787611,Rewal,station,,54.0755551,15.0111326,,,,
node/9725720923,Robaczyn,halt,,51.9922885,16.564252,,,,
node/1811191528,Rogów Towarowy Wąskotorowy,station,,51.8128732,19.8807935,,,,
node/2901070774,Rokietnica,station,Ro,52.5106432,16.7561574,,,,
node/9929217826,Rokitki Tczewskie,stop,,54.0804096,18.7357401,,,,
node/3139728370,Rokszyce,halt,,51.7880276,20.4509263,,,,
node/1839856492,Rondo Daszyńskiego,stop,,52.2300219,20.9829216,,,,
node/3208963708,Rondo Daszyńskiego,stop,,52.2301434,20.9828675,,,,
node/3390267294,Rondo Daszyńskiego,station,C9,52.2300827,20.9828946,,,,
node/3208963709,Rondo ONZ,stop,,52.2330504,20.9983142,,,,
node/3208963710,Rondo ONZ,stop,,52.2331698,20.99825,,,,
node/3390266492,Rondo ONZ,station,C10,52.2330735,20.9981024,,,,
node/2009191441,Rosnowo Ośrodek,halt,,54.0631945,16.3030726,,,,
node/2009191141,Rosnowo Wąskotorowe,halt,,54.0664787,16.2985414,,,,
node/8349694670,Rozalin,station,,51.17865,22.0072767,,,,
node/1862454729,Rożdżały,halt,,51.777979,18.2143988,,,,
node/10245654653,Ruda Wielka,stop,,51.2925003,21.0401807,,,,
node/11362525273,Ruda Wielka,halt,Ru,51.2925427,21.0402295,,,,
node/11362525283,Ruda Wielka,stop,,51.2926002,21.0402774,,,,
node/13158139613,Rudnica,stop,,52.6132952,15.1772165,,,,
node/13158139614,Rudnica Dworzec Mały,stop,,52.6152795,15.175498,,,,
node/3594268087,Rudy,station,,50.1899257,18.4641521,,,,
node/560589646,Rumia Janowo,halt,,54.5595683,18.4045381,,,,
node/5676399129,Rumia Janowo,stop,,54.5594854,18.4048232,,,,
node/5676399130,Rumia Janowo,stop,,54.5590828,18.4053273,,,,
node/12033767581,Runowo,halt,,54.4810121,17.5498276,,,,
node/537228559,Runów,halt,,52.0192808,20.9345864,,,,
node/1799281954,Rybina Gdańska,halt,,54.2879642,19.1111364,,,,
node/12098866332,Rybina Gdańska,stop,,54.2879686,19.1111862,,,,
node/3259812321,Rybnik Stodoły,halt,,50.1674178,18.4768869,,,,
node/1377239030,Rybokarty,halt,,53.9157339,15.0770043,,,,
node/10814356670,Rzepin Miasto,halt,,52.3466334,14.8246491,,,,
node/11165075135,Rzeszów Baranówka,halt,,50.0644638,21.9889641,,,,
node/11240219979,Rzeszów Baranówka,stop,,50.0644473,21.988944,,,,
node/11240219980,Rzeszów Baranówka,stop,,50.0644668,21.9889946,,,,
node/2618666811,Rzeszów Dworzysko,stop,,50.0779017,21.9683913,,,,
node/2618666818,Rzeszów Dworzysko,stop,,50.0779354,21.9684068,,,,
node/11165075134,Rzeszów Dworzysko,halt,,50.0779245,21.9683681,,,,
node/3931920563,Różanna,halt,,52.5407088,18.0134852,,,,
node/4096037185,Sepno,halt,,52.1475453,16.5544845,,,,
node/9122648854,Seroki,stop,,52.1962401,20.4695198,,,,
node/1803599530,Siedlec Trzebnicki,halt,,51.2336489,17.1188187,,,,
node/10308843690,Siedlec Trzebnicki,stop,,51.233671,17.1188601,,,,
node/12042191955,Siemianice,halt,,54.4983566,17.0626861,,,,
node/293895539,Skalité-Serafínov,halt,SkSr,49.5015249,18.9640728,,,,
node/9525194280,Skalité-Serafínov,stop,,49.5015809,18.9644663,,,,
node/1787910864,Skawina Zachodnia,halt,,49.97314,19.7925421,,,,
node/11196227332,Skawina Zachodnia,stop,,49.9731941,19.7917582,,,,
node/11196227333,Skawina Zachodnia,stop,,49.9730967,19.7936518,,,,
node/9877589700,Sklęczki,stop,,52.225608,19.4074115,,,,
node/2211640327,Sobów,station,So,50.5922673,21.7356718,,,,
node/505060964,Sochaczew Miasto,halt,,52.2288095,20.2474969,,,,
node/300118296,Sopot Kamienny Potok,halt,,54.4576401,18.5535799,,,,
node/5677593644,Sopot Kamienny Potok,stop,,54.4574735,18.553742,,,,
node/5677593645,Sopot Kamienny Potok,stop,,54.4575891,18.5534913,,,,
node/2112379408,Sosnowiec Jęzor Południowy,stop,,50.2286307,19.1653436,,,,
node/11908102978,Sosnowiec Jęzor Południowy,halt,,50.2286545,19.1654178,,,,
node/12400339450,Sosnowiec Jęzor Południowy,stop,,50.2286753,19.1653403,,,,
node/11990027098,Stacja Wielichowo,halt,,52.1130236,16.3585959,,,,
node/3610539771,Stacja dolna,station,,54.5164005,18.5434812,,,,
node/3610539743,Stacja górna,station,,54.5156995,18.5439285,,,,
node/2993963457,Stanica Wąskotorowa,station,,50.2000298,18.5109638,,,,
node/2235203324,Starachowice Wschodnie Wąskotorowe,halt,,51.0377917,21.0843315,,,,
node/307389114,Stare Bielany,station,A21,52.2818277,20.9493511,,,,
node/1958108897,Stare Bielany,stop,,52.2818449,20.9493724,,,,
node/3211607579,Stare Bielany,stop,,52.2818105,20.9493299,,,,
node/12436825970,Stary Broniszew,halt,,50.9836582,19.1607855,,,,
node/12442252125,Stary Broniszew,stop,,50.9836615,19.1607073,,,,
node/4054779625,Stawy,halt,,51.4785972,17.3443534,,,,
node/289639432,Stegna Gdańska,halt,,54.3278476,19.1113904,,,,
node/12098866334,Stegna Gdańska,stop,,54.3276008,19.1113128,,,,
node/12098866335,Stegna Gdańska,stop,,54.3274743,19.1118606,,,,
node/12098866336,Stegna Gdańska,stop,,54.3280615,19.1111298,,,,
node/1955340040,Stegna Morska,halt,,54.3275039,19.1259386,,,,
node/12098866343,Stegna Morska,stop,,54.327521,19.1258493,,,,
node/1955332763,Stegna PKS,halt,,54.3277369,19.1206056,,,,
node/12098866342,Stegna PKS,stop,,54.3277316,19.1206032,,,,
node/2157575551,Sterławki Wielkie,station,SW,54.0157843,21.5821207,,,,
node/35121262,Stokłosy,stop,,52.1560439,21.0346808,,,,
node/3211607580,Stokłosy,stop,,52.156103,21.0348241,,,,
node/3390289961,Stokłosy,station,Sy,52.1560759,21.0347233,,,,
node/599726300,Sucha Góra,halt,,50.3986834,18.8630916,,,,
node/2154423757,Swobodna,halt,,53.9355209,20.3927021,,,,
node/12101457674,Swobodna,stop,,53.9355146,20.3926426,,,,
node/3318760865,Sypitki,station,,53.7869403,22.5645676,,,,
node/12091115077,Szamotuły,station,199,52.6020546,16.5882595,,,,
node/5144602720,Szałamaje,halt,,53.8532443,18.0553708,,,,
node/1543591021,Szczaki Złotokłos,station,,52.0045882,20.9111556,,,,
node/11865958050,Szczecin Dąbie,stop,8,53.3907954,14.6674634,,,,
node/2429581480,Szczecin Port Centralny,station,SP,53.4133077,14.5658023,,,,
node/2912094524,Szczecin Port Centralny,stop,,53.413277,14.5657359,,,,
node/2912094525,Szczecin Port Centralny,stop,,53.4133369,14.5658616,,,,
node/11964170227,Szczecinek Bugno,halt,,53.7231847,16.6843617,,,,
node/2137744783,Szczerbin,stop,,53.2475756,17.2314124,,,,
node/907975411,Szklarska Poręba Huta,halt,,50.8266625,15.4970629,,,,
node/2399870519,Szklary,halt,,49.871745,22.2483224,,,,
node/10766734403,Szklary Tunel,halt,,49.8811105,22.2438097,,,,
node/2337192048,Sztutowo,halt,,54.3268804,19.1747728,,,,
node/1955361245,Sztutowo Muzeum,halt,,54.3264373,19.1534742,,,,
node/12098866344,Sztutowo Muzeum,stop,,54.3264236,19.1534699,,,,
node/6053348692,Szwedzka,station,C16,52.2634709,21.0455232,,,,
node/6969186375,Szwedzka,stop,,52.2635233,21.0454662,,,,
node/6969186376,Szwedzka,stop,,52.2634185,21.0455801,,,,
node/1866263432,Szymany,station,Sy,53.4869372,20.9664688,,,,
node/12103048299,Szymany,stop,,53.4869612,20.9665201,,,,
node/12103048300,Szymany,stop,,53.4868998,20.9664328,,,,
node/3280169509,Szymbory,stop,,52.8944591,22.6107282,,,,
node/3280169510,Szymbory,stop,,52.8936047,22.6081597,,,,
node/3280169511,Szymbory,halt,,52.894032,22.6094442,,,,
node/3535123703,Sędziszów Małopolski Wschodni,stop,,50.0699864,21.7285588,,,,
node/11165017492,Sędziszów Małopolski Wschodni,halt,,50.0700445,21.728589,,,,
node/13311718655,Sławno,stop,,54.3554963,16.6677699,,,,
node/1958108834,Słodowiec,station,A20,52.2768261,20.9601259,,,,
node/3211607581,Słodowiec,stop,,52.276809,20.9601047,,,,
node/3211607582,Słodowiec,stop,,52.2768434,20.9601472,,,,
node/12745086611,Słone,halt,,51.9287425,15.3897965,,,,
node/1278165719,Słonice,halt,,53.0919147,15.5159587,,,,
node/3973978193,Słupia Wielka,halt,,52.2186031,17.2187896,,,,
node/9942983814,Słupsk,stop,,54.4704454,17.0167739,,,,
node/35121260,Służew,stop,,52.1727599,21.0262192,,,,
node/3211607583,Służew,stop,,52.1727627,21.0263943,,,,
node/3390306374,Służew,station,Sw,52.1727624,21.0262866,,,,
node/1543591064,Tarczyn Wąskotorowy,station,,51.9809715,20.8735748,,,,
node/5521176870,Targówek Mieszkaniowy,stop,,52.2692567,21.0512633,,,,
node/6564265270,Targówek Mieszkaniowy,station,C17,52.2692518,21.0513658,,,,
node/6969186377,Targówek Mieszkaniowy,stop,,52.269247,21.0514683,,,,
node/599726330,Tarnowskie Góry Kopalnia Srebra,halt,,50.4238993,18.8578718,,,,
node/7086317021,Tarnowskie Góry Skansen Maszyn Parowych,stop,,50.4258963,18.849331,,,,
node/599726355,Tarnowskie Góry Wąskotorowe,halt,,50.4400462,18.8612287,,,,
node/1271332406,Topiło,halt,,52.639865,23.6223391,,,,
node/1870528684,Tołkiny,station,Tł,54.1168951,21.2359043,,,,
node/12352252606,Tołkiny,stop,,54.116876,21.2358293,,,,
node/12352252645,Tołkiny,stop,,54.1169131,21.2359794,,,,
node/4930657487,Trocka,station,C18,52.2751021,21.0550586,,,,
node/6969186378,Trocka,stop,,52.2750585,21.0551324,,,,
node/6969186379,Trocka,stop,,52.2751458,21.0549847,,,,
node/6348562363,Troszyn,stop,,53.8440753,14.7158504,,,,
node/48293947,Trzciana,halt,Ta,50.0786278,21.8390015,,,,
node/7896931069,Trzciana,stop,Ta,50.0786156,21.8375904,,,,
node/7896931070,Trzciana,stop,,50.0786306,21.8407317,,,,
node/506288277,Trzebnica,stop,,51.3041406,17.0632163,,,,
node/10308843617,Trzebnica,station,,51.3040435,17.0632874,,,,
node/13112275275,Trzeciewnica,halt,,53.1531752,17.6412105,,,,
node/487678306,Trzęsacz,station,,54.0734042,14.9945157,,,,
node/1799416139,Tujsk,halt,,54.2762536,19.1326394,,,,
node/12098866331,Tujsk,stop,,54.2762403,19.1326157,,,,
node/505060978,Tułowice Sochaczewskie,halt,,52.3444641,20.2840319,,,,
node/3472158975,Tworki,halt,,52.1689418,20.8232513,,,,
node/10706722894,Tworki,stop,,52.1695705,20.8236684,,,,
node/10706722895,Tworki,stop,,52.1683911,20.8229073,,,,
node/3171161657,Tworóg Brynek,stop,,50.5052739,18.7546013,,,,
node/13158139621,Ulim,stop,,52.6715178,15.2179961,,,,
node/7362922677,Ulrychów,station,C05,52.2403314,20.9298652,,,,
node/9859052674,Ulrychów,stop,,52.2402594,20.929993,,,,
node/9859052675,Ulrychów,stop,,52.2403843,20.9300189,,,,
node/6702756935,Umianowice,station,,50.5825553,20.5192088,,,,
node/35121261,Ursynów,stop,,52.1620294,21.0275445,,,,
node/1958517518,Ursynów,stop,,52.1620211,21.0277181,,,,
node/3390304927,Ursynów,station,U,52.1620456,21.0276283,,,,
node/10772626839,Urzejowice,halt,,50.0136841,22.4688235,,,,
node/10009347696,Warszawa Gocławek,stop,290301,52.2392014,21.131743,,,,
node/7515926824,Warszawa Główna,station,WGO,52.2250393,20.9850425,,,,
node/9045662781,Warszawa Główna,stop,,52.2251902,20.9849669,,,,
node/9045662782,Warszawa Główna,stop,,52.2250845,20.9850238,,,,
node/9045662783,Warszawa Główna,stop,,52.2249959,20.9850716,,,,
node/9045662784,Warszawa Główna,stop,,52.2248917,20.9851324,,,,
node/3039605462,Warszawa Raków,stop,,52.1941108,20.9354143,,,,
node/3039605463,Warszawa Raków,stop,,52.1948874,20.9363307,,,,
node/3472122024,Warszawa Raków,halt,4914,52.1944814,20.9358485,,,,
node/3039621246,Warszawa Salomea,stop,,52.1864618,20.9244588,,,,
node/3039621247,Warszawa Salomea,stop,,52.1865112,20.924516,,,,
node/3472126593,Warszawa Salomea,halt,,52.1864599,20.9243847,,,,
node/2009591224,Warszawa Wesoła,stop,,52.2541885,21.2223269,,,,
node/2009591221,Warszawa Wola Grzybowska,stop,,52.2529186,21.2492247,,,,
node/2007340471,Warszawa Środmieście WKD,stop,,52.2275372,20.9997542,,,,
node/1718180086,Warszawa Śródmieście WKD,station,WŚr,52.2274779,20.9993834,,,,
node/307389115,Wawrzyszew,station,A22,52.2863474,20.939515,,,,
node/3211607584,Wawrzyszew,stop,,52.2863301,20.9394941,,,,
node/3211607585,Wawrzyszew,stop,,52.2863647,20.939536,,,,
node/5516362711,Wejherowo,stop,,54.605515,18.2323571,,,,
node/57488814,Wenecja,station,,52.7979486,17.7501553,,,,
node/2866307282,Wenecja Muzeum,halt,,52.7983787,17.7534941,,,,
node/1872229390,Wenecja Ośrodek Wypoczynkowy,halt,,52.811246,17.7426075,,,,
node/2172493597,Werchrata,station,,50.2480592,23.4881908,,,,
node/35121258,Wierzbno,stop,,52.1898557,21.016709,,,,
node/3211607586,Wierzbno,stop,,52.1898882,21.0168842,,,,
node/3390333313,Wierzbno,station,A8,52.1898719,21.0167966,,,,
node/35121259,Wilanowska,stop,,52.1817765,21.0230647,,,,
node/1958420740,Wilanowska,stop,,52.181857,21.0232256,,,,
node/3390336021,Wilanowska,station,Wa,52.1818168,21.0231452,,,,
node/502872157,Wilcze Tułowskie,halt,,52.3496054,20.3037055,,,,
node/12520400894,Wilków Wielki,halt,,50.7497501,16.844227,,,,
node/12173057662,Winnica,halt,,50.0869373,19.534168,,,,
node/12480799248,Wistka,halt,,51.1449487,19.0968874,,,,
node/12889686748,Wistka,stop,,51.1449282,19.0967645,,,,
node/9122648552,Witanów,stop,,52.1859836,20.5761349,,,,
node/635971832,Witkowo,halt,,52.4422746,17.7684382,,,,
node/1278165737,Witkowo,halt,,53.2845139,15.078338,,,,
node/13201153676,Witkowo,stop,,53.2838841,15.0795535,,,,
node/10013095429,Więcławice,stop,,52.8408114,18.3038768,,,,
node/12864930237,Wolenice,halt,,51.7645604,17.4370915,,,,
node/358344842,Wrocław Pawłowice,halt,,51.1687803,17.1083776,,,,
node/10308853029,Wrocław Pawłowice,stop,,51.1687585,17.1083455,,,,
node/12264525454,Wronki Zamość,halt,,52.7101264,16.3616817,,,,
node/12772121966,Wronki Zamość,stop,,52.7099986,16.3619976,,,,
node/12772121967,Wronki Zamość,stop,,52.7100356,16.3620266,,,,
node/2722337067,Wygoda,station,,50.6042391,20.4586174,,,,
node/11042488888,Wyrzysk Osiek,stop,,53.1192959,17.2973709,,,,
node/11042488889,Wyrzysk Osiek,stop,,53.119217,17.297385,,,,
node/12176447070,Zabrze Maciejów,halt,,50.3061347,18.7475233,,,,
node/12455635204,Zabrze Maciejów,stop,,50.3061421,18.7474977,,,,
node/12455635205,Zabrze Maciejów,stop,,50.3061242,18.747551,,,,
node/12412045262,Zabrze Północne,stop,,50.3240598,18.7870385,,,,
node/12412045263,Zabrze Północne,stop,,50.3241107,18.7870068,,,,
node/12412045264,Zabrze Północne,halt,,50.3240847,18.7870236,,,,
node/2547404990,Zacisze,stop,,52.2837368,21.062055,,,,
node/6356734437,Zacisze,stop,,52.2837625,21.0622409,,,,
node/10058224349,Zacisze,station,C19,52.2837496,21.062148,,,,
node/10773589613,Zagórze,halt,,49.9249923,22.3370787,,,,
node/1812379046,Zamkowa Wola,halt,,51.776332,20.262023,,,,
node/299829378,Zaniemyśl,station,,52.1585057,17.159264,,,,
node/2317653020,Zastów,station,Zs,50.1237784,20.0690701,,,,
node/2364819461,Zastów,stop,,50.1237563,20.0691282,,,,
node/9352764898,Zastów,stop,,50.1238112,20.0690364,,,,
node/1812378924,Zawady,halt,,51.7598566,20.1532924,,,,
node/12104227000,Zbiersk,station,,51.9477364,18.1466398,,,,
node/3525511368,Zebrzydowice,station,Zeb,49.8715401,18.6216353,,,,
node/3990004468,Zielona Góra Główna,station,ZG,51.947377,15.5111288,,,,
node/10794035352,Zielona Góra Główna,stop,,51.947162,15.5095978,,,,
node/2886791579,Zielonka,stop,,52.31168,21.1577784,,,,
node/3266122070,Zielonka,station,Zl,52.3118146,21.1576638,,,,
node/4557855636,Zielonka,stop,,52.3117674,21.1577154,,,,
node/4557855638,Zielonka,stop,,52.3115419,21.1568783,,,,
node/4482674053,Zwierzyniec,stop,,52.3997487,16.992445,,,,
node/13194313165,Zwierzyniec,station,,52.3997744,16.9924779,,,,
node/1812378921,Złota,halt,,51.7722448,20.1185749,,,,
node/2271845654,Złotniki Wielkie,halt,,51.8889418,18.17791,,,,
node/266266638,Český Těšín,stop,332346,49.7432821,18.6223631,,,,
node/2353774185,Český Těšín,stop,332346,49.7432596,18.6226896,,,,
node/2353774188,Český Těšín,stop,332346,49.7432642,18.6226254,,,,
node/2353774190,Český Těšín,stop,332346,49.7432739,18.622494,,,,
node/2353774192,Český Těšín,stop,332346,49.7432898,18.6222326,,,,
node/2353774195,Český Těšín,stop,332346,49.7432933,18.6221671,,,,
node/3274267878,Český Těšín (Czeski Cieszyn),station,332346,49.7432787,18.6224265,,,,
node/11295619887,Łagiewniki,halt,,51.3054087,22.6171099,,,,
node/12520400866,Łagiewniki,halt,,50.7900344,16.8498623,,,,
node/12037644919,Łebień,stop,,54.4914428,17.3395275,,,,
node/12037644920,Łebień,stop,,54.4914827,17.3395158,,,,
node/12037644921,Łebień,halt,,54.4914632,17.3395238,,,,
node/12871928034,Łomnica,halt,,50.8623742,15.7977812,,,,
node/11359355533,Łomnica Dolna,halt,,50.8781563,15.801268,,,,
node/11359355543,Łomnica Dolna,stop,,50.8781469,15.8012288,,,,
node/12871928053,Łomnica Średnia,stop,,50.8868326,15.7944386,,,,
node/12871928054,Łomnica Średnia,halt,,50.8868226,15.7944056,,,,
node/2399865259,Łopuszka Mała,halt,,49.9671956,22.4055207,,,,
node/10771832961,Łopuszka Wielka,halt,,49.9518659,22.3954906,,,,
node/3446483073,Łuków,station,Łk,51.9404823,22.3928588,,,,
node/9339342876,Łuków,stop,,51.9405736,22.3922293,,,,
node/9339342877,Łuków,stop,,51.940672,22.3923293,,,,
node/9339342878,Łuków,stop,,51.9407055,22.3923685,,,,
node/9339342879,Łuków,stop,,51.9408026,22.3924702,,,,
node/5320311395,Łódź Andrzejów,stop,,51.7405839,19.6181822,,,,
node/487678764,Śliwin,halt,,54.072985,15.0325699,,,,
node/9725691536,Śmigiel,station,,52.0061461,16.5266295,,,,
node/9725719705,Śmigiel Zachód,halt,,52.0190071,16.5116091,,,,
node/3973996640,Śnieciska,halt,,52.1903384,17.1928876,,,,
node/2003330346,Środa Wielkopolska Miasto,station,,52.221858,17.2795641,,,,
node/2003330350,Środa Wielkopolska Wąskotorowa,station,,52.2200524,17.2713737,,,,
node/10995804107,Świeradów-Zdrój,stop,,50.9115569,15.343552,,,,
node/11252036715,Świeradów-Zdrój,station,,50.911427,15.3435063,,,,
node/272323973,Świnoujście Centrum,station,XPSM,53.9146048,14.2335224,,,,
node/5273777885,Świnoujście Centrum,stop,,53.9143745,14.2339605,,,,
node/5273778231,Świnoujście Centrum,stop,,53.91445,14.2340378,,,,
node/35121251,Świętokrzyska,stop,,52.2358067,21.0073724,,,,
node/1958403213,Świętokrzyska,stop,,52.2358468,21.0075805,,,,
node/3208963713,Świętokrzyska,stop,,52.2352252,21.0089918,,,,
node/3208963714,Świętokrzyska,stop,,52.2353516,21.0089172,,,,
node/5117464830,Świętokrzyska,station,A14;C11,52.2350954,21.0078988,,,,
node/3626658343,Żabno,station,Żb,50.1276182,20.9003924,,,,
node/1546019487,Żarowo,stop,,53.3800553,15.0002027,,,,
node/12412575443,Żary Muzyków,halt,,51.6415688,15.1165045,,,,
node/9916579711,Żnin Licealna,station,,52.8453063,17.7232151,,,,
node/311307361,Żukowo Wschodnie,station,Żw,54.3506844,18.3770521,,,,
node/5153830502,Żuławka Główna,halt,,53.998212,19.2644486,,,,
node/5153830503,Żuławka Kurort Letni,halt,,53.99919,19.2654354,,,,
node/5057933660,Голя,station,,52.4598697,23.354512,,,,
node/1602236949,Нижанковичі,station,,49.6896711,22.8188815,,,,
node/391025983,,stop,,50.1898702,18.4641484,,,,
node/1418204336,,stop,,50.2000469,18.5112669,,,,
node/2986773662,,stop,,50.1751019,18.4744783,,,,
node/2986773675,,stop,,50.1756428,18.472966,,,,
node/8690580624,,stop,,54.2216143,19.1191707,,,,
node/8690580629,,stop,,54.2170322,19.1248189,,,,
node/8755212608,,stop,,50.5204207,22.9943396,,,,
