uri,uri_canonical,id,name,lat,lon,op_type,op_type_label,country,op_type_code,op_type_name
http://data.europa.eu/949/functionalInfrastructure/operationalPoints/04ac7dc1b9a68f318e928b13611088d6474f98e9,http://data.europa.eu/949/functionalInfrastructure/operationalPoints/SK143669,SK143669,Skalica na Slovensku,48.85001,17.21852,http://data.europa.eu/949/concepts/op-types/rinf/10,10,http://publications.europa.eu/resource/authority/country/SVK,10,station
http://data.europa.eu/949/functionalInfrastructure/operationalPoints/04ea461b6af6aecb40bcf8abc4af8de511301244,http://data.europa.eu/949/functionalInfrastructure/operationalPoints/SK143206,SK143206,Podolínec,49.25498,20.5269,http://data.europa.eu/949/concepts/op-types/rinf/10,10,http://publications.europa.eu/resource/authority/country/SVK,10,station
http://data.europa.eu/949/functionalInfrastructure/operationalPoints/04edbbf89626cf660c22b66fdddef49c6b3eceab,http://data.europa.eu/949/functionalInfrastructure/operationalPoints/SK157966,SK157966,Vlčany,48.029833,17.93657,http://data.europa.eu/949/concepts/op-types/rinf/30,30,http://publications.europa.eu/resource/authority/country/SVK,30,passenger terminal
http://data.europa.eu/949/functionalInfrastructure/operationalPoints/0542e7d0b15879713c99c7dafb20470772e428bb,http://data.europa.eu/949/functionalInfrastructure/operationalPoints/SK173153,SK173153,Handlová,48.72552,18.75417,http://data.europa.eu/949/concepts/op-types/rinf/10,10,http://publications.europa.eu/resource/authority/country/SVK,10,station
http://data.europa.eu/949/functionalInfrastructure/operationalPoints/077108e2b7fd6f4a9d04d4d6d9368fa90ff7302a,http://data.europa.eu/949/functionalInfrastructure/operationalPoints/SK133538,SK133538,Kostiviarska,48.75893,19.14361,http://data.europa.eu/949/concepts/op-types/rinf/110,110,http://publications.europa.eu/resource/authority/country/SVK,110,technical change
http://data.europa.eu/949/functionalInfrastructure/operationalPoints/0aa9c1bc8d657bdebf46ee7bf9c10186f75db737,http://data.europa.eu/949/functionalInfrastructure/operationalPoints/SK143503,SK143503,Stará Ľubovňa,49.30823,20.68026,http://data.europa.eu/949/concepts/op-types/rinf/10,10,http://publications.europa.eu/resource/authority/country/SVK,10,station
http://data.europa.eu/949/functionalInfrastructure/operationalPoints/0c3dd30aa5d5e6d28c688ce7b510760f787807b1,http://data.europa.eu/949/functionalInfrastructure/operationalPoints/SK188037,SK188037,Breziny nákladisko,48.518309,19.100246,http://data.europa.eu/949/concepts/op-types/rinf/30,30,http://publications.europa.eu/resource/authority/country/SVK,30,passenger terminal
http://data.europa.eu/949/functionalInfrastructure/operationalPoints/0eed44e3e4cf852502305d2e250530d02c08b923,http://data.europa.eu/949/functionalInfrastructure/operationalPoints/SK133603,SK133603,Spišská Nová Ves,48.95038,20.56114,http://data.europa.eu/949/concepts/op-types/rinf/10,10,http://publications.europa.eu/resource/authority/country/SVK,10,station
http://data.europa.eu/949/functionalInfrastructure/operationalPoints/10ff42aa657ebb96f57da77ab0a8abfd25d6162f,http://data.europa.eu/949/functionalInfrastructure/operationalPoints/SK154401,SK154401,Jelšava,48.62326,20.24216,http://data.europa.eu/949/concepts/op-types/rinf/10,10,http://publications.europa.eu/resource/authority/country/SVK,10,station
http://data.europa.eu/949/functionalInfrastructure/operationalPoints/13f2833974598e6f0f3ed447fbf5111e04bc5ff0,http://data.europa.eu/949/functionalInfrastructure/operationalPoints/SK190090,SK190090,Odb. Vinohrady,48.19383,17.144,http://data.europa.eu/949/concepts/op-types/rinf/80,80,http://publications.europa.eu/resource/authority/country/SVK,80,junction
http://data.europa.eu/949/functionalInfrastructure/operationalPoints/143f96e32dca94386f64d3a7f8a7156e98777774,http://data.europa.eu/949/functionalInfrastructure/operationalPoints/SK142802,SK142802,Spišská Belá zastávka,49.18449,20.47164,http://data.europa.eu/949/concepts/op-types/rinf/30,30,http://publications.europa.eu/resource/authority/country/SVK,30,passenger terminal
http://data.europa.eu/949/functionalInfrastructure/operationalPoints/16ae0e9b786e71b51e312227ab3706db3aa9695d,http://data.europa.eu/949/functionalInfrastructure/operationalPoints/SK135301,SK135301,Malá Lodina,48.87395,21.13429,http://data.europa.eu/949/concepts/op-types/rinf/10,10,http://publications.europa.eu/resource/authority/country/SVK,10,station
http://data.europa.eu/949/functionalInfrastructure/operationalPoints/1781fb1f2ca4fa01872573b99d57c70263eea8af,http://data.europa.eu/949/functionalInfrastructure/operationalPoints/SK150672,SK150672,Trebatice,48.597248,17.75788,http://data.europa.eu/949/concepts/op-types/rinf/30,30,http://publications.europa.eu/resource/authority/country/SVK,30,passenger terminal
http://data.europa.eu/949/functionalInfrastructure/operationalPoints/1a1cd6a106119e2b2a4e775ae080b00c2cf4ba02,http://data.europa.eu/949/functionalInfrastructure/operationalPoints/SK199992,SK199992,Čierna nad Tisou ŠRT,48.422451,22.083371,http://data.europa.eu/949/concepts/op-types/rinf/10,10,http://publications.europa.eu/resource/authority/country/SVK,10,station
http://data.europa.eu/949/functionalInfrastructure/operationalPoints/1a3d0ee53228a8878236d52ebd577f978d23c042,http://data.europa.eu/949/functionalInfrastructure/operationalPoints/SK161109,SK161109,Dlhé nad Cirochou,48.954853,22.055298,http://data.europa.eu/949/concepts/op-types/rinf/10,10,http://publications.europa.eu/resource/authority/country/SVK,10,station
http://data.europa.eu/949/functionalInfrastructure/operationalPoints/1aa3e720c23f72978e4f0f780dde0c6355f08d24,http://data.europa.eu/949/functionalInfrastructure/operationalPoints/SK133934,SK133934,Šalková,48.741266,19.21817,http://data.europa.eu/949/concepts/op-types/rinf/30,30,http://publications.europa.eu/resource/authority/country/SVK,30,passenger terminal
http://data.europa.eu/949/functionalInfrastructure/operationalPoints/1c01e5edf3f776340da121daca1177602ab3d402,http://data.europa.eu/949/functionalInfrastructure/operationalPoints/SK151860,SK151860,Ostratice,48.64784,18.27189,http://data.europa.eu/949/concepts/op-types/rinf/30,30,http://publications.europa.eu/resource/authority/country/SVK,30,passenger terminal
http://data.europa.eu/949/functionalInfrastructure/operationalPoints/1ef27bb1c6c94da0fc0c5c186a1a10f6fc3aea3d,http://data.europa.eu/949/functionalInfrastructure/operationalPoints/SK155267,SK155267,Bošany,48.59267,18.24145,http://data.europa.eu/949/concepts/op-types/rinf/10,10,http://publications.europa.eu/resource/authority/country/SVK,10,station
http://data.europa.eu/949/functionalInfrastructure/operationalPoints/22188456ee32012a2db213d192ccdd96d845e8cb,http://data.europa.eu/949/functionalInfrastructure/operationalPoints/SK190082,SK190082,Výh. Váh,49.212261,18.805177,http://data.europa.eu/949/concepts/op-types/rinf/80,80,http://publications.europa.eu/resource/authority/country/SVK,80,junction
http://data.europa.eu/949/functionalInfrastructure/operationalPoints/22baadf13c1629cc26eea8e03d4906dac239c382,http://data.europa.eu/949/functionalInfrastructure/operationalPoints/SK141168,SK141168,Šaštín-Stráže,48.63402,17.14217,http://data.europa.eu/949/concepts/op-types/rinf/110,110,http://publications.europa.eu/resource/authority/country/SVK,110,technical change
http://data.europa.eu/949/functionalInfrastructure/operationalPoints/25c266a862d1de9987cce9271dcace0b9b78733f,http://data.europa.eu/949/functionalInfrastructure/operationalPoints/SK149534,SK149534,Zlatno,48.513389,19.81635,http://data.europa.eu/949/concepts/op-types/rinf/30,30,http://publications.europa.eu/resource/authority/country/SVK,30,passenger terminal
http://data.europa.eu/949/functionalInfrastructure/operationalPoints/265ab19a36a8ec36d418b99a95a8e49f0838806d,http://data.europa.eu/949/functionalInfrastructure/operationalPoints/SK138867,SK138867,Trenčianska Teplá,48.93882,18.11504,http://data.europa.eu/949/concepts/op-types/rinf/10,10,http://publications.europa.eu/resource/authority/country/SVK,10,station
http://data.europa.eu/949/functionalInfrastructure/operationalPoints/28078a63d10254d5eae8e08d0c76aa2e789d7967,http://data.europa.eu/949/functionalInfrastructure/operationalPoints/SK132167,SK132167,Bratislava-Vajnory,48.19487,17.2067,http://data.europa.eu/949/concepts/op-types/rinf/10,10,http://publications.europa.eu/resource/authority/country/SVK,10,station
http://data.europa.eu/949/functionalInfrastructure/operationalPoints/2a8dba2450fb254041b28bdc4046994d670c7304,http://data.europa.eu/949/functionalInfrastructure/operationalPoints/SK144261,SK144261,Vaďovce,48.73098,17.72437,http://data.europa.eu/949/concepts/op-types/rinf/110,110,http://publications.europa.eu/resource/authority/country/SVK,110,technical change
http://data.europa.eu/949/functionalInfrastructure/operationalPoints/2b7ff474a9194bb966e92750a8755b6809681871,http://data.europa.eu/949/functionalInfrastructure/operationalPoints/SK136135,SK136135,Lučenec,48.33598,19.66792,http://data.europa.eu/949/concepts/op-types/rinf/10,10,http://publications.europa.eu/resource/authority/country/SVK,10,station
http://data.europa.eu/949/functionalInfrastructure/operationalPoints/2ba7750f4b095ade33918c48f4a3e4eaa95375a9,http://data.europa.eu/949/functionalInfrastructure/operationalPoints/SK154161,SK154161,Koniarovce,48.43288,18.09116,http://data.europa.eu/949/concepts/op-types/rinf/10,10,http://publications.europa.eu/resource/authority/country/SVK,10,station
http://data.europa.eu/949/functionalInfrastructure/operationalPoints/2c34d4803c4629968c6bb6dc7179b9ccaaeb0f05,http://data.europa.eu/949/functionalInfrastructure/operationalPoints/SK150862,SK150862,Trenčianska Turná,48.85821,18.01954,http://data.europa.eu/949/concepts/op-types/rinf/10,10,http://publications.europa.eu/resource/authority/country/SVK,10,station
http://data.europa.eu/949/functionalInfrastructure/operationalPoints/2d7620d30c707cd3906f8c7bc6f89ba8657f7b22,http://data.europa.eu/949/functionalInfrastructure/operationalPoints/SK154567,SK154567,Ludanice,48.50415,18.1189,http://data.europa.eu/949/concepts/op-types/rinf/10,10,http://publications.europa.eu/resource/authority/country/SVK,10,station
http://data.europa.eu/949/functionalInfrastructure/operationalPoints/2db1985a478951da93aa743aca760eace20e9d7d,http://data.europa.eu/949/functionalInfrastructure/operationalPoints/SK134064,SK134064,Tvrdošovce,48.092504,18.040855,http://data.europa.eu/949/concepts/op-types/rinf/10,10,http://publications.europa.eu/resource/authority/country/SVK,10,station
http://data.europa.eu/949/functionalInfrastructure/operationalPoints/30e91cb341fe7872d3849045174dc4d9ed26b90e,http://data.europa.eu/949/functionalInfrastructure/operationalPoints/SK137901,SK137901,Slovenské Nové Mesto,48.40094,21.66798,http://data.europa.eu/949/concepts/op-types/rinf/10,10,http://publications.europa.eu/resource/authority/country/SVK,10,station
http://data.europa.eu/949/functionalInfrastructure/operationalPoints/33e99ff283ba89d71297062ea5bb364bc97607ea,http://data.europa.eu/949/functionalInfrastructure/operationalPoints/SK191270,SK191270,Bratislava východ odch. sk. Sever,48.19428,17.19595,http://data.europa.eu/949/concepts/op-types/rinf/10,10,http://publications.europa.eu/resource/authority/country/SVK,10,station
http://data.europa.eu/949/functionalInfrastructure/operationalPoints/33f9ee76a213e22a7a3f7174ab465cb0aaa7ebfc,http://data.europa.eu/949/functionalInfrastructure/operationalPoints/SK131367,SK131367,Devínska Nová Ves,48.21905,16.97637,http://data.europa.eu/949/concepts/op-types/rinf/10,10,http://publications.europa.eu/resource/authority/country/SVK,10,station
http://data.europa.eu/949/functionalInfrastructure/operationalPoints/34ac7ce2ed6df67f7d767a04acf11fae27793645,http://data.europa.eu/949/functionalInfrastructure/operationalPoints/SK163808,SK163808,Sabinov,49.103442,21.08881,http://data.europa.eu/949/concepts/op-types/rinf/110,110,http://publications.europa.eu/resource/authority/country/SVK,110,technical change
http://data.europa.eu/949/functionalInfrastructure/operationalPoints/34fd1dc840d1ac1d0038b0697c13a067483a4ba5,http://data.europa.eu/949/functionalInfrastructure/operationalPoints/SK138735,SK138735,Lenartovce,48.30277,20.32631,http://data.europa.eu/949/concepts/op-types/rinf/10,10,http://publications.europa.eu/resource/authority/country/SVK,10,station
http://data.europa.eu/949/functionalInfrastructure/operationalPoints/37f41d3baed46b8cc5611de66064673ce1b629ec,http://data.europa.eu/949/functionalInfrastructure/operationalPoints/SK141234,SK141234,Žiar nad Hronom,48.57847,18.87038,http://data.europa.eu/949/concepts/op-types/rinf/10,10,http://publications.europa.eu/resource/authority/country/SVK,10,station
http://data.europa.eu/949/functionalInfrastructure/operationalPoints/392c35e1e43d17e2538c88334fb6cf50db2e4ad9,http://data.europa.eu/949/functionalInfrastructure/operationalPoints/SK138537,SK138537,Orávka,48.3053,20.19549,http://data.europa.eu/949/concepts/op-types/rinf/70,70,http://publications.europa.eu/resource/authority/country/SVK,70,passenger stop
http://data.europa.eu/949/functionalInfrastructure/operationalPoints/3aa63873c4be541a0fc285f0c4c63f0e5a0f6200,http://data.europa.eu/949/functionalInfrastructure/operationalPoints/SK130666,SK130666,Veľké Leváre,48.50929,17.01866,http://data.europa.eu/949/concepts/op-types/rinf/10,10,http://publications.europa.eu/resource/authority/country/SVK,10,station
http://data.europa.eu/949/functionalInfrastructure/operationalPoints/3cb23c3f1e4d0081ba38b489267e5aae0d410725,http://data.europa.eu/949/functionalInfrastructure/operationalPoints/SK156000,SK156000,Nižná Slaná,48.73632,20.41863,http://data.europa.eu/949/concepts/op-types/rinf/110,110,http://publications.europa.eu/resource/authority/country/SVK,110,technical change
http://data.europa.eu/949/functionalInfrastructure/operationalPoints/3cdbedb33dd66f235eba1aeefddd22c8dbbff572,http://data.europa.eu/949/functionalInfrastructure/operationalPoints/SK190074,SK190074,Potok odb.,49.196989,18.866786,http://data.europa.eu/949/concepts/op-types/rinf/80,80,http://publications.europa.eu/resource/authority/country/SVK,80,junction
http://data.europa.eu/949/functionalInfrastructure/operationalPoints/3d1b3408e70a293540a25362ee57ea4574163816,http://data.europa.eu/949/functionalInfrastructure/operationalPoints/SK134734,SK134734,Vígľaš,48.55424,19.28262,http://data.europa.eu/949/concepts/op-types/rinf/10,10,http://publications.europa.eu/resource/authority/country/SVK,10,station
http://data.europa.eu/949/functionalInfrastructure/operationalPoints/3d738d7cc1c3793b4a36339950cd48fcaa179f58,http://data.europa.eu/949/functionalInfrastructure/operationalPoints/SK190405,SK190405,Lastovce odb.,48.5334,21.6225,http://data.europa.eu/949/concepts/op-types/rinf/80,80,http://publications.europa.eu/resource/authority/country/SVK,80,junction
http://data.europa.eu/949/functionalInfrastructure/operationalPoints/3df8e34e16cb4a5a2970e6488b3bd02936ca7da5,http://data.europa.eu/949/functionalInfrastructure/operationalPoints/SK190223,SK190223,Nové Mesto nad Váhom výh. č. 48/49,48.738304,17.834501,http://data.europa.eu/949/concepts/op-types/rinf/80,80,http://publications.europa.eu/resource/authority/country/SVK,80,junction
http://data.europa.eu/949/functionalInfrastructure/operationalPoints/3fbe8bef473d4bd1c249d9e986c6b4e606cea357,http://data.europa.eu/949/functionalInfrastructure/operationalPoints/SK154708,SK154708,Hucín,48.56505,20.29501,http://data.europa.eu/949/concepts/op-types/rinf/10,10,http://publications.europa.eu/resource/authority/country/SVK,10,station
http://data.europa.eu/949/functionalInfrastructure/operationalPoints/4042546b6ccc75f84fee5a15770e4fffeb4768d8,http://data.europa.eu/949/functionalInfrastructure/operationalPoints/SK154062,SK154062,Jelšovce,48.38356,18.05252,http://data.europa.eu/949/concepts/op-types/rinf/10,10,http://publications.europa.eu/resource/authority/country/SVK,10,station
http://data.europa.eu/949/functionalInfrastructure/operationalPoints/41a65c936760be7d4fb35a6bb6b75b914633dcdc,http://data.europa.eu/949/functionalInfrastructure/operationalPoints/SK158568,SK158568,Kolárovo,47.911809,17.984612,http://data.europa.eu/949/concepts/op-types/rinf/110,110,http://publications.europa.eu/resource/authority/country/SVK,110,technical change
http://data.europa.eu/949/functionalInfrastructure/operationalPoints/424f60b9597ca3d9222b2a53357f767a12decb98,http://data.europa.eu/949/functionalInfrastructure/operationalPoints/SK145169,SK145169,Bratislava predmestie,48.18448,17.13449,http://data.europa.eu/949/concepts/op-types/rinf/10,10,http://publications.europa.eu/resource/authority/country/SVK,10,station
http://data.europa.eu/949/functionalInfrastructure/operationalPoints/434f87ef8a630fdce9f9a1997659f6b891cb5be8,http://data.europa.eu/949/functionalInfrastructure/operationalPoints/SK151936,SK151936,Tisovec-Bánovo,48.716336,19.866899,http://data.europa.eu/949/concepts/op-types/rinf/70,70,http://publications.europa.eu/resource/authority/country/SVK,70,passenger stop
http://data.europa.eu/949/functionalInfrastructure/operationalPoints/450b9cb4f763711c02bef4fee54b1eab75fe01c9,http://data.europa.eu/949/functionalInfrastructure/operationalPoints/SK155069,SK155069,Topoľčany,48.56274,18.1695,http://data.europa.eu/949/concepts/op-types/rinf/10,10,http://publications.europa.eu/resource/authority/country/SVK,10,station
http://data.europa.eu/949/functionalInfrastructure/operationalPoints/4513b7e035c6c3c1f1a863900e1717042a6dfd4b,http://data.europa.eu/949/functionalInfrastructure/operationalPoints/SK148262,SK148262,Zemianska Olča,47.807948,17.85248,http://data.europa.eu/949/concepts/op-types/rinf/110,110,http://publications.europa.eu/resource/authority/country/SVK,110,technical change
http://data.europa.eu/949/functionalInfrastructure/operationalPoints/48258261e2dd03a2c8592b12eeb70d9e703c91cd,http://data.europa.eu/949/functionalInfrastructure/operationalPoints/SK191288,SK191288,Bratislava východ odch. sk. Juh,48.19366,17.18188,http://data.europa.eu/949/concepts/op-types/rinf/10,10,http://publications.europa.eu/resource/authority/country/SVK,10,station
http://data.europa.eu/949/functionalInfrastructure/operationalPoints/4836e7efad43748e6af878d9ff9b248a3cdc5429,http://data.europa.eu/949/functionalInfrastructure/operationalPoints/SK190066,SK190066,Hatalov odb.,48.682007,21.845541,http://data.europa.eu/949/concepts/op-types/rinf/80,80,http://publications.europa.eu/resource/authority/country/SVK,80,junction
http://data.europa.eu/949/functionalInfrastructure/operationalPoints/4899bf7162c945cf5d7f7d0f060b1747f518e6a5,http://data.europa.eu/949/functionalInfrastructure/operationalPoints/SK136937,SK136937,Fiľakovo,48.26657,19.83225,http://data.europa.eu/949/concepts/op-types/rinf/10,10,http://publications.europa.eu/resource/authority/country/SVK,10,station
http://data.europa.eu/949/functionalInfrastructure/operationalPoints/48fbff42c50c123c8475ed6ddfb743931559e558,http://data.europa.eu/949/functionalInfrastructure/operationalPoints/SK137539,SK137539,Hajnáčka,48.23586,19.93056,http://data.europa.eu/949/concepts/op-types/rinf/10,10,http://publications.europa.eu/resource/authority/country/SVK,10,station
http://data.europa.eu/949/functionalInfrastructure/operationalPoints/49c7ea91cc3a0d28998872e2f0f0437b2344f2c6,http://data.europa.eu/949/functionalInfrastructure/operationalPoints/SK134460,SK134460,Dvory nad Žitavou,47.96871,18.249086,http://data.europa.eu/949/concepts/op-types/rinf/10,10,http://publications.europa.eu/resource/authority/country/SVK,10,station
http://data.europa.eu/949/functionalInfrastructure/operationalPoints/4a6f40230685f86a86072b6453527fb864f07829,http://data.europa.eu/949/functionalInfrastructure/operationalPoints/SK173559,SK173559,Sklené pri Handlovej,48.78292,18.84191,http://data.europa.eu/949/concepts/op-types/rinf/10,10,http://publications.europa.eu/resource/authority/country/SVK,10,station
http://data.europa.eu/949/functionalInfrastructure/operationalPoints/4d965d05fddba3b14ea7340b33ccda10e5637bd2,http://data.europa.eu/949/functionalInfrastructure/operationalPoints/SK140269,SK140269,Jablonové,48.35349,17.089116,http://data.europa.eu/949/concepts/op-types/rinf/10,10,http://publications.europa.eu/resource/authority/country/SVK,10,station
http://data.europa.eu/949/functionalInfrastructure/operationalPoints/4e1a10520a4bbedb407c1064076548e267a647b1,http://data.europa.eu/949/functionalInfrastructure/operationalPoints/SK190124,SK190124,Poprad-Tatry TEŽ,49.0611,20.295267,http://data.europa.eu/949/concepts/op-types/rinf/10,10,http://publications.europa.eu/resource/authority/country/SVK,10,station
http://data.europa.eu/949/functionalInfrastructure/operationalPoints/4f410500dbf77030b787b423a39b0fe01b7db73f,http://data.europa.eu/949/functionalInfrastructure/operationalPoints/SK131839,SK131839,Hronská Dúbrava,48.57648,18.98965,http://data.europa.eu/949/concepts/op-types/rinf/10,10,http://publications.europa.eu/resource/authority/country/SVK,10,station
http://data.europa.eu/949/functionalInfrastructure/operationalPoints/4f4e001eb741493bef846559b24ab76f5f47c9d7,http://data.europa.eu/949/functionalInfrastructure/operationalPoints/SK137265,SK137265,Veľké Kostoľany,48.50653,17.77306,http://data.europa.eu/949/concepts/op-types/rinf/110,110,http://publications.europa.eu/resource/authority/country/SVK,110,technical change
http://data.europa.eu/949/functionalInfrastructure/operationalPoints/4f78cadc4f840b8012ecfe51e92ce2cf9f824082,http://data.europa.eu/949/functionalInfrastructure/operationalPoints/SK189381,SK189381,Žilina-Teplička smerová sk.,49.209915,18.807563,http://data.europa.eu/949/concepts/op-types/rinf/10,10,http://publications.europa.eu/resource/authority/country/SVK,10,station
http://data.europa.eu/949/functionalInfrastructure/operationalPoints/530c51a16150f6016b72e28f60a7fcddb7e62b4b,http://data.europa.eu/949/functionalInfrastructure/operationalPoints/SK147132,SK147132,Krupina,48.346601,19.068619,http://data.europa.eu/949/concepts/op-types/rinf/10,10,http://publications.europa.eu/resource/authority/country/SVK,10,station
http://data.europa.eu/949/functionalInfrastructure/operationalPoints/546605084edd7e30a7fe64c0fabfc4bfa75b4dde,http://data.europa.eu/949/functionalInfrastructure/operationalPoints/SK159269,SK159269,Rišňovce,48.37293,17.89009,http://data.europa.eu/949/concepts/op-types/rinf/10,10,http://publications.europa.eu/resource/authority/country/SVK,10,station
http://data.europa.eu/949/functionalInfrastructure/operationalPoints/55a338896447dbfd52d1dac1c103235d0fe3b252,http://data.europa.eu/949/functionalInfrastructure/operationalPoints/SK160101,SK160101,Strážske,48.867431,21.824767,http://data.europa.eu/949/concepts/op-types/rinf/10,10,http://publications.europa.eu/resource/authority/country/SVK,10,station
http://data.europa.eu/949/functionalInfrastructure/operationalPoints/55a3f119ebd8b53d652e1bf62f593f7689826ada,http://data.europa.eu/949/functionalInfrastructure/operationalPoints/SK137208,SK137208,Slanec,48.64355,21.48863,http://data.europa.eu/949/concepts/op-types/rinf/10,10,http://publications.europa.eu/resource/authority/country/SVK,10,station
http://data.europa.eu/949/functionalInfrastructure/operationalPoints/57ad6aefc8bfa89106e655512fa8d318df50211e,http://data.europa.eu/949/functionalInfrastructure/operationalPoints/SK126128,SK126128,Modrý most,48.199113,17.149853,http://data.europa.eu/949/concepts/op-types/rinf/110,110,http://publications.europa.eu/resource/authority/country/SVK,110,technical change
http://data.europa.eu/949/functionalInfrastructure/operationalPoints/5c352356103f70f1353a7293cc20e8f441bae7fd,http://data.europa.eu/949/functionalInfrastructure/operationalPoints/SK159061,SK159061,Hlohovec,48.43325,17.80677,http://data.europa.eu/949/concepts/op-types/rinf/10,10,http://publications.europa.eu/resource/authority/country/SVK,10,station
http://data.europa.eu/949/functionalInfrastructure/operationalPoints/5d99ea172a14fe03e523fceb01edf4080ae27c9f,http://data.europa.eu/949/functionalInfrastructure/operationalPoints/SK135137,SK135137,Stožok,48.53824,19.35837,http://data.europa.eu/949/concepts/op-types/rinf/10,10,http://publications.europa.eu/resource/authority/country/SVK,10,station
http://data.europa.eu/949/functionalInfrastructure/operationalPoints/5e2e5c51b6fdc19018d33d0b5ddbe27b9505a80f,http://data.europa.eu/949/functionalInfrastructure/operationalPoints/SK151167,SK151167,Trenčianske Jastrabie,48.80081,18.11906,http://data.europa.eu/949/concepts/op-types/rinf/30,30,http://publications.europa.eu/resource/authority/country/SVK,30,passenger terminal
http://data.europa.eu/949/functionalInfrastructure/operationalPoints/5e816a894212bcd91ed220c53c3393c6fa5a1bde,http://data.europa.eu/949/functionalInfrastructure/operationalPoints/SK146662,SK146662,Kvetoslavov,48.05499,17.36092,http://data.europa.eu/949/concepts/op-types/rinf/110,110,http://publications.europa.eu/resource/authority/country/SVK,110,technical change
http://data.europa.eu/949/functionalInfrastructure/operationalPoints/5eed6e37818c5307723df10b325a2128383163c2,http://data.europa.eu/949/functionalInfrastructure/operationalPoints/SK152504,SK152504,Veľká Ida,48.59111,21.17172,http://data.europa.eu/949/concepts/op-types/rinf/110,110,http://publications.europa.eu/resource/authority/country/SVK,110,technical change
http://data.europa.eu/949/functionalInfrastructure/operationalPoints/5fcc2f480ac0b26d2bf8f048264ad53dddaa211d,http://data.europa.eu/949/functionalInfrastructure/operationalPoints/SK130336,SK130336,Príbovce-Rakovo,48.99389,18.87985,http://data.europa.eu/949/concepts/op-types/rinf/10,10,http://publications.europa.eu/resource/authority/country/SVK,10,station
http://data.europa.eu/949/functionalInfrastructure/operationalPoints/60515c8628a0f7465843e9ddf5fd402aea10fa24,http://data.europa.eu/949/functionalInfrastructure/operationalPoints/SK131714,SK131714,Východná,49.050414,19.917011,http://data.europa.eu/949/concepts/op-types/rinf/10,10,http://publications.europa.eu/resource/authority/country/SVK,10,station
http://data.europa.eu/949/functionalInfrastructure/operationalPoints/6065a99874973706f522577c742baed11ffafa5d,http://data.europa.eu/949/functionalInfrastructure/operationalPoints/SK152462,SK152462,Komjatice,48.1519,18.16369,http://data.europa.eu/949/concepts/op-types/rinf/10,10,http://publications.europa.eu/resource/authority/country/SVK,10,station
http://data.europa.eu/949/functionalInfrastructure/operationalPoints/6163db34e68433aa8159555a7ad881b2c9c41628,http://data.europa.eu/949/functionalInfrastructure/operationalPoints/SK133330,SK133330,Uľanka,48.77999,19.12366,http://data.europa.eu/949/concepts/op-types/rinf/110,110,http://publications.europa.eu/resource/authority/country/SVK,110,technical change
http://data.europa.eu/949/functionalInfrastructure/operationalPoints/626cc60d3e3ca4c91eca6f89a6f534424b27d524,http://data.europa.eu/949/functionalInfrastructure/operationalPoints/SK136101,SK136101,Ťahanovce,48.75568,21.25342,http://data.europa.eu/949/concepts/op-types/rinf/70,70,http://publications.europa.eu/resource/authority/country/SVK,70,passenger stop
http://data.europa.eu/949/functionalInfrastructure/operationalPoints/6303e4936b7838d4d030a9ec6f026d8c0ac585dd,http://data.europa.eu/949/functionalInfrastructure/operationalPoints/SK141408,SK141408,Pod lesom,49.12589,20.24496,http://data.europa.eu/949/concepts/op-types/rinf/30,30,http://publications.europa.eu/resource/authority/country/SVK,30,passenger terminal
http://data.europa.eu/949/functionalInfrastructure/operationalPoints/633fcfb0a0e1e2960e4ee67ba374fd70916e50ea,http://data.europa.eu/949/functionalInfrastructure/operationalPoints/SK157768,SK157768,Volkovce,48.34625,18.46434,http://data.europa.eu/949/concepts/op-types/rinf/70,70,http://publications.europa.eu/resource/authority/country/SVK,70,passenger stop
http://data.europa.eu/949/functionalInfrastructure/operationalPoints/642a551fc9bb2dd0e4c68835933bfcbc34492678,http://data.europa.eu/949/functionalInfrastructure/operationalPoints/SK166405,SK166405,Trebišov,48.6329,21.71212,http://data.europa.eu/949/concepts/op-types/rinf/10,10,http://publications.europa.eu/resource/authority/country/SVK,10,station
http://data.europa.eu/949/functionalInfrastructure/operationalPoints/6474335af434ff24651289983f50afc515cf2209,http://data.europa.eu/949/functionalInfrastructure/operationalPoints/SK148700,SK148700,Stará Voda,48.809934,20.67393,http://data.europa.eu/949/concepts/op-types/rinf/30,30,http://publications.europa.eu/resource/authority/country/SVK,30,passenger terminal
http://data.europa.eu/949/functionalInfrastructure/operationalPoints/64ea3f98a44297b78d3ff06c4e2dbb7edbec7e22,http://data.europa.eu/949/functionalInfrastructure/operationalPoints/SK136010,SK136010,Košice nákladná stanica,48.715232,21.274209,http://data.europa.eu/949/concepts/op-types/rinf/10,10,http://publications.europa.eu/resource/authority/country/SVK,10,station
http://data.europa.eu/949/functionalInfrastructure/operationalPoints/6632a17b4a8eb1abb889a89fcd3a8978edb0b40a,http://data.europa.eu/949/functionalInfrastructure/operationalPoints/SK155226,SK155226,Čoltovo,48.49432,20.37025,http://data.europa.eu/949/concepts/op-types/rinf/30,30,http://publications.europa.eu/resource/authority/country/SVK,30,passenger terminal
http://data.europa.eu/949/functionalInfrastructure/operationalPoints/6aac1c845a6ac542a998b21547891ad5e492e71e,http://data.europa.eu/949/functionalInfrastructure/operationalPoints/SK134361,SK134361,Nové Zámky,47.995087,18.174275,http://data.europa.eu/949/concepts/op-types/rinf/10,10,http://publications.europa.eu/resource/authority/country/SVK,10,station
http://data.europa.eu/949/functionalInfrastructure/operationalPoints/6c0489b4b9ee9252aee356a7556a92d593a06d1e,http://data.europa.eu/949/functionalInfrastructure/operationalPoints/SK144766,SK144766,Nemšová,48.96783,18.12165,http://data.europa.eu/949/concepts/op-types/rinf/10,10,http://publications.europa.eu/resource/authority/country/SVK,10,station
http://data.europa.eu/949/functionalInfrastructure/operationalPoints/6cba6a45c204da750db824d1d71aebd79cb24055,http://data.europa.eu/949/functionalInfrastructure/operationalPoints/SK175455,SK175455,Lúky pod Makytou,49.190974,18.22773,http://data.europa.eu/949/concepts/op-types/rinf/10,10,http://publications.europa.eu/resource/authority/country/SVK,10,station
http://data.europa.eu/949/functionalInfrastructure/operationalPoints/6e7138aac1113d54aa3d2b705732c5f3e3dc53b3,http://data.europa.eu/949/functionalInfrastructure/operationalPoints/SK153338,SK153338,Lužianky TIP,48.358929,18.038864,http://data.europa.eu/949/concepts/op-types/rinf/10,10,http://publications.europa.eu/resource/authority/country/SVK,10,station
http://data.europa.eu/949/functionalInfrastructure/operationalPoints/6ffbf0e7d5c93aaef3f3c36191c4bfe9aebfafae,http://data.europa.eu/949/functionalInfrastructure/operationalPoints/SK133108,SK133108,Vydrník,48.99454,20.40805,http://data.europa.eu/949/concepts/op-types/rinf/10,10,http://publications.europa.eu/resource/authority/country/SVK,10,station
http://data.europa.eu/949/functionalInfrastructure/operationalPoints/72e56bfa6dcbd7d66cb23741e04c154d4f7d7c93,http://data.europa.eu/949/functionalInfrastructure/operationalPoints/SK149062,SK149062,Komárno,47.769216,18.125443,http://data.europa.eu/949/concepts/op-types/rinf/10,10,http://publications.europa.eu/resource/authority/country/SVK,10,station
http://data.europa.eu/949/functionalInfrastructure/operationalPoints/7345124777bba8061a41f844437162ed7c980739,http://data.europa.eu/949/functionalInfrastructure/operationalPoints/SK149906,SK149906,Spišská Belá,49.18789,20.44911,http://data.europa.eu/949/concepts/op-types/rinf/30,30,http://publications.europa.eu/resource/authority/country/SVK,30,passenger terminal
http://data.europa.eu/949/functionalInfrastructure/operationalPoints/73985f5ba4eb92210e9b9096e3e897efddbf89b1,http://data.europa.eu/949/functionalInfrastructure/operationalPoints/SK182154,SK182154,Krásno nad Kysucou,49.3789,18.83578,http://data.europa.eu/949/concepts/op-types/rinf/10,10,http://publications.europa.eu/resource/authority/country/SVK,10,station
http://data.europa.eu/949/functionalInfrastructure/operationalPoints/74a10860d94a3ad0f1f480b78f41c6ba40429c42,http://data.europa.eu/949/functionalInfrastructure/operationalPoints/SK189365,SK189365,Žilina-Teplička odch. sk,49.21518,18.79148,http://data.europa.eu/949/concepts/op-types/rinf/10,10,http://publications.europa.eu/resource/authority/country/SVK,10,station
http://data.europa.eu/949/functionalInfrastructure/operationalPoints/75bf8719379c041cb98754a5b2f4a3dea6367c3a,http://data.europa.eu/949/functionalInfrastructure/operationalPoints/SK149864,SK149864,Sereď,48.2902,17.72686,http://data.europa.eu/949/concepts/op-types/rinf/10,10,http://publications.europa.eu/resource/authority/country/SVK,10,station
http://data.europa.eu/949/functionalInfrastructure/operationalPoints/77e65edde30317b9694fb92f37b50858eff8f3ca,http://data.europa.eu/949/functionalInfrastructure/operationalPoints/SK141564,SK141564,Hlboké,48.63677,17.37257,http://data.europa.eu/949/concepts/op-types/rinf/30,30,http://publications.europa.eu/resource/authority/country/SVK,30,passenger terminal
http://data.europa.eu/949/functionalInfrastructure/operationalPoints/7aca841d027aec7dd8a4857479a0eb6e632c7e1a,http://data.europa.eu/949/functionalInfrastructure/operationalPoints/SK186403,SK186403,Čeľovce,48.61264,21.62976,http://data.europa.eu/949/concepts/op-types/rinf/30,30,http://publications.europa.eu/resource/authority/country/SVK,30,passenger terminal
http://data.europa.eu/949/functionalInfrastructure/operationalPoints/7b1d131c74036add974fd95d3ebaf27a9614b6b3,http://data.europa.eu/949/functionalInfrastructure/operationalPoints/SK191197,SK191197,Vlečka MFC - prevádzka Transformovňa Kráľova Lehota,49.019025,19.804585,http://data.europa.eu/949/concepts/op-types/rinf/80,80,http://publications.europa.eu/resource/authority/country/SVK,80,junction
http://data.europa.eu/949/functionalInfrastructure/operationalPoints/7f4568edae020556735f29094ed43ec7c479766b,http://data.europa.eu/949/functionalInfrastructure/operationalPoints/SK132001,SK132001,Štrba,49.08368,20.06494,http://data.europa.eu/949/concepts/op-types/rinf/10,10,http://publications.europa.eu/resource/authority/country/SVK,10,station
http://data.europa.eu/949/functionalInfrastructure/operationalPoints/8237ccb7a6bd3e8a5a29efbf225026ef36ea743b,http://data.europa.eu/949/functionalInfrastructure/operationalPoints/SK151266,SK151266,Svinná,48.78129,18.17197,http://data.europa.eu/949/concepts/op-types/rinf/30,30,http://publications.europa.eu/resource/authority/country/SVK,30,passenger terminal
http://data.europa.eu/949/functionalInfrastructure/operationalPoints/8539e772a948d69b2d06761d32e95b0efa111818,http://data.europa.eu/949/functionalInfrastructure/operationalPoints/SK154047,SK154047,Šahy,48.059273,18.956756,http://data.europa.eu/949/concepts/op-types/rinf/10,10,http://publications.europa.eu/resource/authority/country/SVK,10,station
http://data.europa.eu/949/functionalInfrastructure/operationalPoints/8b86343c25d0defb6ece0a9593afd4e024f2b413,http://data.europa.eu/949/functionalInfrastructure/operationalPoints/SK158709,SK158709,Hanušovce nad Topľou,49.01883,21.51983,http://data.europa.eu/949/concepts/op-types/rinf/10,10,http://publications.europa.eu/resource/authority/country/SVK,10,station
http://data.europa.eu/949/functionalInfrastructure/operationalPoints/8f847c1c223464786942f54cce83eb57b22bc0da,http://data.europa.eu/949/functionalInfrastructure/operationalPoints/SK136333,SK136333,Veľký Krtíš,48.20135,19.3626,http://data.europa.eu/949/concepts/op-types/rinf/30,30,http://publications.europa.eu/resource/authority/country/SVK,30,passenger terminal
http://data.europa.eu/949/functionalInfrastructure/operationalPoints/9184f1cc4e44db252d7ffc2e8dbd8b0c9f0e694e,http://data.europa.eu/949/functionalInfrastructure/operationalPoints/SK153304,SK153304,Čaňa,48.60903,21.30971,http://data.europa.eu/949/concepts/op-types/rinf/10,10,http://publications.europa.eu/resource/authority/country/SVK,10,station
http://data.europa.eu/949/functionalInfrastructure/operationalPoints/91b2032ed2251ca2edc68e6fb00f64a1e49df213,http://data.europa.eu/949/functionalInfrastructure/operationalPoints/SK156463,SK156463,Beša,48.138,18.40184,http://data.europa.eu/949/concepts/op-types/rinf/10,10,http://publications.europa.eu/resource/authority/country/SVK,10,station
http://data.europa.eu/949/functionalInfrastructure/operationalPoints/91d62e01959612059709f30351c06f5e31206938,http://data.europa.eu/949/functionalInfrastructure/operationalPoints/SK180042,SK180042,Výh. Chym,48.58636,21.11113,http://data.europa.eu/949/concepts/op-types/rinf/80,80,http://publications.europa.eu/resource/authority/country/SVK,80,junction
http://data.europa.eu/949/functionalInfrastructure/operationalPoints/945b3ba4cf0ce9cd9ad8b3f597f3581145d77f62,http://data.europa.eu/949/functionalInfrastructure/operationalPoints/SK145367,SK145367,Bratislava filiálka,48.161041,17.126149,http://data.europa.eu/949/concepts/op-types/rinf/40,40,http://publications.europa.eu/resource/authority/country/SVK,40,freight terminal
http://data.europa.eu/949/functionalInfrastructure/operationalPoints/96bf2db918495c7055e9ae7fd15a3f36c57f502e,http://data.europa.eu/949/functionalInfrastructure/operationalPoints/SK132464,SK132464,Bernolákovo,48.197358,17.305974,http://data.europa.eu/949/concepts/op-types/rinf/10,10,http://publications.europa.eu/resource/authority/country/SVK,10,station
http://data.europa.eu/949/functionalInfrastructure/operationalPoints/9a48b58d54ac37f44545e25da52c650f3b19a75a,http://data.europa.eu/949/functionalInfrastructure/operationalPoints/SK130930,SK130930,Horná Štubňa,48.79278,18.88165,http://data.europa.eu/949/concepts/op-types/rinf/10,10,http://publications.europa.eu/resource/authority/country/SVK,10,station
http://data.europa.eu/949/functionalInfrastructure/operationalPoints/9acf4639775164d1bd331fc21935d523b2ac6871,http://data.europa.eu/949/functionalInfrastructure/operationalPoints/SK154344,SK154344,Slatina,48.146327,18.890249,http://data.europa.eu/949/concepts/op-types/rinf/30,30,http://publications.europa.eu/resource/authority/country/SVK,30,passenger terminal
http://data.europa.eu/949/functionalInfrastructure/operationalPoints/9b6dc538d844c879066882a12249cc863aaaea99,http://data.europa.eu/949/functionalInfrastructure/operationalPoints/SK130815,SK130815,Liptovská Teplá,49.0998,19.41665,http://data.europa.eu/949/concepts/op-types/rinf/10,10,http://publications.europa.eu/resource/authority/country/SVK,10,station
http://data.europa.eu/949/functionalInfrastructure/operationalPoints/9bad2a95fabd9cd2a3090b57c1eabfd231ebc6fc,http://data.europa.eu/949/functionalInfrastructure/operationalPoints/SK168104,SK168104,Budkovce,48.632226,21.923139,http://data.europa.eu/949/concepts/op-types/rinf/10,10,http://publications.europa.eu/resource/authority/country/SVK,10,station
http://data.europa.eu/949/functionalInfrastructure/operationalPoints/9fbc0be931a8727c8f48bda2922a4889cf63712c,http://data.europa.eu/949/functionalInfrastructure/operationalPoints/SK189373,SK189373,Žilina-Teplička vchod. sk.,49.20541,18.82681,http://data.europa.eu/949/concepts/op-types/rinf/10,10,http://publications.europa.eu/resource/authority/country/SVK,10,station
http://data.europa.eu/949/functionalInfrastructure/operationalPoints/a0860169f08c106026a6902dda453e13db6dac6d,http://data.europa.eu/949/functionalInfrastructure/operationalPoints/SK159665,SK159665,Radošina,48.54711,17.94095,http://data.europa.eu/949/concepts/op-types/rinf/110,110,http://publications.europa.eu/resource/authority/country/SVK,110,technical change
http://data.europa.eu/949/functionalInfrastructure/operationalPoints/abf507d5fa3fdad2d366fee52ed34b66e757fcfb,http://data.europa.eu/949/functionalInfrastructure/operationalPoints/SK186932,SK186932,Výh. Urbánka,48.273482,19.844655,http://data.europa.eu/949/concepts/op-types/rinf/80,80,http://publications.europa.eu/resource/authority/country/SVK,80,junction
http://data.europa.eu/949/functionalInfrastructure/operationalPoints/ac74956a49add6fa021952a969bdba68c6790ed1,http://data.europa.eu/949/functionalInfrastructure/operationalPoints/SK130864,SK130864,Malacky,48.43301,17.02326,http://data.europa.eu/949/concepts/op-types/rinf/10,10,http://publications.europa.eu/resource/authority/country/SVK,10,station
http://data.europa.eu/949/functionalInfrastructure/operationalPoints/ace825ad4c37cd3b46b14a93cdaa89356fdb04ff,http://data.europa.eu/949/functionalInfrastructure/operationalPoints/SK142760,SK142760,Šelpice,48.4268,17.53794,http://data.europa.eu/949/concepts/op-types/rinf/110,110,http://publications.europa.eu/resource/authority/country/SVK,110,technical change
http://data.europa.eu/949/functionalInfrastructure/operationalPoints/ae6c84e1e71eeef3e5fc0e82b04e76567c055e3f,http://data.europa.eu/949/functionalInfrastructure/operationalPoints/SK157800,SK157800,Šarišské Lúky,49.016121,21.26692,http://data.europa.eu/949/concepts/op-types/rinf/10,10,http://publications.europa.eu/resource/authority/country/SVK,10,station
http://data.europa.eu/949/functionalInfrastructure/operationalPoints/ae85b1a95e1553ba7d4d44506595926ea19ebffe,http://data.europa.eu/949/functionalInfrastructure/operationalPoints/SK140400,SK140400,Vyšné Hágy,49.11837,20.11876,http://data.europa.eu/949/concepts/op-types/rinf/30,30,http://publications.europa.eu/resource/authority/country/SVK,30,passenger terminal
http://data.europa.eu/949/functionalInfrastructure/operationalPoints/ae91e2390b221268a54b45368f18fcc102b152cf,http://data.europa.eu/949/functionalInfrastructure/operationalPoints/SK155465,SK155465,Veľké Bielice,48.62474,18.35082,http://data.europa.eu/949/concepts/op-types/rinf/10,10,http://publications.europa.eu/resource/authority/country/SVK,10,station
http://data.europa.eu/949/functionalInfrastructure/operationalPoints/b17230824b56e2671250c97844bd25f4e5404da8,http://data.europa.eu/949/functionalInfrastructure/operationalPoints/SK180075,SK180075,Výh. Vinohrady,48.304635,20.15311,http://data.europa.eu/949/concepts/op-types/rinf/80,80,http://publications.europa.eu/resource/authority/country/SVK,80,junction
http://data.europa.eu/949/functionalInfrastructure/operationalPoints/b1a7caca589e15b40245da46a1a39f5c9786ca10,http://data.europa.eu/949/functionalInfrastructure/operationalPoints/SK137505,SK137505,Michaľany,48.52146,21.6264,http://data.europa.eu/949/concepts/op-types/rinf/10,10,http://publications.europa.eu/resource/authority/country/SVK,10,station
http://data.europa.eu/949/functionalInfrastructure/operationalPoints/b217d4b0c65e0966feaf387d6464672c7bbc31d7,http://data.europa.eu/949/functionalInfrastructure/operationalPoints/SK151464,SK151464,Bánovce nad Bebravou,48.72019,18.25133,http://data.europa.eu/949/concepts/op-types/rinf/10,10,http://publications.europa.eu/resource/authority/country/SVK,10,station
http://data.europa.eu/949/functionalInfrastructure/operationalPoints/b3036dcad70a6a0c6e53a37227b0dc63eeb2457b,http://data.europa.eu/949/functionalInfrastructure/operationalPoints/EU00162,EU00162,Čierna nad Tisou št. hr.,48.43276,22.13762,http://data.europa.eu/949/concepts/op-types/rinf/90,90,http://publications.europa.eu/resource/authority/country/SVK,90,border point
http://data.europa.eu/949/functionalInfrastructure/operationalPoints/b59575803c106ee6acbae9bf68ae0c0eff99dd0f,http://data.europa.eu/949/functionalInfrastructure/operationalPoints/SK147736,SK147736,Dobrá Niva,48.481246,19.102123,http://data.europa.eu/949/concepts/op-types/rinf/10,10,http://publications.europa.eu/resource/authority/country/SVK,10,station
http://data.europa.eu/949/functionalInfrastructure/operationalPoints/b60ec2a4260be196c4503de66b57b6b89d643de0,http://data.europa.eu/949/functionalInfrastructure/operationalPoints/SK146233,SK146233,Banská Štiavnica,48.44412,18.91545,http://data.europa.eu/949/concepts/op-types/rinf/110,110,http://publications.europa.eu/resource/authority/country/SVK,110,technical change
http://data.europa.eu/949/functionalInfrastructure/operationalPoints/b6ea41d16d6a5c325d478179d4753902b3ffd964,http://data.europa.eu/949/functionalInfrastructure/operationalPoints/SK152801,SK152801,Haniska pri Košiciach,48.62533,21.23935,http://data.europa.eu/949/concepts/op-types/rinf/10,10,http://publications.europa.eu/resource/authority/country/SVK,10,station
http://data.europa.eu/949/functionalInfrastructure/operationalPoints/b7ae5a6204b3ed55c1dc364fa441cfce8188869b,http://data.europa.eu/949/functionalInfrastructure/operationalPoints/SK198010,SK198010,Hraničná kontrola,48.4321891,22.1359216,http://data.europa.eu/949/concepts/op-types/rinf/60,60,http://publications.europa.eu/resource/authority/country/SVK,60,train technical services
http://data.europa.eu/949/functionalInfrastructure/operationalPoints/b9d4e719478328faa8814ea230595a2521cf5a91,http://data.europa.eu/949/functionalInfrastructure/operationalPoints/SK145060,SK145060,Bratislava východ,48.19721,17.17072,http://data.europa.eu/949/concepts/op-types/rinf/10,10,http://publications.europa.eu/resource/authority/country/SVK,10,station
http://data.europa.eu/949/functionalInfrastructure/operationalPoints/bab730617432ed8acd43770adc3f7076d1afc100,http://data.europa.eu/949/functionalInfrastructure/operationalPoints/SK134205,SK134205,Spišské Vlachy,48.93588,20.80376,http://data.europa.eu/949/concepts/op-types/rinf/10,10,http://publications.europa.eu/resource/authority/country/SVK,10,station
http://data.europa.eu/949/functionalInfrastructure/operationalPoints/bc61b63f0ad6bd5e233de07e1b1877960c5d4cdb,http://data.europa.eu/949/functionalInfrastructure/operationalPoints/SK143834,SK143834,Gašparovo,48.825936,19.743594,http://data.europa.eu/949/concepts/op-types/rinf/10,10,http://publications.europa.eu/resource/authority/country/SVK,10,station
http://data.europa.eu/949/functionalInfrastructure/operationalPoints/bd8924c2b33b933d1940cbb682dae1a8200b91ce,http://data.europa.eu/949/functionalInfrastructure/operationalPoints/SK136465,SK136465,Šenkvice,48.30146,17.34644,http://data.europa.eu/949/concepts/op-types/rinf/110,110,http://publications.europa.eu/resource/authority/country/SVK,110,technical change
http://data.europa.eu/949/functionalInfrastructure/operationalPoints/bed197126007d61304967faf37aa72c21e8f4a42,http://data.europa.eu/949/functionalInfrastructure/operationalPoints/SK180083,SK180083,Výh. Lúčna,48.309059,20.250291,http://data.europa.eu/949/concepts/op-types/rinf/80,80,http://publications.europa.eu/resource/authority/country/SVK,80,junction
http://data.europa.eu/949/functionalInfrastructure/operationalPoints/bf0d3fbecd59be9ee7e103ccd5af0c76264b2f3b,http://data.europa.eu/949/functionalInfrastructure/operationalPoints/SK190108,SK190108,Odb. Močiar,48.18854,17.14967,http://data.europa.eu/949/concepts/op-types/rinf/80,80,http://publications.europa.eu/resource/authority/country/SVK,80,junction
http://data.europa.eu/949/functionalInfrastructure/operationalPoints/bf545fad8120237d7ec6c34eef6c8b09c7c2f860,http://data.europa.eu/949/functionalInfrastructure/operationalPoints/SK190306,SK190306,Plaveč výh. č. 7/8,49.27318,20.862865,http://data.europa.eu/949/concepts/op-types/rinf/80,80,http://publications.europa.eu/resource/authority/country/SVK,80,junction
http://data.europa.eu/949/functionalInfrastructure/operationalPoints/c23c85b2928f5eaacf8a31bac97955bf38190a4f,http://data.europa.eu/949/functionalInfrastructure/operationalPoints/SK142166,SK142166,Smolenice,48.52024,17.45549,http://data.europa.eu/949/concepts/op-types/rinf/110,110,http://publications.europa.eu/resource/authority/country/SVK,110,technical change
http://data.europa.eu/949/functionalInfrastructure/operationalPoints/c32ddd28b687a8e339dd77814562a7535b3e9ef5,http://data.europa.eu/949/functionalInfrastructure/operationalPoints/EU00159,EU00159,Plaveč št. hr.,49.29605,20.92397,http://data.europa.eu/949/concepts/op-types/rinf/90,90,http://publications.europa.eu/resource/authority/country/SVK,90,border point
http://data.europa.eu/949/functionalInfrastructure/operationalPoints/c884d7a5f1d5d2b673af8c1dacac6d4c40dcef84,http://data.europa.eu/949/functionalInfrastructure/operationalPoints/SK146209,SK146209,Hnilec,48.830464,20.501267,http://data.europa.eu/949/concepts/op-types/rinf/10,10,http://publications.europa.eu/resource/authority/country/SVK,10,station
http://data.europa.eu/949/functionalInfrastructure/operationalPoints/c9845aaa4b907f69796aebab7a3ed0c62c76f5b0,http://data.europa.eu/949/functionalInfrastructure/operationalPoints/SK150607,SK150607,Rožňava,48.6352,20.514,http://data.europa.eu/949/concepts/op-types/rinf/10,10,http://publications.europa.eu/resource/authority/country/SVK,10,station
http://data.europa.eu/949/functionalInfrastructure/operationalPoints/cc0c46218eb962162b078a900b8f96104c38638a,http://data.europa.eu/949/functionalInfrastructure/operationalPoints/SK153809,SK153809,Muráň,48.7406,20.05176,http://data.europa.eu/949/concepts/op-types/rinf/30,30,http://publications.europa.eu/resource/authority/country/SVK,30,passenger terminal
http://data.europa.eu/949/functionalInfrastructure/operationalPoints/cc5134ad64f1bee32fa72b5bd65fb9e13651af24,http://data.europa.eu/949/functionalInfrastructure/operationalPoints/SK160960,SK160960,Sľažany,48.37954,18.31272,http://data.europa.eu/949/concepts/op-types/rinf/70,70,http://publications.europa.eu/resource/authority/country/SVK,70,passenger stop
http://data.europa.eu/949/functionalInfrastructure/operationalPoints/ceb4d715fedf5f9064a6139251b58a4d16cdb82d,http://data.europa.eu/949/functionalInfrastructure/operationalPoints/SK140137,SK140137,Hronský Beňadik,48.34425,18.56161,http://data.europa.eu/949/concepts/op-types/rinf/10,10,http://publications.europa.eu/resource/authority/country/SVK,10,station
http://data.europa.eu/949/functionalInfrastructure/operationalPoints/cecea8ffa1bf2f7dba470d2df736b59eebadcfee,http://data.europa.eu/949/functionalInfrastructure/operationalPoints/SK147538,SK147538,Sása-Pliešovce,48.427475,19.137433,http://data.europa.eu/949/concepts/op-types/rinf/10,10,http://publications.europa.eu/resource/authority/country/SVK,10,station
http://data.europa.eu/949/functionalInfrastructure/operationalPoints/d3375c33fdd7fabf782004542cb44c0faab41347,http://data.europa.eu/949/functionalInfrastructure/operationalPoints/SK157867,SK157867,Neded,48.016257,17.960046,http://data.europa.eu/949/concepts/op-types/rinf/110,110,http://publications.europa.eu/resource/authority/country/SVK,110,technical change
http://data.europa.eu/949/functionalInfrastructure/operationalPoints/d3fc63d3cc28d46a8f01f80eec84b6d99c5aea03,http://data.europa.eu/949/functionalInfrastructure/operationalPoints/SK136630,SK136630,Rapovce,48.27604,19.67715,http://data.europa.eu/949/concepts/op-types/rinf/30,30,http://publications.europa.eu/resource/authority/country/SVK,30,passenger terminal
http://data.europa.eu/949/functionalInfrastructure/operationalPoints/d450a13594eec8d30928b0fa511ab03cbeafc0af,http://data.europa.eu/949/functionalInfrastructure/operationalPoints/SK148064,SK148064,Veľký Meder,47.861095,17.78203,http://data.europa.eu/949/concepts/op-types/rinf/110,110,http://publications.europa.eu/resource/authority/country/SVK,110,technical change
http://data.europa.eu/949/functionalInfrastructure/operationalPoints/d6b868c848108cf2e3c9c4cf30ce81d6a973a62b,http://data.europa.eu/949/functionalInfrastructure/operationalPoints/SK160564,SK160564,Podhorany pri Lužiankach,48.37171,18.11579,http://data.europa.eu/949/concepts/op-types/rinf/70,70,http://publications.europa.eu/resource/authority/country/SVK,70,passenger stop
http://data.europa.eu/949/functionalInfrastructure/operationalPoints/d6c705fccc90763de4c7e17951234122ba96b345,http://data.europa.eu/949/functionalInfrastructure/operationalPoints/SK158006,SK158006,Kapušany pri Prešove,49.043766,21.319206,http://data.europa.eu/949/concepts/op-types/rinf/10,10,http://publications.europa.eu/resource/authority/country/SVK,10,station
http://data.europa.eu/949/functionalInfrastructure/operationalPoints/d875fb528b6d92b1f6db32c582516c5499155719,http://data.europa.eu/949/functionalInfrastructure/operationalPoints/SK174052,SK174052,Dolný Hričov,49.24089,18.6431,http://data.europa.eu/949/concepts/op-types/rinf/110,110,http://publications.europa.eu/resource/authority/country/SVK,110,technical change
http://data.europa.eu/949/functionalInfrastructure/operationalPoints/d8bbe874823c9b6b97175678b98e401dc576b9e9,http://data.europa.eu/949/functionalInfrastructure/operationalPoints/SK161307,SK161307,Udavské,48.961514,21.946607,http://data.europa.eu/949/concepts/op-types/rinf/10,10,http://publications.europa.eu/resource/authority/country/SVK,10,station
http://data.europa.eu/949/functionalInfrastructure/operationalPoints/db9de8e04d9233f946991e862a6de73a69cc7a64,http://data.europa.eu/949/functionalInfrastructure/operationalPoints/SK159962,SK159962,Malé Ripňany,48.47576,17.98542,http://data.europa.eu/949/concepts/op-types/rinf/30,30,http://publications.europa.eu/resource/authority/country/SVK,30,passenger terminal
http://data.europa.eu/949/functionalInfrastructure/operationalPoints/ddaf00ea6c989c5293d9b433ebdb5ae2d0999cae,http://data.europa.eu/949/functionalInfrastructure/operationalPoints/SK134866,SK134866,Gbelce,47.849363,18.506914,http://data.europa.eu/949/concepts/op-types/rinf/10,10,http://publications.europa.eu/resource/authority/country/SVK,10,station
http://data.europa.eu/949/functionalInfrastructure/operationalPoints/de6e427352746a3809d820d44379388273af8ed6,http://data.europa.eu/949/functionalInfrastructure/operationalPoints/SK151308,SK151308,Jablonov nad Turňou,48.59934,20.69025,http://data.europa.eu/949/concepts/op-types/rinf/10,10,http://publications.europa.eu/resource/authority/country/SVK,10,station
http://data.europa.eu/949/functionalInfrastructure/operationalPoints/e0e74d049fe258b4050ca772a3b99b362775f78b,http://data.europa.eu/949/functionalInfrastructure/operationalPoints/SK148015,SK148015,Telgárt,48.840039,20.186406,http://data.europa.eu/949/concepts/op-types/rinf/10,10,http://publications.europa.eu/resource/authority/country/SVK,10,station
http://data.europa.eu/949/functionalInfrastructure/operationalPoints/e12c3feceb94772af7d743422c04789dcd89f922,http://data.europa.eu/949/functionalInfrastructure/operationalPoints/SK155804,SK155804,Betliar,48.69932,20.50033,http://data.europa.eu/949/concepts/op-types/rinf/110,110,http://publications.europa.eu/resource/authority/country/SVK,110,technical change
http://data.europa.eu/949/functionalInfrastructure/operationalPoints/e1c75dc1a83d62daa0094232a41b9fe037ad0f71,http://data.europa.eu/949/functionalInfrastructure/operationalPoints/SK139030,SK139030,Tornaľa,48.42246,20.33085,http://data.europa.eu/949/concepts/op-types/rinf/10,10,http://publications.europa.eu/resource/authority/country/SVK,10,station
http://data.europa.eu/949/functionalInfrastructure/operationalPoints/e1d1c712864000802c960b53d4d5bcc0f1f74239,http://data.europa.eu/949/functionalInfrastructure/operationalPoints/SK143537,SK143537,Brezno,48.801328,19.628653,http://data.europa.eu/949/concepts/op-types/rinf/10,10,http://publications.europa.eu/resource/authority/country/SVK,10,station
http://data.europa.eu/949/functionalInfrastructure/operationalPoints/e4c2a8e5b2944230332f35124eadfe14fcab3efc,http://data.europa.eu/949/functionalInfrastructure/operationalPoints/SK149963,SK149963,Siladice,48.37261,17.73749,http://data.europa.eu/949/concepts/op-types/rinf/10,10,http://publications.europa.eu/resource/authority/country/SVK,10,station
http://data.europa.eu/949/functionalInfrastructure/operationalPoints/e5d75f3902a95bde7fa827435f2cde7c357c4c26,http://data.europa.eu/949/functionalInfrastructure/operationalPoints/SK151662,SK151662,Rybany,48.66913,18.26166,http://data.europa.eu/949/concepts/op-types/rinf/10,10,http://publications.europa.eu/resource/authority/country/SVK,10,station
http://data.europa.eu/949/functionalInfrastructure/operationalPoints/e5f570c28590ede406e316f4abce8a7dd67c21f3,http://data.europa.eu/949/functionalInfrastructure/operationalPoints/SK146266,SK146266,Podunajské Biskupice,48.1313,17.22077,http://data.europa.eu/949/concepts/op-types/rinf/110,110,http://publications.europa.eu/resource/authority/country/SVK,110,technical change
http://data.europa.eu/949/functionalInfrastructure/operationalPoints/e668243c948f8a4f405c0ca6510fd55f959f79a3,http://data.europa.eu/949/functionalInfrastructure/operationalPoints/SK172957,SK172957,Chrenovec,48.77814,18.71235,http://data.europa.eu/949/concepts/op-types/rinf/10,10,http://publications.europa.eu/resource/authority/country/SVK,10,station
http://data.europa.eu/949/functionalInfrastructure/operationalPoints/e7656924ae528f2891b088d7478dd90cb02c57ea,http://data.europa.eu/949/functionalInfrastructure/operationalPoints/SK137109,SK137109,Ruskov,48.67309,21.42888,http://data.europa.eu/949/concepts/op-types/rinf/10,10,http://publications.europa.eu/resource/authority/country/SVK,10,station
http://data.europa.eu/949/functionalInfrastructure/operationalPoints/e79a4af1def4d91687ef8d21309b15f68cd6c0fd,http://data.europa.eu/949/functionalInfrastructure/operationalPoints/SK180026,SK180026,Výh. Dvorníky-Zádiel,48.598777,20.834069,http://data.europa.eu/949/concepts/op-types/rinf/80,80,http://publications.europa.eu/resource/authority/country/SVK,80,junction
http://data.europa.eu/949/functionalInfrastructure/operationalPoints/eb5b358b14cc684406b56c6d24d1a31d7669a7ab,http://data.europa.eu/949/functionalInfrastructure/operationalPoints/SK145201,SK145201,Spišské Podhradie,48.99587,20.75597,http://data.europa.eu/949/concepts/op-types/rinf/110,110,http://publications.europa.eu/resource/authority/country/SVK,110,technical change
http://data.europa.eu/949/functionalInfrastructure/operationalPoints/ebb984c422792070363669035db02db7aeb20ff9,http://data.europa.eu/949/functionalInfrastructure/operationalPoints/SK133264,SK133264,Galanta,48.184997,17.72297,http://data.europa.eu/949/concepts/op-types/rinf/10,10,http://publications.europa.eu/resource/authority/country/SVK,10,station
http://data.europa.eu/949/functionalInfrastructure/operationalPoints/ed38b67ca4a542d1b35a6c1c248d248f522175bb,http://data.europa.eu/949/functionalInfrastructure/operationalPoints/SK164608,SK164608,Pusté Pole,49.2138,20.91443,http://data.europa.eu/949/concepts/op-types/rinf/30,30,http://publications.europa.eu/resource/authority/country/SVK,30,passenger terminal
http://data.europa.eu/949/functionalInfrastructure/operationalPoints/ee3a9b04b80cddfa24ed2b698db16a7960fd7899,http://data.europa.eu/949/functionalInfrastructure/operationalPoints/SK182758,SK182758,Makov,49.37198,18.48437,http://data.europa.eu/949/concepts/op-types/rinf/110,110,http://publications.europa.eu/resource/authority/country/SVK,110,technical change
http://data.europa.eu/949/functionalInfrastructure/operationalPoints/ef3fbab7ad76311b2d69e69adf2ee22240fc1754,http://data.europa.eu/949/functionalInfrastructure/operationalPoints/SK161166,SK161166,Zlaté Moravce,48.38607,18.37639,http://data.europa.eu/949/concepts/op-types/rinf/10,10,http://publications.europa.eu/resource/authority/country/SVK,10,station
http://data.europa.eu/949/functionalInfrastructure/operationalPoints/f08abe5168c342d4b92336af55e6f72c201d5a53,http://data.europa.eu/949/functionalInfrastructure/operationalPoints/SK140434,SK140434,Tekovská Breznica,48.38236,18.60446,http://data.europa.eu/949/concepts/op-types/rinf/70,70,http://publications.europa.eu/resource/authority/country/SVK,70,passenger stop
http://data.europa.eu/949/functionalInfrastructure/operationalPoints/f102126f48a29c61ba01b723f90732e171c79051,http://data.europa.eu/949/functionalInfrastructure/operationalPoints/SK151431,SK151431,Brezno-Rohozná,48.795057,19.708408,http://data.europa.eu/949/concepts/op-types/rinf/70,70,http://publications.europa.eu/resource/authority/country/SVK,70,passenger stop
http://data.europa.eu/949/functionalInfrastructure/operationalPoints/f1ad642da0e0ded80ef81e31c852500c2f494d22,http://data.europa.eu/949/functionalInfrastructure/operationalPoints/SK146431,SK146431,Hontianske Tesáre,48.208458,18.933207,http://data.europa.eu/949/concepts/op-types/rinf/10,10,http://publications.europa.eu/resource/authority/country/SVK,10,station
http://data.europa.eu/949/functionalInfrastructure/operationalPoints/f1d28e65835865f49865c60dd0dd4385b278d0b3,http://data.europa.eu/949/functionalInfrastructure/operationalPoints/SK143768,SK143768,Myjava,48.76344,17.57106,http://data.europa.eu/949/concepts/op-types/rinf/10,10,http://publications.europa.eu/resource/authority/country/SVK,10,station
http://data.europa.eu/949/functionalInfrastructure/operationalPoints/f37128a0437c2b2238ba2d02a8069c8ea50fca33,http://data.europa.eu/949/functionalInfrastructure/operationalPoints/SK178954,SK178954,Vrútky,49.11292,18.92952,http://data.europa.eu/949/concepts/op-types/rinf/10,10,http://publications.europa.eu/resource/authority/country/SVK,10,station
http://data.europa.eu/949/functionalInfrastructure/operationalPoints/f64dfe9f29fbad7599d1e25efbfd1997a107aef8,http://data.europa.eu/949/functionalInfrastructure/operationalPoints/SK137463,SK137463,Piešťany,48.59635,17.81477,http://data.europa.eu/949/concepts/op-types/rinf/110,110,http://publications.europa.eu/resource/authority/country/SVK,110,technical change
http://data.europa.eu/949/functionalInfrastructure/operationalPoints/fb0bad1b724b79d02b82c52983b96ba2a382172b,http://data.europa.eu/949/functionalInfrastructure/operationalPoints/SK150664,SK150664,Vrbové,48.615659,17.733913,http://data.europa.eu/949/concepts/op-types/rinf/110,110,http://publications.europa.eu/resource/authority/country/SVK,110,technical change
http://data.europa.eu/949/functionalInfrastructure/operationalPoints/fc4071ff8cfaef438db1e42b46cbf7de747d7d15,http://data.europa.eu/949/functionalInfrastructure/operationalPoints/SK130203,SK130203,Haniska pri Košiciach ŠRT,48.631433,21.248416,http://data.europa.eu/949/concepts/op-types/rinf/10,10,http://publications.europa.eu/resource/authority/country/SVK,10,station
http://data.europa.eu/949/functionalInfrastructure/operationalPoints/019edd0bdc5260b9d04bc51ecf4c2a7438b69047,http://data.europa.eu/949/functionalInfrastructure/operationalPoints/SK131615,SK131615,Kráľova Lehota,49.02626,19.78562,http://data.europa.eu/949/concepts/op-types/rinf/10,10,http://publications.europa.eu/resource/authority/country/SVK,10,station
http://data.europa.eu/949/functionalInfrastructure/operationalPoints/0333e6a338615281aebd5e7cc8599151ae652a56,http://data.europa.eu/949/functionalInfrastructure/operationalPoints/SK170258,SK170258,Ilava,49.00181,18.23603,http://data.europa.eu/949/concepts/op-types/rinf/110,110,http://publications.europa.eu/resource/authority/country/SVK,110,technical change
http://data.europa.eu/949/functionalInfrastructure/operationalPoints/0356114d202d4b699c86fb7a1341c8bced29323e,http://data.europa.eu/949/functionalInfrastructure/operationalPoints/SK140335,SK140335,Nová Baňa,48.41342,18.64812,http://data.europa.eu/949/concepts/op-types/rinf/10,10,http://publications.europa.eu/resource/authority/country/SVK,10,station
http://data.europa.eu/949/functionalInfrastructure/operationalPoints/036f53e7338cddddb10220943164fbfbfaae4e38,http://data.europa.eu/949/functionalInfrastructure/operationalPoints/SK132233,SK132233,Zvolen osobná stanica,48.56965,19.12067,http://data.europa.eu/949/concepts/op-types/rinf/10,10,http://publications.europa.eu/resource/authority/country/SVK,10,station
http://data.europa.eu/949/functionalInfrastructure/operationalPoints/04420aff20a30f462a9f9ecd02a255280834fba6,http://data.europa.eu/949/functionalInfrastructure/operationalPoints/SK161364,SK161364,Zlaté Moravce-Prílepy,48.3625,18.42403,http://data.europa.eu/949/concepts/op-types/rinf/30,30,http://publications.europa.eu/resource/authority/country/SVK,30,passenger terminal
http://data.europa.eu/949/functionalInfrastructure/operationalPoints/04faf6e09c7179b25f001db0611b00c94295dcfe,http://data.europa.eu/949/functionalInfrastructure/operationalPoints/SK190256,SK190256,Plaveč výh. č. 5/6,49.27234,20.867929,http://data.europa.eu/949/concepts/op-types/rinf/80,80,http://publications.europa.eu/resource/authority/country/SVK,80,junction
http://data.europa.eu/949/functionalInfrastructure/operationalPoints/0737e031e7bbecbae2bf4497069debf7849870a5,http://data.europa.eu/949/functionalInfrastructure/operationalPoints/SK151969,SK151969,Chynorany,48.60791,18.275,http://data.europa.eu/949/concepts/op-types/rinf/10,10,http://publications.europa.eu/resource/authority/country/SVK,10,station
http://data.europa.eu/949/functionalInfrastructure/operationalPoints/0a2835fffe1220601483930464d41a2ebef3c263,http://data.europa.eu/949/functionalInfrastructure/operationalPoints/SK131268,SK131268,Lozorno,48.33723,17.04226,http://data.europa.eu/949/concepts/op-types/rinf/30,30,http://publications.europa.eu/resource/authority/country/SVK,30,passenger terminal
http://data.europa.eu/949/functionalInfrastructure/operationalPoints/0cbae9ca5be4ecd61695cee69a7c96b026a7f1fb,http://data.europa.eu/949/functionalInfrastructure/operationalPoints/SK140665,SK140665,Plavecký Mikuláš,48.519136,17.282822,http://data.europa.eu/949/concepts/op-types/rinf/110,110,http://publications.europa.eu/resource/authority/country/SVK,110,technical change
http://data.europa.eu/949/functionalInfrastructure/operationalPoints/0e70f268f5de7baf2e08fac97a68b8d11f948032,http://data.europa.eu/949/functionalInfrastructure/operationalPoints/SK151100,SK151100,Lipovník,48.63215,20.60274,http://data.europa.eu/949/concepts/op-types/rinf/10,10,http://publications.europa.eu/resource/authority/country/SVK,10,station
http://data.europa.eu/949/functionalInfrastructure/operationalPoints/0f5b8647144eb7a430f2e6b162693fa98c8b4a9e,http://data.europa.eu/949/functionalInfrastructure/operationalPoints/SK132506,SK132506,Poprad-Tatry,49.05999,20.29448,http://data.europa.eu/949/concepts/op-types/rinf/10,10,http://publications.europa.eu/resource/authority/country/SVK,10,station
http://data.europa.eu/949/functionalInfrastructure/operationalPoints/12eaa5fa05ecf0b6b0bc24e72358a2908fdde15d,http://data.europa.eu/949/functionalInfrastructure/operationalPoints/SK164103,SK164103,Lipany,49.15204,20.96035,http://data.europa.eu/949/concepts/op-types/rinf/110,110,http://publications.europa.eu/resource/authority/country/SVK,110,technical change
http://data.europa.eu/949/functionalInfrastructure/operationalPoints/12ee743e0e338907018bfc0e842ecf301f48a5c3,http://data.europa.eu/949/functionalInfrastructure/operationalPoints/SK142000,SK142000,Matejovce pri Poprade,49.08139,20.33403,http://data.europa.eu/949/concepts/op-types/rinf/10,10,http://publications.europa.eu/resource/authority/country/SVK,10,station
http://data.europa.eu/949/functionalInfrastructure/operationalPoints/18bcdae6acc37e20ef5ced398455397d8edd90d8,http://data.europa.eu/949/functionalInfrastructure/operationalPoints/SK157263,SK157263,Veľké Kozmálovce,48.27996,18.55002,http://data.europa.eu/949/concepts/op-types/rinf/10,10,http://publications.europa.eu/resource/authority/country/SVK,10,station
http://data.europa.eu/949/functionalInfrastructure/operationalPoints/197348dffe9bb9ec0e35407fd306b909ac71c063,http://data.europa.eu/949/functionalInfrastructure/operationalPoints/SK140764,SK140764,Plavecké Podhradie,48.482432,17.250502,http://data.europa.eu/949/concepts/op-types/rinf/110,110,http://publications.europa.eu/resource/authority/country/SVK,110,technical change
http://data.europa.eu/949/functionalInfrastructure/operationalPoints/1b83ac011bd817753a231175ea4c5dac7647260e,http://data.europa.eu/949/functionalInfrastructure/operationalPoints/SK161869,SK161869,Vráble,48.25474,18.30087,http://data.europa.eu/949/concepts/op-types/rinf/10,10,http://publications.europa.eu/resource/authority/country/SVK,10,station
http://data.europa.eu/949/functionalInfrastructure/operationalPoints/1ce12c7b05270cb78f14881999e51225c886d111,http://data.europa.eu/949/functionalInfrastructure/operationalPoints/SK138263,SK138263,Trenčianske Bohuslavice,48.80186,17.87422,http://data.europa.eu/949/concepts/op-types/rinf/110,110,http://publications.europa.eu/resource/authority/country/SVK,110,technical change
http://data.europa.eu/949/functionalInfrastructure/operationalPoints/1de320ebab841856f39a5dd39a87d1656522fc15,http://data.europa.eu/949/functionalInfrastructure/operationalPoints/SK153064,SK153064,Nitra,48.30139,18.07931,http://data.europa.eu/949/concepts/op-types/rinf/10,10,http://publications.europa.eu/resource/authority/country/SVK,10,station
http://data.europa.eu/949/functionalInfrastructure/operationalPoints/1dfa7a0f9d71be324ca20240e4fedd5e7075e3a8,http://data.europa.eu/949/functionalInfrastructure/operationalPoints/SK136663,SK136663,Cífer,48.32308,17.48636,http://data.europa.eu/949/concepts/op-types/rinf/110,110,http://publications.europa.eu/resource/authority/country/SVK,110,technical change
http://data.europa.eu/949/functionalInfrastructure/operationalPoints/1f25331f433c5d72bbcaad27be5a3100a3fd309d,http://data.europa.eu/949/functionalInfrastructure/operationalPoints/SK137406,SK137406,Kuzmice,48.57949,21.57918,http://data.europa.eu/949/concepts/op-types/rinf/10,10,http://publications.europa.eu/resource/authority/country/SVK,10,station
http://data.europa.eu/949/functionalInfrastructure/operationalPoints/21a9217d7f40d61ced110780f08ebe77138565e9,http://data.europa.eu/949/functionalInfrastructure/operationalPoints/SK181156,SK181156,Čadca,49.44531,18.78694,http://data.europa.eu/949/concepts/op-types/rinf/10,10,http://publications.europa.eu/resource/authority/country/SVK,10,station
http://data.europa.eu/949/functionalInfrastructure/operationalPoints/262c52e0abacadf352e26522a146ad08708d8b75,http://data.europa.eu/949/functionalInfrastructure/operationalPoints/SK133009,SK133009,Veľký Slavkov,49.09115,20.27731,http://data.europa.eu/949/concepts/op-types/rinf/30,30,http://publications.europa.eu/resource/authority/country/SVK,30,passenger terminal
http://data.europa.eu/949/functionalInfrastructure/operationalPoints/2634cefa4d16cd176906ebe7849ebc6f73d0bb5a,http://data.europa.eu/949/functionalInfrastructure/operationalPoints/SK132837,SK132837,Čremošné,48.84112,18.94768,http://data.europa.eu/949/concepts/op-types/rinf/10,10,http://publications.europa.eu/resource/authority/country/SVK,10,station
http://data.europa.eu/949/functionalInfrastructure/operationalPoints/26d71c2ba21fa283e2e62d086427bba9fe3bf0af,http://data.europa.eu/949/functionalInfrastructure/operationalPoints/SK145508,SK145508,Dobšinská Ľadová Jaskyňa,48.876199,20.293309,http://data.europa.eu/949/concepts/op-types/rinf/10,10,http://publications.europa.eu/resource/authority/country/SVK,10,station
http://data.europa.eu/949/functionalInfrastructure/operationalPoints/284f18604ccb9adfc3620fa3411d8f18820bffdb,http://data.europa.eu/949/functionalInfrastructure/operationalPoints/SK164400,SK164400,Krivany,49.16427,20.93571,http://data.europa.eu/949/concepts/op-types/rinf/70,70,http://publications.europa.eu/resource/authority/country/SVK,70,passenger stop
http://data.europa.eu/949/functionalInfrastructure/operationalPoints/299851c3151cbf94c8538923a3f5a324caecc57e,http://data.europa.eu/949/functionalInfrastructure/operationalPoints/SK148833,SK148833,Katarínska Huta,48.46484,19.63478,http://data.europa.eu/949/concepts/op-types/rinf/30,30,http://publications.europa.eu/resource/authority/country/SVK,30,passenger terminal
http://data.europa.eu/949/functionalInfrastructure/operationalPoints/2a68461325c37168dc25f8d313b8d0ff861aaae3,http://data.europa.eu/949/functionalInfrastructure/operationalPoints/SK162966,SK162966,Želiezovce,48.04435,18.645992,http://data.europa.eu/949/concepts/op-types/rinf/10,10,http://publications.europa.eu/resource/authority/country/SVK,10,station
http://data.europa.eu/949/functionalInfrastructure/operationalPoints/2d32445ff5fa7ba258255785db4137f10a4d60e1,http://data.europa.eu/949/functionalInfrastructure/operationalPoints/SK133769,SK133769,Žihárec,48.078884,17.881173,http://data.europa.eu/949/concepts/op-types/rinf/30,30,http://publications.europa.eu/resource/authority/country/SVK,30,passenger terminal
http://data.europa.eu/949/functionalInfrastructure/operationalPoints/2e232de613c3efb20446b75fdfa7ba0181315c6b,http://data.europa.eu/949/functionalInfrastructure/operationalPoints/SK135160,SK135160,Mužla,47.813069,18.595277,http://data.europa.eu/949/concepts/op-types/rinf/10,10,http://publications.europa.eu/resource/authority/country/SVK,10,station
http://data.europa.eu/949/functionalInfrastructure/operationalPoints/2e7284b4f17b896aa37fa41e7516eda27fbeefca,http://data.europa.eu/949/functionalInfrastructure/operationalPoints/SK131664,SK131664,Bratislava-Lamač,48.18502,17.05054,http://data.europa.eu/949/concepts/op-types/rinf/10,10,http://publications.europa.eu/resource/authority/country/SVK,10,station
http://data.europa.eu/949/functionalInfrastructure/operationalPoints/2ebe9d2b6b9cd154c42c77418129b7b363365f08,http://data.europa.eu/949/functionalInfrastructure/operationalPoints/SK163501,SK163501,Veľký Šariš,49.04472,21.20263,http://data.europa.eu/949/concepts/op-types/rinf/110,110,http://publications.europa.eu/resource/authority/country/SVK,110,technical change
http://data.europa.eu/949/functionalInfrastructure/operationalPoints/3192c5e5d98274ec561b17ccc6e04cddcaa54052,http://data.europa.eu/949/functionalInfrastructure/operationalPoints/SK149500,SK149500,Gelnica,48.859226,20.947992,http://data.europa.eu/949/concepts/op-types/rinf/10,10,http://publications.europa.eu/resource/authority/country/SVK,10,station
http://data.europa.eu/949/functionalInfrastructure/operationalPoints/31a7462422e184f5627387aadd7cd412c7742ec6,http://data.europa.eu/949/functionalInfrastructure/operationalPoints/SK134163,SK134163,Palárikovo,48.060081,18.0819,http://data.europa.eu/949/concepts/op-types/rinf/10,10,http://publications.europa.eu/resource/authority/country/SVK,10,station
http://data.europa.eu/949/functionalInfrastructure/operationalPoints/3239e42112edc9fc36b1b5e52a9184c5b3ff0c8b,http://data.europa.eu/949/functionalInfrastructure/operationalPoints/SK168203,SK168203,Drahňov,48.597214,21.972048,http://data.europa.eu/949/concepts/op-types/rinf/10,10,http://publications.europa.eu/resource/authority/country/SVK,10,station
http://data.europa.eu/949/functionalInfrastructure/operationalPoints/337b60ca02a8f09f4b75dcbc9b46090004eb4dd9,http://data.europa.eu/949/functionalInfrastructure/operationalPoints/SK174755,SK174755,Kraľovany,49.15337,19.13282,http://data.europa.eu/949/concepts/op-types/rinf/10,10,http://publications.europa.eu/resource/authority/country/SVK,10,station
http://data.europa.eu/949/functionalInfrastructure/operationalPoints/3614e69d3646396ba925cd200a97361a5aa5b4f9,http://data.europa.eu/949/functionalInfrastructure/operationalPoints/SK150169,SK150169,Gáň,48.2338,17.723086,http://data.europa.eu/949/concepts/op-types/rinf/10,10,http://publications.europa.eu/resource/authority/country/SVK,10,station
http://data.europa.eu/949/functionalInfrastructure/operationalPoints/36161395d4cf71978d33ba3c8738ccac743057e0,http://data.europa.eu/949/functionalInfrastructure/operationalPoints/SK160408,SK160408,Humenné,48.930043,21.901119,http://data.europa.eu/949/concepts/op-types/rinf/10,10,http://publications.europa.eu/resource/authority/country/SVK,10,station
http://data.europa.eu/949/functionalInfrastructure/operationalPoints/3692e728eaa73d71a5e39d84489c0227939111ec,http://data.europa.eu/949/functionalInfrastructure/operationalPoints/SK138404,SK138404,Veľký Horeš,48.3901,21.91365,http://data.europa.eu/949/concepts/op-types/rinf/10,10,http://publications.europa.eu/resource/authority/country/SVK,10,station
http://data.europa.eu/949/functionalInfrastructure/operationalPoints/370365a1536d5a9afba010ce351e82d66fc71ae0,http://data.europa.eu/949/functionalInfrastructure/operationalPoints/SK131169,SK131169,Vysoká pri Morave,48.33376,16.91386,http://data.europa.eu/949/concepts/op-types/rinf/110,110,http://publications.europa.eu/resource/authority/country/SVK,110,technical change
http://data.europa.eu/949/functionalInfrastructure/operationalPoints/3962e2d1c470892d66d8630f0cb0314ad3dff3e3,http://data.europa.eu/949/functionalInfrastructure/operationalPoints/SK160663,SK160663,Žirany,48.38277,18.16949,http://data.europa.eu/949/concepts/op-types/rinf/110,110,http://publications.europa.eu/resource/authority/country/SVK,110,technical change
http://data.europa.eu/949/functionalInfrastructure/operationalPoints/3b611af20fc57b8d31abd74b6ee63155ea94788e,http://data.europa.eu/949/functionalInfrastructure/operationalPoints/SK157164,SK157164,Levice,48.21129,18.59288,http://data.europa.eu/949/concepts/op-types/rinf/10,10,http://publications.europa.eu/resource/authority/country/SVK,10,station
http://data.europa.eu/949/functionalInfrastructure/operationalPoints/3b8491e470c89c08bb90439101a79d5d3292394d,http://data.europa.eu/949/functionalInfrastructure/operationalPoints/SK148130,SK148130,Kalinovo,48.39514,19.70558,http://data.europa.eu/949/concepts/op-types/rinf/30,30,http://publications.europa.eu/resource/authority/country/SVK,30,passenger terminal
http://data.europa.eu/949/functionalInfrastructure/operationalPoints/3bb11f3507557a6a8177d1904c6d0cffc0746427,http://data.europa.eu/949/functionalInfrastructure/operationalPoints/SK131011,SK131011,Liptovský Mikuláš,49.09127,19.60539,http://data.europa.eu/949/concepts/op-types/rinf/10,10,http://publications.europa.eu/resource/authority/country/SVK,10,station
http://data.europa.eu/949/functionalInfrastructure/operationalPoints/3dcaada77d6cc7894c90a163450bde85d6eee1ea,http://data.europa.eu/949/functionalInfrastructure/operationalPoints/SK147066,SK147066,Lehnice,48.031601,17.452444,http://data.europa.eu/949/concepts/op-types/rinf/110,110,http://publications.europa.eu/resource/authority/country/SVK,110,technical change
http://data.europa.eu/949/functionalInfrastructure/operationalPoints/3f15490ecc779f301b81c9d7f97bf9efcbbd8dd8,http://data.europa.eu/949/functionalInfrastructure/operationalPoints/SK144337,SK144337,Polomka,48.846362,19.854143,http://data.europa.eu/949/concepts/op-types/rinf/10,10,http://publications.europa.eu/resource/authority/country/SVK,10,station
http://data.europa.eu/949/functionalInfrastructure/operationalPoints/3fd19c39ab7f45f3d049c0157a12ae5c74b515e8,http://data.europa.eu/949/functionalInfrastructure/operationalPoints/SK149302,SK149302,Prakovce,48.820118,20.885722,http://data.europa.eu/949/concepts/op-types/rinf/10,10,http://publications.europa.eu/resource/authority/country/SVK,10,station
http://data.europa.eu/949/functionalInfrastructure/operationalPoints/401a354e5282e74a5a5fe029cb52433deb5c52ef,http://data.europa.eu/949/functionalInfrastructure/operationalPoints/SK161505,SK161505,Koškovce,49.051474,21.954647,http://data.europa.eu/949/concepts/op-types/rinf/10,10,http://publications.europa.eu/resource/authority/country/SVK,10,station
http://data.europa.eu/949/functionalInfrastructure/operationalPoints/4025e3f94e7e8c1804044a17d2459767d1671b9b,http://data.europa.eu/949/functionalInfrastructure/operationalPoints/SK159400,SK159400,Vranov nad Topľou,48.889935,21.67392,http://data.europa.eu/949/concepts/op-types/rinf/10,10,http://publications.europa.eu/resource/authority/country/SVK,10,station
http://data.europa.eu/949/functionalInfrastructure/operationalPoints/41d40c67952aa53d9d6bbcfc068cb001928ef4af,http://data.europa.eu/949/functionalInfrastructure/operationalPoints/SK138909,SK138909,Čierna nad Tisou zastávka,48.41636,22.071124,http://data.europa.eu/949/concepts/op-types/rinf/70,70,http://publications.europa.eu/resource/authority/country/SVK,70,passenger stop
http://data.europa.eu/949/functionalInfrastructure/operationalPoints/426ba99c9c5443c89998982c95c2b0647298949d,http://data.europa.eu/949/functionalInfrastructure/operationalPoints/SK183657,SK183657,Staškov,49.42349,18.68975,http://data.europa.eu/949/concepts/op-types/rinf/30,30,http://publications.europa.eu/resource/authority/country/SVK,30,passenger terminal
http://data.europa.eu/949/functionalInfrastructure/operationalPoints/457aa259e658d64c1b358a631bd4cc7d08c053aa,http://data.europa.eu/949/functionalInfrastructure/operationalPoints/SK146134,SK146134,Kozelník,48.51564,19.00478,http://data.europa.eu/949/concepts/op-types/rinf/110,110,http://publications.europa.eu/resource/authority/country/SVK,110,technical change
http://data.europa.eu/949/functionalInfrastructure/operationalPoints/45c64586cadc51721690dfb68525dfc2a1b01d78,http://data.europa.eu/949/functionalInfrastructure/operationalPoints/SK167700,SK167700,Dvorianky,48.729591,21.677874,http://data.europa.eu/949/concepts/op-types/rinf/30,30,http://publications.europa.eu/resource/authority/country/SVK,30,passenger terminal
http://data.europa.eu/949/functionalInfrastructure/operationalPoints/45e086f9e4725a436e72942ae4b67bd2e2e79631,http://data.europa.eu/949/functionalInfrastructure/operationalPoints/SK176651,SK176651,Podbiel,49.30391,19.47851,http://data.europa.eu/949/concepts/op-types/rinf/10,10,http://publications.europa.eu/resource/authority/country/SVK,10,station
http://data.europa.eu/949/functionalInfrastructure/operationalPoints/460a3ba381b4b473517242433a575bad8479fdb7,http://data.europa.eu/949/functionalInfrastructure/operationalPoints/SK182055,SK182055,Raková,49.44668,18.7367,http://data.europa.eu/949/concepts/op-types/rinf/30,30,http://publications.europa.eu/resource/authority/country/SVK,30,passenger terminal
http://data.europa.eu/949/functionalInfrastructure/operationalPoints/46256768f135a6859019e06db184432a7cf2dbb4,http://data.europa.eu/949/functionalInfrastructure/operationalPoints/SK185108,SK185108,Výh. Slančík ŠRT,48.666874,21.475181,http://data.europa.eu/949/concepts/op-types/rinf/80,80,http://publications.europa.eu/resource/authority/country/SVK,80,junction
http://data.europa.eu/949/functionalInfrastructure/operationalPoints/471f034e346b0ac0d0e3be71f54c3311d3e87815,http://data.europa.eu/949/functionalInfrastructure/operationalPoints/SK130963,SK130963,Zohor,48.32573,16.99142,http://data.europa.eu/949/concepts/op-types/rinf/10,10,http://publications.europa.eu/resource/authority/country/SVK,10,station
http://data.europa.eu/949/functionalInfrastructure/operationalPoints/47d92df58c1a3c7591dc09360f666e365fd0b8d1,http://data.europa.eu/949/functionalInfrastructure/operationalPoints/SK150268,SK150268,Križovany nad Dudváhom,48.33017,17.66104,http://data.europa.eu/949/concepts/op-types/rinf/10,10,http://publications.europa.eu/resource/authority/country/SVK,10,station
http://data.europa.eu/949/functionalInfrastructure/operationalPoints/49fd1ad0f55fd187edc8c43d1942ff0df455936b,http://data.europa.eu/949/functionalInfrastructure/operationalPoints/SK140467,SK140467,Rohožník,48.45247,17.17123,http://data.europa.eu/949/concepts/op-types/rinf/10,10,http://publications.europa.eu/resource/authority/country/SVK,10,station
http://data.europa.eu/949/functionalInfrastructure/operationalPoints/4b97a3af1a3857853294dcd29c2975d1627051de,http://data.europa.eu/949/functionalInfrastructure/operationalPoints/SK168302,SK168302,Veľké Kapušany,48.554765,22.085773,http://data.europa.eu/949/concepts/op-types/rinf/10,10,http://publications.europa.eu/resource/authority/country/SVK,10,station
http://data.europa.eu/949/functionalInfrastructure/operationalPoints/4beae76a2fe0a30a5910e8db203c6c2cf0017e09,http://data.europa.eu/949/functionalInfrastructure/operationalPoints/SK178756,SK178756,Nezbudská Lúčka-Strečno,49.1838,18.87067,http://data.europa.eu/949/concepts/op-types/rinf/70,70,http://publications.europa.eu/resource/authority/country/SVK,70,passenger stop
http://data.europa.eu/949/functionalInfrastructure/operationalPoints/4c7c3185b6766de459a177e336523d170a92664f,http://data.europa.eu/949/functionalInfrastructure/operationalPoints/SK150102,SK150102,Plešivec,48.55301,20.41136,http://data.europa.eu/949/concepts/op-types/rinf/10,10,http://publications.europa.eu/resource/authority/country/SVK,10,station
http://data.europa.eu/949/functionalInfrastructure/operationalPoints/4d59792ab89425b56f2976680f80134dbfc00618,http://data.europa.eu/949/functionalInfrastructure/operationalPoints/SK135236,SK135236,Kriváň,48.52859,19.44586,http://data.europa.eu/949/concepts/op-types/rinf/10,10,http://publications.europa.eu/resource/authority/country/SVK,10,station
http://data.europa.eu/949/functionalInfrastructure/operationalPoints/4dfede9cb85bced8b37a5d38374d8189ad146040,http://data.europa.eu/949/functionalInfrastructure/operationalPoints/SK138131,SK138131,Gortva,48.30069,20.02728,http://data.europa.eu/949/concepts/op-types/rinf/70,70,http://publications.europa.eu/resource/authority/country/SVK,70,passenger stop
http://data.europa.eu/949/functionalInfrastructure/operationalPoints/4e7edee8159fe3123763de19499f50ed7f8c46b4,http://data.europa.eu/949/functionalInfrastructure/operationalPoints/SK143701,SK143701,Plavnica,49.28787,20.77898,http://data.europa.eu/949/concepts/op-types/rinf/30,30,http://publications.europa.eu/resource/authority/country/SVK,30,passenger terminal
http://data.europa.eu/949/functionalInfrastructure/operationalPoints/4f4e08f9563a462a25f2f8d31dcd829bbf897b36,http://data.europa.eu/949/functionalInfrastructure/operationalPoints/SK133660,SK133660,Tešedíkovo,48.10642,17.856249,http://data.europa.eu/949/concepts/op-types/rinf/30,30,http://publications.europa.eu/resource/authority/country/SVK,30,passenger terminal
http://data.europa.eu/949/functionalInfrastructure/operationalPoints/506a755f575c239fe0b251aedc38b0df076e9d95,http://data.europa.eu/949/functionalInfrastructure/operationalPoints/SK140061,SK140061,Záhorská Ves,48.377516,16.844308,http://data.europa.eu/949/concepts/op-types/rinf/110,110,http://publications.europa.eu/resource/authority/country/SVK,110,technical change
http://data.europa.eu/949/functionalInfrastructure/operationalPoints/51721e7a95f27916161901167c5f1f9a83d437af,http://data.europa.eu/949/functionalInfrastructure/operationalPoints/SK164863,SK164863,Vrbovce,48.82417,17.51603,http://data.europa.eu/949/concepts/op-types/rinf/10,10,http://publications.europa.eu/resource/authority/country/SVK,10,station
http://data.europa.eu/949/functionalInfrastructure/operationalPoints/528fc74761d0af1139eb09467c526b8adcd5458a,http://data.europa.eu/949/functionalInfrastructure/operationalPoints/SK141366,SK141366,Senica,48.66592,17.33427,http://data.europa.eu/949/concepts/op-types/rinf/110,110,http://publications.europa.eu/resource/authority/country/SVK,110,technical change
http://data.europa.eu/949/functionalInfrastructure/operationalPoints/52e55290c67e8fd7b863266279525e40ee958f37,http://data.europa.eu/949/functionalInfrastructure/operationalPoints/SK163162,SK163162,Pohronský Ruskov,47.97524,18.64869,http://data.europa.eu/949/concepts/op-types/rinf/10,10,http://publications.europa.eu/resource/authority/country/SVK,10,station
http://data.europa.eu/949/functionalInfrastructure/operationalPoints/532f8ee02e1a2640af58d8a1d0a12d278c2b0389,http://data.europa.eu/949/functionalInfrastructure/operationalPoints/SK133363,SK133363,Šaľa,48.147638,17.859721,http://data.europa.eu/949/concepts/op-types/rinf/10,10,http://publications.europa.eu/resource/authority/country/SVK,10,station
http://data.europa.eu/949/functionalInfrastructure/operationalPoints/53f7a0a13ba30e950f3b8dddc5e04ef31a3730d0,http://data.europa.eu/949/functionalInfrastructure/operationalPoints/SK143263,SK143263,Holíč nad Moravou,48.81454,17.14997,http://data.europa.eu/949/concepts/op-types/rinf/10,10,http://publications.europa.eu/resource/authority/country/SVK,10,station
http://data.europa.eu/949/functionalInfrastructure/operationalPoints/5481bf5a060b8974ba5553e90f57c3f911fcdae1,http://data.europa.eu/949/functionalInfrastructure/operationalPoints/SK162206,SK162206,Medzilaborce,49.273895,21.900755,http://data.europa.eu/949/concepts/op-types/rinf/10,10,http://publications.europa.eu/resource/authority/country/SVK,10,station
http://data.europa.eu/949/functionalInfrastructure/operationalPoints/551747b2799316d0b38c2f260c4b448ea41f0a0f,http://data.europa.eu/949/functionalInfrastructure/operationalPoints/SK142463,SK142463,Boleráz,48.47021,17.49884,http://data.europa.eu/949/concepts/op-types/rinf/110,110,http://publications.europa.eu/resource/authority/country/SVK,110,technical change
http://data.europa.eu/949/functionalInfrastructure/operationalPoints/5649d237f815ff41dd634faad3e2abe9e2a092e9,http://data.europa.eu/949/functionalInfrastructure/operationalPoints/SK171553,SK171553,Dulov,49.044379,18.24835,http://data.europa.eu/949/concepts/op-types/rinf/30,30,http://publications.europa.eu/resource/authority/country/SVK,30,passenger terminal
http://data.europa.eu/949/functionalInfrastructure/operationalPoints/56fed22d5ceb95a4549102f13db79647ac9a26cd,http://data.europa.eu/949/functionalInfrastructure/operationalPoints/SK155606,SK155606,Kunova Teplica,48.60813,20.38476,http://data.europa.eu/949/concepts/op-types/rinf/110,110,http://publications.europa.eu/resource/authority/country/SVK,110,technical change
http://data.europa.eu/949/functionalInfrastructure/operationalPoints/57b179722a6776e4fd5c74744ea62038a75e1a02,http://data.europa.eu/949/functionalInfrastructure/operationalPoints/SK138438,SK138438,Dubovec,48.30496,20.15607,http://data.europa.eu/949/concepts/op-types/rinf/70,70,http://publications.europa.eu/resource/authority/country/SVK,70,passenger stop
http://data.europa.eu/949/functionalInfrastructure/operationalPoints/58e14ac61533078c6c511579fddacf22e7f36bde,http://data.europa.eu/949/functionalInfrastructure/operationalPoints/SK167601,SK167601,Sečovce,48.704165,21.6659,http://data.europa.eu/949/concepts/op-types/rinf/10,10,http://publications.europa.eu/resource/authority/country/SVK,10,station
http://data.europa.eu/949/functionalInfrastructure/operationalPoints/59db86566da30bdb95d81febbd745e2e85f70e50,http://data.europa.eu/949/functionalInfrastructure/operationalPoints/SK171157,SK171157,Bolešov,48.99106,18.15383,http://data.europa.eu/949/concepts/op-types/rinf/30,30,http://publications.europa.eu/resource/authority/country/SVK,30,passenger terminal
http://data.europa.eu/949/functionalInfrastructure/operationalPoints/5a5ab58f63d0c5a35068ca58e6deac19acca6bb5,http://data.europa.eu/949/functionalInfrastructure/operationalPoints/SK155309,SK155309,Štítnik,48.66116,20.36917,http://data.europa.eu/949/concepts/op-types/rinf/110,110,http://publications.europa.eu/resource/authority/country/SVK,110,technical change
http://data.europa.eu/949/functionalInfrastructure/operationalPoints/5b767b8e13d672374b7cd62a8cb973ef64431d30,http://data.europa.eu/949/functionalInfrastructure/operationalPoints/SK136804,SK136804,Nižná Myšľa,48.62882,21.37188,http://data.europa.eu/949/concepts/op-types/rinf/10,10,http://publications.europa.eu/resource/authority/country/SVK,10,station
http://data.europa.eu/949/functionalInfrastructure/operationalPoints/5c19ae16cdc63f3f4035919dd662865dc520775d,http://data.europa.eu/949/functionalInfrastructure/operationalPoints/SK178251,SK178251,Turany,49.10971,19.03825,http://data.europa.eu/949/concepts/op-types/rinf/10,10,http://publications.europa.eu/resource/authority/country/SVK,10,station
http://data.europa.eu/949/functionalInfrastructure/operationalPoints/5e2d72f6637eb13a1573b4c15a32c12a33663bdb,http://data.europa.eu/949/functionalInfrastructure/operationalPoints/SK162560,SK162560,Topoľčianky,48.411997,18.407292,http://data.europa.eu/949/concepts/op-types/rinf/30,30,http://publications.europa.eu/resource/authority/country/SVK,30,passenger terminal
http://data.europa.eu/949/functionalInfrastructure/operationalPoints/5e35e36f29288d3ee91b4a4dbc69690ba8c55522,http://data.europa.eu/949/functionalInfrastructure/operationalPoints/SK171058,SK171058,Pruské,49.020525,18.21079,http://data.europa.eu/949/concepts/op-types/rinf/110,110,http://publications.europa.eu/resource/authority/country/SVK,110,technical change
http://data.europa.eu/949/functionalInfrastructure/operationalPoints/5fa316a04599eba59d21aa2788ff6dc63b1780cd,http://data.europa.eu/949/functionalInfrastructure/operationalPoints/SK151530,SK151530,Michalová zastávka,48.776398,19.75206,http://data.europa.eu/949/concepts/op-types/rinf/70,70,http://publications.europa.eu/resource/authority/country/SVK,70,passenger stop
http://data.europa.eu/949/functionalInfrastructure/operationalPoints/600b1d2eeb674019cf99d7f144dc72b196eb2842,http://data.europa.eu/949/functionalInfrastructure/operationalPoints/SK184937,SK184937,Výh. Slatinka,48.560647,19.235258,http://data.europa.eu/949/concepts/op-types/rinf/80,80,http://publications.europa.eu/resource/authority/country/SVK,80,junction
http://data.europa.eu/949/functionalInfrastructure/operationalPoints/61fab7b4df64e4757afead1e0e5ec27346f26ce0,http://data.europa.eu/949/functionalInfrastructure/operationalPoints/SK151035,SK151035,Malé Straciny,48.20661,19.39848,http://data.europa.eu/949/concepts/op-types/rinf/10,10,http://publications.europa.eu/resource/authority/country/SVK,10,station
http://data.europa.eu/949/functionalInfrastructure/operationalPoints/62c4dc9f3f96889596f242f2ffe3fa8f0ac3d357,http://data.europa.eu/949/functionalInfrastructure/operationalPoints/SK157206,SK157206,Ličartovce,48.8737,21.2408,http://data.europa.eu/949/concepts/op-types/rinf/30,30,http://publications.europa.eu/resource/authority/country/SVK,30,passenger terminal
http://data.europa.eu/949/functionalInfrastructure/operationalPoints/6339fdd6ac03afffdf77f66b8fd9d80b2407685e,http://data.europa.eu/949/functionalInfrastructure/operationalPoints/SK147363,SK147363,Dunajská Streda,47.993112,17.60819,http://data.europa.eu/949/concepts/op-types/rinf/10,10,http://publications.europa.eu/resource/authority/country/SVK,10,station
http://data.europa.eu/949/functionalInfrastructure/operationalPoints/634aa0dfe0c1056a197e25f28ec15a81e7b4d570,http://data.europa.eu/949/functionalInfrastructure/operationalPoints/SK144667,SK144667,Horné Srnie,48.99759,18.09914,http://data.europa.eu/949/concepts/op-types/rinf/10,10,http://publications.europa.eu/resource/authority/country/SVK,10,station
http://data.europa.eu/949/functionalInfrastructure/operationalPoints/636806d7d8aa88ec4e8d074364edb320f8081690,http://data.europa.eu/949/functionalInfrastructure/operationalPoints/SK142232,SK142232,Medzibrod,48.791318,19.357406,http://data.europa.eu/949/concepts/op-types/rinf/10,10,http://publications.europa.eu/resource/authority/country/SVK,10,station
http://data.europa.eu/949/functionalInfrastructure/operationalPoints/65758f797c0c2cc34e708be5c3d2fd0f32177d82,http://data.europa.eu/949/functionalInfrastructure/operationalPoints/SK161562,SK161562,Malá Maňa,48.14628,18.26369,http://data.europa.eu/949/concepts/op-types/rinf/30,30,http://publications.europa.eu/resource/authority/country/SVK,30,passenger terminal
http://data.europa.eu/949/functionalInfrastructure/operationalPoints/65b4711b39a949ae9f7d8a822e3278226786d71b,http://data.europa.eu/949/functionalInfrastructure/operationalPoints/SK137802,SK137802,Čerhov,48.4595,21.64561,http://data.europa.eu/949/concepts/op-types/rinf/30,30,http://publications.europa.eu/resource/authority/country/SVK,30,passenger terminal
http://data.europa.eu/949/functionalInfrastructure/operationalPoints/665986263e7e70fec3bb8df73634a5478800f5dd,http://data.europa.eu/949/functionalInfrastructure/operationalPoints/SK136036,SK136036,Tomášovce,48.36923,19.62687,http://data.europa.eu/949/concepts/op-types/rinf/10,10,http://publications.europa.eu/resource/authority/country/SVK,10,station
http://data.europa.eu/949/functionalInfrastructure/operationalPoints/67412385d3725079fab8bbb8308f778a279d6fcf,http://data.europa.eu/949/functionalInfrastructure/operationalPoints/SK151704,SK151704,Moldava nad Bodvou,48.60152,21.00256,http://data.europa.eu/949/concepts/op-types/rinf/10,10,http://publications.europa.eu/resource/authority/country/SVK,10,station
http://data.europa.eu/949/functionalInfrastructure/operationalPoints/674ef2532fcc35ba52396386a41f7b8a1f74e3b7,http://data.europa.eu/949/functionalInfrastructure/operationalPoints/SK155762,SK155762,Veľké Uherce,48.62556,18.42498,http://data.europa.eu/949/concepts/op-types/rinf/10,10,http://publications.europa.eu/resource/authority/country/SVK,10,station
http://data.europa.eu/949/functionalInfrastructure/operationalPoints/67a271ca41c9d32e56bc872bc23da304a99fa175,http://data.europa.eu/949/functionalInfrastructure/operationalPoints/SK130468,SK130468,Sekule,48.60773,17.01907,http://data.europa.eu/949/concepts/op-types/rinf/10,10,http://publications.europa.eu/resource/authority/country/SVK,10,station
http://data.europa.eu/949/functionalInfrastructure/operationalPoints/68837a2f984f7e3ba2f13995cb03e78dfcf571c6,http://data.europa.eu/949/functionalInfrastructure/operationalPoints/SK172155,SK172155,Zemianske Kostoľany,48.6845,18.51915,http://data.europa.eu/949/concepts/op-types/rinf/10,10,http://publications.europa.eu/resource/authority/country/SVK,10,station
http://data.europa.eu/949/functionalInfrastructure/operationalPoints/69639462afd43e48e7b9bd176c022a6da3d8fb06,http://data.europa.eu/949/functionalInfrastructure/operationalPoints/SK183459,SK183459,Turzovka,49.4036,18.62809,http://data.europa.eu/949/concepts/op-types/rinf/10,10,http://publications.europa.eu/resource/authority/country/SVK,10,station
http://data.europa.eu/949/functionalInfrastructure/operationalPoints/69d3e55a2cf8274114fd0881ceb4ab96748adf44,http://data.europa.eu/949/functionalInfrastructure/operationalPoints/SK138032,SK138032,Jesenské,48.29952,20.06126,http://data.europa.eu/949/concepts/op-types/rinf/10,10,http://publications.europa.eu/resource/authority/country/SVK,10,station
http://data.europa.eu/949/functionalInfrastructure/operationalPoints/6b234f46d539b83960e903f24394e0d5fe0416e6,http://data.europa.eu/949/functionalInfrastructure/operationalPoints/SK131334,SK131334,Kremnické Bane,48.74299,18.90276,http://data.europa.eu/949/concepts/op-types/rinf/10,10,http://publications.europa.eu/resource/authority/country/SVK,10,station
http://data.europa.eu/949/functionalInfrastructure/operationalPoints/6b60c787003d1021d452d5db4ab9aed5ce90d8e4,http://data.europa.eu/949/functionalInfrastructure/operationalPoints/SK175158,SK175158,Porúbka,49.15453,18.72222,http://data.europa.eu/949/concepts/op-types/rinf/30,30,http://publications.europa.eu/resource/authority/country/SVK,30,passenger terminal
http://data.europa.eu/949/functionalInfrastructure/operationalPoints/6bf2823351e5bfb2dcbc52a5164f3545db1a82c3,http://data.europa.eu/949/functionalInfrastructure/operationalPoints/SK171454,SK171454,Lednické Rovne,49.07034,18.28397,http://data.europa.eu/949/concepts/op-types/rinf/110,110,http://publications.europa.eu/resource/authority/country/SVK,110,technical change
http://data.europa.eu/949/functionalInfrastructure/operationalPoints/6d9c80f3d991a196b7db1b2f3714d9a28e4c7fb2,http://data.europa.eu/949/functionalInfrastructure/operationalPoints/SK136069,SK136069,Bratislava-Rača,48.20894,17.16088,http://data.europa.eu/949/concepts/op-types/rinf/10,10,http://publications.europa.eu/resource/authority/country/SVK,10,station
http://data.europa.eu/949/functionalInfrastructure/operationalPoints/6da2a64c1165e40199e1c6ef181cc7838f6a6a66,http://data.europa.eu/949/functionalInfrastructure/operationalPoints/SK187302,SK187302,Výh. Slivník,48.605468,21.568592,http://data.europa.eu/949/concepts/op-types/rinf/80,80,http://publications.europa.eu/resource/authority/country/SVK,80,junction
http://data.europa.eu/949/functionalInfrastructure/operationalPoints/6dd717896d4415fe0cc4613ffe2585210724ab3a,http://data.europa.eu/949/functionalInfrastructure/operationalPoints/SK153569,SK153569,Zbehy,48.38211,18.00022,http://data.europa.eu/949/concepts/op-types/rinf/10,10,http://publications.europa.eu/resource/authority/country/SVK,10,station
http://data.europa.eu/949/functionalInfrastructure/operationalPoints/6ea0c4c047c017c69fb38a3213e0a1e308200231,http://data.europa.eu/949/functionalInfrastructure/operationalPoints/SK149435,SK149435,Kokava nad Rimavicou,48.5665,19.84166,http://data.europa.eu/949/concepts/op-types/rinf/10,10,http://publications.europa.eu/resource/authority/country/SVK,10,station
