osm_id,name,type,ref,lat,lon
node/9779713,Braine-l'Alleud,stop,,50.6844275,4.3757204
node/9779739,Holleken,stop,,50.7671635,4.3545174
node/9779800,De Hoek,stop,,50.7390659,4.3705382
node/9779819,Lillois,stop,,50.6450517,4.3651204
node/9780010,Linkebeek,stop,,50.7734259,4.3397887
node/9780360,Lembeek,stop,,50.7136778,4.2201521
node/16472285,Diegem,stop,,50.8900032,4.445673
node/17401552,Bruxelles-Midi - Brussel-Zuid,station,FBMZ,50.8356748,4.3362419
node/18349134,Oud-Heverlee,stop,,50.8355063,4.6533201
node/21308857,Zwijndrecht,stop,,51.2140743,4.3294607
node/21309047,Kortrijk,station,LK,50.8245646,3.2644362
node/21309096,Mouscron - Moeskroen,stop,,50.7400121,3.2275942
node/25922102,Mortsel,stop,,51.1832933,4.4477955
node/26446051,Verviers-Central,station,GV,50.5883259,5.8551021
node/26446136,Liège-Guillemins,stop,,50.6243785,5.5665643
node/26447188,Ans,stop,,50.661207,5.5097405
node/26667783,Trooz,stop,2,50.5732212,5.6885162
node/26667784,Fraipont,stop,2,50.5650657,5.7236728
node/26667785,Nessonvaux,stop,2,50.5720149,5.7419586
node/26668632,Welkenraedt,stop,,50.6594298,5.9755309
node/26856733,Hemiksem,stop,,51.1363712,4.338482
node/26856765,Niel,stop,,51.111348,4.3393257
node/26912267,Nivelles,station,FNVT,50.6011721,4.3354085
node/26949565,Bornem,stop,,51.0993185,4.2401846
node/26950216,Ruisbroek-Sauvegarde,stop,,51.0810543,4.3258468
node/26970589,Hoboken-Polder,stop,,51.1832178,4.3489033
node/31420361,Houraing,stop,,50.7025924,3.8350909
node/31420374,Papignies,stop,,50.6858308,3.8227305
node/31420400,Rebaix,stop,,50.6616016,3.7938787
node/31420437,Ath,stop,,50.6270694,3.7772675
node/33501471,Acren,stop,,50.7326301,3.8468935
node/33501505,Geraardsbergen,stop,,50.7701745,3.8720076
node/56336696,Gent-Dampoort,station,FGDM,51.0556078,3.7407518
node/60284322,Genval,stop,3,50.7255267,4.5151218
node/60284374,Mont-Saint-Guibert,stop,,50.6381206,4.6129485
node/60284570,Bierges-Walibi,stop,,50.7046079,4.5904859
node/60284868,Florival,stop,,50.7615261,4.6540274
node/60284903,Basse-Wavre,stop,,50.724333,4.6217169
node/60284981,La Hulpe,stop,2,50.7383164,4.4971436
node/60284995,Boitsfort - Bosvoorde,stop,,50.7950608,4.4078268
node/60287880,Sclessin,stop,,50.6105277,5.556327
node/60287902,Pont-de-Seraing,stop,,50.6195451,5.5089673
node/60289022,Bressoux,stop,,50.6444889,5.613126
node/60302419,Lonzée,stop,,50.5518423,4.720364
node/60407560,Tilff,stop,,50.5705065,5.5836948
node/60407609,Méry,stop,,50.5479716,5.587199
node/60475728,Denderleeuw,station,FDD,50.8918988,4.0714017
node/60476609,Zottegem,stop,,50.8689504,3.8143607
node/60561588,Voroux,stop,,50.6607553,5.4302071
node/60604168,Écaussinnes,stop,,50.5622035,4.1568824
node/60604215,Hennuyères,stop,,50.6512684,4.176475
node/60627328,Tilly,stop,,50.5576527,4.5522867
node/60657074,Liers,stop,2,50.6981836,5.5692575
node/60657148,Glons,stop,,50.7501872,5.5353117
node/60657501,Visé,stop,,50.7383911,5.6923745
node/60659021,Bilzen,stop,,50.8685195,5.5093692
node/60659076,Tongeren,stop,,50.7841041,5.4740053
node/60849456,Eine,stop,,50.8704945,3.623771
node/60849485,Zingem,stop,,50.9080667,3.6463442
node/60849496,Gavere-Asper,stop,,50.9291234,3.6400765
node/60849950,Oudenaarde,station,FDN,50.8513899,3.6015888
node/60850276,Eke-Nazareth,stop,,50.9609669,3.6279584
node/61139485,Chapelle-Dieu,stop,,50.5578501,4.6986
node/66180313,Bruxelles-Nord - Brussel-Noord,station,FBN,50.8601446,4.3614901
node/66233003,Liège-Carré,stop,,50.6405233,5.5619172
node/75488166,Bokrijk,stop,,50.9555815,5.4076169
node/77580156,Nijlen,stop,,51.1597414,4.6662775
node/78275089,Hambos,stop,,50.9443235,4.6633237
node/78275107,Wijgmaal,stop,,50.9227513,4.7014938
node/81350000,Thieffry,station,,50.8337292,4.4016642
node/81377349,Liège-Saint-Lambert,stop,,50.64649,5.5709641
node/96658277,Zele,station,FZ,51.0730461,4.0424143
node/96670113,Merchtem,stop,,50.9541136,4.223537
node/96670167,Asse,stop,,50.9065858,4.2082742
node/96670242,Jette,stop,,50.8810084,4.3281635
node/121912007,Binche,stop,,50.4088012,4.1731355
node/124620266,Bruxelles-Schuman - Brussel-Schuman,stop,,50.843028,4.3803668
node/130610208,Villers-la-Ville,stop,,50.5778677,4.5339857
node/142267532,Soignies,stop,,50.5731277,4.0693742
node/142602201,Etterbeek,stop,,50.8218162,4.3898235
node/142615041,Delta,station,,50.8185429,4.4041965
node/142615044,Delta,stop,,50.8189355,4.4044649
node/142615058,Hankar,station,,50.8212957,4.4054332
node/142632025,Pétillon,station,,50.8277223,4.4038813
node/142687736,Thieffry,stop,,50.8341526,4.4015383
node/142687752,Merode,station,,50.8394624,4.3979237
node/142687776,Merode,stop,,50.8384612,4.4002284
node/142700510,Schuman,station,,50.8428062,4.3818382
node/142700511,Arts-Loi - Kunst-Wet,station,,50.8455451,4.36877
node/142700520,Parc - Park,stop,,50.8457025,4.3629028
node/142700522,Gare Centrale - Centraal Station,station,,50.8465485,4.3586397
node/142719362,De Brouckère,station,,50.8499233,4.3523796
node/142719368,Sainte-Catherine - Sint-Katelijne,station,,50.8521404,4.3478425
node/142758829,Hôtel des Monnaies - Munthof,station,,50.833342,4.3487828
node/142758831,Louise - Louiza,station,,50.8353919,4.3546677
node/142758834,Porte de Namur - Naamsepoort,station,,50.8382614,4.3616931
node/142758875,Botanique - Kruidtuin,station,,50.8539544,4.365713
node/142758879,Madou,station,,50.8499675,4.3691066
node/142758883,Trône - Troon,station,,50.841247,4.3665164
node/143687763,Beaulieu,station,,50.815096,4.4096433
node/143687850,Demey,station,,50.8135301,4.4209192
node/143701411,Yser - IJzer,station,,50.8573007,4.3513146
node/143701415,Simonis,stop,,50.8628297,4.330125
node/143710104,Osseghem - Ossegem,station,,50.8569002,4.325184
node/143725254,Beekkant,station,,50.8534442,4.3229722
node/143725278,Gare de l'Ouest - Weststation,station,,50.8485097,4.3206513
node/143736457,Clemenceau,station,,50.8411736,4.3308225
node/143736481,Delacroix,station,,50.8452755,4.3242362
node/143744297,Ribaucourt,station,,50.8604772,4.3396697
node/144002963,Comte de Flandre - Graaf van Vlaanderen,station,,50.8548502,4.3402537
node/144002966,Comte de Flandre - Graaf van Vlaanderen,stop,,50.8551176,4.3397296
node/144050557,Étangs Noirs - Zwarte Vijvers,station,,50.8570847,4.3321841
node/144070376,Jacques Brel,station,,50.843756,4.3180457
node/144070383,Aumale,station,,50.8396805,4.3124915
node/144070391,Saint-Guidon - Sint-Guido,station,,50.8349886,4.305343
node/144070405,Veeweyde - Veeweide,station,,50.8294786,4.3006508
node/144074167,Bizet,station,,50.8249137,4.2970381
node/144075758,La Roue - Het Rad,station,,50.8211173,4.2939154
node/144085375,CERIA - COOVI,station,,50.8162986,4.2896221
node/144095140,Eddy Merckx,station,,50.8167015,4.2807419
node/144100088,Erasme - Erasmus,station,,50.8152348,4.267078
node/144247325,Belgica,station,,50.8684247,4.3368135
node/144262959,Bockstael,stop,,50.8784035,4.3481271
node/144271265,Stuyvenbergh,station,,50.886095,4.3419624
node/144271273,Houba-Brugmann,station,,50.8894885,4.3377665
node/144276150,Heysel - Heizel,station,,50.8968737,4.3359769
node/144283201,Roi Baudouin - Koning Boudewijn,station,,50.8963504,4.327778
node/145016898,Gare du Nord - Noordstation,station,,50.8603818,4.3600896
node/145980763,Maelbeek - Maalbeek,station,,50.8438339,4.3769687
node/146608671,Courcelles-Motte,stop,,50.4633297,4.4008666
node/147132819,Herrmann-Debroux,station,,50.8122156,4.4286923
node/150463269,Leuven,stop,,50.8823177,4.7153908
node/152351072,Leuze,stop,,50.6005191,3.6166743
node/164227563,Péruwelz,stop,,50.5136449,3.5918559
node/169550763,Linkebeek,stop,,50.7734493,4.3398282
node/181699387,Diegem,stop,,50.8898752,4.4456076
node/181699423,Kortenberg,stop,,50.8927118,4.540868
node/196170311,Hergenrath,stop,1,50.7090182,6.0432049
node/198265943,Zonhoven,stop,,50.9902632,5.3487839
node/205215979,Kontich-Lint,stop,,51.1339546,4.4767452
node/206214365,Haren,stop,,50.8886766,4.4198559
node/206257836,Antwerpen-Noorderdokken,stop,,51.2613818,4.4276805
node/206363004,Haren-Sud - Haren-Zuid,stop,,50.8898252,4.415666
node/207422686,Leignon,stop,,50.2676995,5.107747
node/207422738,Natoye,stop,,50.3430803,5.061379
node/207422855,Namur,stop,,50.4693951,4.8625169
node/208520531,Habay,stop,,49.7180944,5.6327102
node/243890656,Boortmeerbeek,stop,,50.9819888,4.5737974
node/249485764,Mortsel-Liersesteenweg,stop,,51.1695411,4.4692086
node/250053530,Herne,stop,,50.7243708,4.0135771
node/250157103,Ligny,stop,,50.512012,4.5659855
node/250308215,Joséphine-Charlotte,station,,50.8402731,4.4136974
node/250308844,Gribaumont,station,,50.8424865,4.4184758
node/250309308,Tomberg,station,,50.8442261,4.4257772
node/250309309,Tomberg,stop,,50.8445908,4.4261482
node/250309558,Roodebeek,station,,50.8474846,4.4357016
node/250310420,Vandervelde,station,,50.8474288,4.4470948
node/250310431,Crainhem - Kraainem,station,,50.8489121,4.4585462
node/250312071,Stockel - Stokkel,station,,50.8420671,4.4641152
node/251007471,Jette,stop,,50.880845,4.3281926
node/251007701,Berchem-Sainte-Agathe - Sint-Agatha-Berchem,stop,,50.8727993,4.2901769
node/251008070,Groot-Bijgaarden,stop,,50.8683779,4.2739877
node/255117723,Viane-Moerbeke,stop,,50.7519186,3.9166595
node/255372012,Beveren,stop,,51.2083275,4.2598781
node/256233176,Geel,stop,,51.1690049,4.9895928
node/256364239,Galmaarden,stop,,50.7436379,3.9663981
node/256563112,Mechelen,station,FM,51.0177129,4.483742
node/257102434,Antoing,stop,,50.5696583,3.4514019
node/257102435,Tournai,stop,,50.6130591,3.3969087
node/257343102,Hambos,stop,,50.9443499,4.6633535
node/260387775,Gembloux,stop,,50.5705663,4.6913299
node/260609543,Huy,stop,,50.5272539,5.2335306
node/262690232,Sint-Joris-Weert,stop,,50.8006405,4.6516629
node/267241676,Flémalle-Haute,stop,,50.5946983,5.4563699
node/268034568,Marchienne-au-Pont,stop,,50.4122655,4.3940444
node/268493772,Stockem,stop,,49.6909479,5.7675835
node/268658412,Libramont,stop,,49.9199637,5.3794984
node/268658430,Chapois,stop,,50.2618121,5.1249974
node/269183362,Eeklo,station,FKLO,51.1807831,3.5753588
node/269671071,Angleur,stop,1,50.6131955,5.598706
node/270630872,Jemappes,stop,,50.4526218,3.8859217
node/270630882,Quaregnon,stop,,50.4497767,3.8558573
node/270630899,Saint-Ghislain,stop,,50.4425468,3.8193351
node/270630911,Boussu,halt,1,50.4360846,3.7961312
node/270630922,Hainin,halt,HAI,50.4282344,3.7675823
node/270630931,Thulin,halt,FTU,50.4233131,3.7452498
node/270630961,Quiévrain,stop,,50.4103849,3.6865471
node/270633612,Lens,stop,,50.5590684,3.9033158
node/271073343,Melkouwen,stop,,51.0942893,4.6727517
node/271202190,Bruxelles-Luxembourg - Brussel-Luxemburg,stop,,50.8382022,4.3736279
node/271661881,Mollem,stop,,50.9326495,4.2163663
node/277003904,Houba-Brugmann,stop,8814,50.8891827,4.338233
node/277592068,Genk,stop,,50.9671007,5.4963023
node/277795465,Tongeren,stop,,50.784098,5.4739509
node/278467458,Opwijk,stop,,50.9747754,4.1872278
node/279076823,Tubize,stop,,50.6917535,4.2058358
node/280314951,Aubange,stop,,49.5635102,5.799396
node/280316594,Athus,stop,,49.5638984,5.8294268
node/281266396,Virton,stop,,49.5603564,5.5193294
node/281716750,Turnhout,stop,,51.3228646,4.9379886
node/283327782,Forrières,stop,,50.1323941,5.2767194
node/286672428,Nossegem,stop,,50.8832715,4.5056325
node/286673204,Brussels Airport-Zaventem,stop,,50.8983994,4.4825642
node/287288229,Bockstael,station,,50.8788488,4.347972
node/287585160,Asse,stop,,50.9065934,4.2083265
node/294272911,Vielsalm,stop,,50.2787498,5.9093396
node/297878217,Essen,stop,,51.4626764,4.4511381
node/299135191,Château de Seilles,stop,,50.497306,5.0820136
node/299392167,Jambes-Est,stop,,50.4548846,4.8803356
node/299392168,Jambes,stop,,50.454608,4.8759143
node/299392420,Naninne,stop,,50.4195964,4.9299124
node/299479615,Beuzet,stop,,50.5337352,4.7490047
node/301600681,Olen,stop,,51.1738992,4.9041481
node/306203775,Enghien - Edingen,station,FNG,50.6972783,4.0471298
node/307841224,Gedinne,stop,,49.9843224,4.9781893
node/308059744,,halt,,51.1998988,4.9038214
node/308059838,,halt,,51.2007176,4.9104438
node/310312403,Ternat,stop,,50.8746381,4.1656113
node/311868038,Carnières,stop,,50.4479232,4.2640981
node/311868054,Forchies,stop,,50.4332044,4.3258647
node/311873553,Couillet,stop,,50.3926243,4.4688336
node/311875466,Châtelet,stop,,50.4094787,4.5205875
node/311875467,Châtelet,stop,,50.4095702,4.5204573
node/311876459,Tamines,stop,,50.4326148,4.6097631
node/311876662,Auvelais,stop,,50.4492129,4.6310962
node/311877523,Jemeppe-sur-Sambre,stop,,50.4514679,4.6637397
node/311879561,Namur,stop,,50.4689932,4.8625593
node/311954628,Statte,stop,,50.5282179,5.2195919
node/313045601,Marche-lez-Écaussinnes,stop,,50.5461602,4.1771631
node/313199035,Gouy-Lez-Piéton,stop,,50.4967848,4.3253448
node/313199247,Godarville,stop,,50.4929638,4.2903028
node/313199453,Manage,stop,,50.5061591,4.2346713
node/315220553,Wervik,station,LWK,50.7818155,3.0462815
node/316001984,Momalle,stop,,50.6699351,5.3674859
node/317306697,Luttre,stop,,50.5061808,4.3838779
node/319871278,Zandbergen,halt,FZB,50.8069906,3.9573581
node/319871281,Appelterre,halt,MAP,50.8134518,3.9729579
node/320011282,Sint-Truiden,stop,,50.8172416,5.1758099
node/320404962,Leuven,stop,,50.8813671,4.7159279
node/321736911,Mariembourg,stop,,50.0956349,4.524942
node/321737177,Ham-sur-Heure,stop,,50.3200916,4.4048946
node/322767393,Esneux,stop,,50.5304854,5.5728592
node/322767419,Poulseur,stop,,50.5092072,5.578742
node/322767484,Rivage,stop,,50.4861808,5.5855417
node/322767523,Comblain-la-Tour,stop,,50.4566508,5.5671424
node/322767563,Hamoir,stop,,50.4287897,5.5339547
node/322767586,Sy,stop,,50.4031681,5.5237934
node/322767646,Barvaux,stop,,50.3490594,5.5014478
node/322767651,Bomal,stop,,50.3770206,5.5194977
node/325666289,Pont-à-Celles,stop,,50.5129445,4.3618697
node/325911885,Rebecq,stop,,50.6607761,4.1336027
node/331556940,Ligny,stop,,50.5120115,4.5660417
node/339205003,Saint-Denis Bovesse,stop,,50.5208128,4.7688416
node/345771178,Elisabeth,station,,50.8630434,4.3309491
node/348276649,Antwerpen-Berchem,stop,,51.1999065,4.4327328
node/348277741,Antwerpen-Berchem,stop,,51.199759,4.4323778
node/348277882,Antwerpen-Berchem,stop,,51.1997089,4.4322374
node/348277962,Antwerpen-Berchem,stop,,51.1996911,4.4321878
node/348278023,Antwerpen-Berchem,stop,,51.1996254,4.4320441
node/348278063,Antwerpen-Berchem,stop,,51.1996031,4.4319904
node/348278094,Antwerpen-Berchem,stop,,51.1995576,4.4318441
node/348280119,Antwerpen-Berchem,stop,,51.1997855,4.4324317
node/348334237,Antwerpen-Centraal,stop,,51.216267,4.4206903
node/348334469,Antwerpen-Centraal,stop,,51.2162631,4.4209009
node/348334710,Antwerpen-Centraal,stop,,51.2162337,4.4214513
node/348334785,Antwerpen-Centraal,stop,,51.2162357,4.4214007
node/348334938,Antwerpen-Centraal,stop,,51.2162444,4.4212394
node/348409569,Antwerpen-Centraal,stop,,51.2162791,4.4208956
node/348411287,Antwerpen-Centraal,stop,,51.2162787,4.4207308
node/348412008,Antwerpen-Centraal,stop,,51.2162543,4.4214154
node/348421822,Antwerpen-Centraal,station,FN,51.2159949,4.4211011
node/351509875,Erps-Kwerps,stop,,50.896746,4.5867806
node/351509937,Nossegem,stop,,50.8833935,4.5055802
node/351590239,Antwerpen-Zuid,station,FNZD,51.1975124,4.3909634
node/351596805,Antwerpen-Zuid,stop,,51.1974221,4.3908642
node/351597056,Antwerpen-Zuid,stop,,51.197606,4.3910583
node/353663576,La Louvière-Sud,stop,,50.4654672,4.1883531
node/353676351,Familleureux,stop,,50.5202766,4.2101116
node/353676353,Leval,stop,,50.4293228,4.2099626
node/355017335,Menen,station,FME,50.7993956,3.1137895
node/356824749,Mortsel-Liersesteenweg,stop,,51.1695536,4.469156
node/356832295,Mortsel-Oude-God,stop,,51.1710534,4.455868
node/356834833,Mortsel,stop,,51.1823231,4.4471864
node/356834949,Mortsel,stop,,51.1823411,4.4472304
node/357209982,Boechout,stop,,51.1638487,4.4938237
node/357222844,Lier,stop,,51.135834,4.5603504
node/357227362,Lier,stop,,51.1358022,4.5603594
node/357227374,Lier,stop,,51.1359188,4.560326
node/360210242,Hoeilaart,halt,FOY,50.76016,4.4674393
node/361050533,Groenendaal,stop,,50.7665401,4.4480513
node/362751453,Rhisnes,stop,,50.4992458,4.8018873
node/365330213,Lodelinsart,stop,,50.4324995,4.4632345
node/366606032,Erbisœul,stop,,50.5071672,3.8879839
node/368312941,Bracquegnies,stop,,50.4741127,4.1249277
node/369391005,Iddergem,halt,GIR,50.8770138,4.0686554
node/369518465,Havré,stop,,50.4703694,4.0615431
node/369736818,Mazy,stop,,50.5130035,4.6755643
node/369738800,Burst,stop,,50.9068993,3.9205477
node/373130689,Obourg,stop,,50.4698513,4.006999
node/373386204,Dilbeek,stop,,50.8663287,4.2438801
node/373388349,Sint-Martens-Bodegem,stop,,50.8672381,4.2061967
node/388918151,Nimy,stop,,50.471652,3.9560941
node/390394452,Olloy-sur-Viroin,station,LOY,50.0731331,4.6027138
node/390394463,Vierves,halt,GVV,50.0780348,4.6349799
node/390394484,Treignes,station,GTR,50.0905348,4.68252
node/390396573,Maldegem,station,FMG,51.2048382,3.446535
node/390958436,Mariembourg (CFV3V),station,,50.0926325,4.5305752
node/408279427,Diest,stop,,50.993088,5.0514001
node/418056075,Godinne,stop,,50.3487405,4.8690539
node/418056105,Yvoir,stop,,50.3206348,4.878845
node/418332015,Silly,stop,,50.662792,3.9361676
node/419009313,Essene-Lombeek,stop,,50.8823885,4.1159355
node/420253415,Milmort,stop,2,50.6933032,5.5996613
node/420301153,Lustin,stop,,50.3690275,4.8770073
node/420301157,Godinne,stop,,50.3487731,4.8690461
node/420304073,Dorinne-Durnal,station,,50.326162,4.9778972
node/420419294,Herstal,stop,3,50.6606426,5.6230465
node/420847927,Purnode,halt,,50.3234078,4.9415304
node/429859853,Melreux-Hotton,stop,,50.2842643,5.4409436
node/430116773,Zolder,stop,,51.0337398,5.3296868
node/430146709,Lommel,stop,,51.2116198,5.3119963
node/436458637,Froyennes,station,GFY,50.6287177,3.3571415
node/439124320,Quévy,stop,,50.3413677,3.909416
node/439471036,Genly,stop,,50.3914795,3.9111233
node/439471072,Frameries,stop,,50.4057611,3.9064116
node/439471114,Masnuy-Saint-Pierre,stop,,50.5363364,3.9618227
node/439471116,Ghlin,stop,,50.4875298,3.9063598
node/442090296,Court-Saint-Étienne,stop,,50.6456676,4.5655507
node/442161579,Beauraing,stop,,50.1159341,4.9565671
node/442534503,Limal,stop,,50.6916257,4.5755972
node/442534731,Wavre,stop,,50.7162041,4.6052004
node/442536298,Gastuche,stop,,50.736498,4.6499534
node/443251281,Piéton,stop,,50.4349222,4.2890103
node/443251284,Morlanwelz,stop,,50.4585064,4.2470507
node/444873751,Remicourt,stop,,50.6786688,5.3211017
node/446059037,La Louvière-Centre,station,LVR,50.4776792,4.1807216
node/457555536,Rochefort-Jemelle,stop,,50.1602679,5.2667281
node/458754894,Bracquegnies,stop,,50.4741467,4.124912
node/460036776,Zellik,stop,,50.8893714,4.2756645
node/463208354,Herrmann-Debroux,stop,,50.8122741,4.4293709
node/471220214,Liedekerke,stop,,50.8826486,4.0950284
node/493954913,De Hoek,stop,,50.7390536,4.3704876
node/496893311,Belsele,stop,,51.1506107,4.0876747
node/496893316,Sinaai,stop,,51.1434211,4.0685367
node/496893320,Lokeren,station,FLK,51.1076068,3.9862766
node/496951877,Mons,stop,,50.4540542,3.9419387
node/496957941,Waremme,stop,,50.6942634,5.249946
node/497075392,Lede,halt,FLE,50.9705704,3.985869
node/497075397,Erembodegem,stop,,50.9196992,4.0554153
node/497231558,Fleurus,stop,,50.4823135,4.5438208
node/497277145,Florenville,stop,,49.7069564,5.3320959
node/497285099,Florenville,stop,,49.7069877,5.3321126
node/497551058,Zaventem,stop,,50.8849176,4.473351
node/497551066,Zaventem,stop,,50.885036,4.4734135
node/497551090,Erps-Kwerps,stop,,50.8966224,4.586813
node/497551105,Veltem,stop,,50.9005567,4.6330734
node/499144795,Alken,stop,,50.8873065,5.2933127
node/499154588,Heizijde,stop,,50.9892196,4.1567797
node/499154595,Lebbeke,stop,,51.0047252,4.1349868
node/499183563,Ninove,station,FNN,50.8394627,4.0261778
node/499615927,Aiseau,stop,,50.4295246,4.5846864
node/499619695,Yvoir,stop,,50.3206306,4.878796
node/499727251,Blaton,stop,,50.5052655,3.6668188
node/500104896,Diegem,stop,,50.8897874,4.4455799
node/500122810,Haren-Sud - Haren-Zuid,stop,,50.8896045,4.4157848
node/500183431,Nossegem,stop,,50.8831862,4.5056807
node/500185514,Kortenberg,stop,,50.8926245,4.5408958
node/500190961,Erps-Kwerps,stop,,50.8965333,4.5868318
node/500190975,Herent,stop,,50.9036747,4.6753773
node/500255690,Leuven,stop,,50.882311,4.7153387
node/501834897,Jurbise,stop,,50.5300305,3.9099384
node/501918703,Hove,stop,,51.1533549,4.4654954
node/501919620,Hove,stop,,51.1533648,4.4655467
node/501920994,Hove,stop,,51.1533909,4.4656541
node/501921857,Hove,stop,,51.1533994,4.4657028
node/503158242,Belgica,stop,,50.8680557,4.3364546
node/503988328,Manage,stop,,50.5061349,4.2346427
node/504473073,Tielen,stop,,51.2418892,4.8944403
node/505084156,Dinant,stop,,50.2611436,4.9077552
node/506056777,Eupen,station,,50.6351119,6.0389191
node/506266542,Harchies,halt,FRH,50.4822884,3.6990271
node/506694224,Jette,stop,,50.8810392,4.3281603
node/506931479,Neerwinden,stop,,50.7637756,5.0355293
node/506933281,Vertrijk,stop,,50.8360962,4.8353409
node/506944265,De Panne,station,FDK,51.07727,2.6021658
node/506947367,Veurne,stop,,51.0737559,2.6708492
node/506950667,Kortemark,station,FTK,51.0251661,3.0440745
node/525922925,Haacht,station,,50.966177,4.6135917
node/529407398,Pécrot,stop,,50.778663,4.6514236
node/537513535,Haaltert,stop,,50.9068351,4.0235674
node/537514209,Ede,stop,,50.9109246,3.9863339
node/537514834,Herzele,stop,,50.8970557,3.8798931
node/537520314,Sint-Denijs-Boekel,stop,,50.8742831,3.6989912
node/537521128,Bissegem,halt,MIM,50.8261729,3.2252204
node/537522410,Poperinge,station,FPP,50.8543508,2.7368606
node/554306242,Pepinster,stop,3,50.5680523,5.8066979
node/554307463,Juslenville,stop,,50.544704,5.8101237
node/554310500,Spa-Géronstère,stop,,50.4892609,5.8669759
node/560277696,Verviers-Palais,stop,2,50.5907877,5.8642896
node/564748512,Booischot,stop,,51.0374671,4.7732176
node/565768238,Aalst,station,FLS,50.9426871,4.0391618
node/568433969,Berlaar,stop,,51.1127137,4.6402365
node/568841760,Sint-Denijs-Boekel,stop,,50.8742492,3.6990029
node/571405422,Aywaille,stop,,50.472798,5.6728771
node/571430723,Trois-Ponts,stop,,50.3692164,5.8733589
node/571430750,Coo,stop,,50.3910608,5.8809811
node/585123111,Pepinster-Cité,stop,,50.5635758,5.8043908
node/586440632,Verviers-Central,stop,,50.5876098,5.8540666
node/624229443,Brugelette,stop,,50.5941954,3.8522858
node/631428707,Wespelaar-Tildonk,station,,50.9580659,4.6387127
node/635777507,Haacht,stop,,50.9661403,4.6137944
node/637060285,Franchimont,stop,,50.5254853,5.8224073
node/637060289,Spa,stop,,50.4902298,5.8556908
node/639157429,Antwerpen-Luchtbal,stop,,51.2443663,4.4246015
node/639157431,Antwerpen-Luchtbal,stop,,51.2443678,4.4246592
node/660115815,De Pinte,station,FPT,50.9966415,3.6495233
node/663738489,Testelt,stop,,51.009789,4.9468129
node/663738845,Zichem,stop,,51.0064099,4.9883186
node/677331610,Heizijde,stop,,50.9899611,4.1554387
node/677337536,Lebbeke,stop,,51.0055583,4.1338298
node/703229633,Hever,stop,,50.9973429,4.5384608
node/704409326,Halanzy,stop,,49.5559067,5.7427757
node/704409338,Messancy,stop,1,49.5929237,5.8184569
node/705226902,Ingelmunster,station,FNM,50.9139858,3.2554117
node/706673726,Sleidinge,stop,,51.126273,3.6677919
node/725357629,Diepenbeek,stop,,50.9101155,5.4217842
node/727306052,Wevelgem,station,FWM,50.8111783,3.1826776
node/745759862,Marbehan,stop,,49.7273688,5.5396456
node/750568153,Palais,stop,,50.4147104,4.443547
node/763129545,Gontrode,stop,,50.9797072,3.8014495
node/765069767,Bertrix,stop,,49.852379,5.2680366
node/765094805,Janson,station,,50.4133224,4.4519963
node/783174574,Graide,stop,,49.9338235,5.0433447
node/794916126,Koksijde,stop,,51.0790566,2.6530502
node/803807085,Sart-Bernard,stop,,50.4064871,4.9493097
node/817789744,Wolfstee,stop,,51.1685465,4.7850779
node/817789840,Nijlen,stop,,51.159707,4.666286
node/817797345,Kessel,stop,,51.150522,4.6166298
node/827977507,Aalter,station,FLT,51.0920383,3.4489698
node/845409115,Lobbes,stop,,50.3461658,4.2617207
node/867138069,Ottignies,station,LT,50.6735333,4.5694838
node/873842407,Sint-Joris-Weert,stop,,50.8006248,4.6518594
node/880954010,Sclaigneaux,stop,,50.4921552,5.0265389
node/926082486,Virton,stop,,49.5604257,5.5193672
node/935221209,Overpelt,stop,,51.2156437,5.4241917
node/941457095,Visé,stop,,50.7383847,5.6922323
node/967026850,Dendermonde,station,FDR,51.0228312,4.1008679
node/967985159,Obaix-Buzet,stop,,50.5355815,4.3636766
node/972828726,Dave-Saint-Martin,stop,,50.4289663,4.8843516
node/1015906348,Zeebrugge-Strand,stop,,51.3304697,3.1841865
node/1015981197,Duinbergen,station,MUI,51.3383069,3.2635563
node/1015981231,Knokke,station,FKK,51.3398274,3.2843217
node/1015988681,Heist,station,FHI,51.3338987,3.2391716
node/1016229034,Lissewege,stop,,51.2947381,3.1944163
node/1016392118,Zeebrugge-Dorp,station,LZE,51.326422,3.1948891
node/1023127179,Waremme,stop,,50.6942234,5.2499029
node/1026626590,Remicourt,stop,,50.678702,5.3211135
node/1027979508,Oostende,station,FSD,51.2284322,2.926215
node/1029599516,Anseremme,stop,,50.2372859,4.9046683
node/1029970501,Natoye,stop,,50.3430779,5.0613254
node/1041330834,Lustin,stop,,50.3690169,4.8770581
node/1054207092,Spontin,station,1,50.3229655,5.0099444
node/1092306669,Ciney,stop,,50.2915726,5.0911315
node/1101857080,Assesse,stop,,50.3682647,5.0224945
node/1106534313,Marche-les-Dames,stop,,50.4806871,4.9654748
node/1118409539,Leignon,stop,,50.2676667,5.1077319
node/1125957013,Ciney,stop,,50.2915691,5.0910755
node/1126028099,Pepinster,stop,4,50.5679642,5.8067632
node/1126028143,Pepinster,stop,2,50.568387,5.8064404
node/1127223397,Hasselt,stop,,50.9309447,5.3269636
node/1127223405,Hasselt,stop,,50.9316013,5.3247148
node/1127223451,Hasselt,stop,,50.9309183,5.3269425
node/1127229458,Hasselt,stop,,50.9304598,5.3266591
node/1127256365,Hasselt,stop,,50.9308228,5.3268844
node/1127256367,Hasselt,stop,,50.9305704,5.3267269
node/1127256394,Hasselt,stop,,50.9306934,5.3268213
node/1127256430,Hasselt,stop,,50.9306614,5.326812
node/1127256458,Hasselt,stop,,50.9305419,5.3267102
node/1128117130,Kiewit,stop,,50.9544356,5.3490488
node/1128117172,Kiewit,stop,,50.9544703,5.3490405
node/1133640384,Anseremme,stop,,50.2373078,4.9046279
node/1141974566,Leuven,stop,,50.881375,4.7159815
node/1141982324,Leuven,stop,,50.8814301,4.7163308
node/1141982326,Leuven,stop,,50.8814094,4.7161893
node/1146307282,Jemappes,halt,FJM,50.4526039,3.8859233
node/1147120494,Zedelgem,stop,,51.1285513,3.1655251
node/1158840271,Bierset-Awans,stop,,50.658241,5.4569411
node/1158868975,Ans,stop,,50.6612412,5.5097455
node/1158868976,Ans,stop,,50.6611219,5.5097252
node/1158868998,Ans,stop,,50.660967,5.5096958
node/1158869120,Ans,stop,,50.6610897,5.5097194
node/1160274869,Erps-Kwerps,stop,,50.8966583,4.5868058
node/1160274911,Kortenberg,stop,,50.8927477,4.5408655
node/1160390635,Veltem,stop,,50.9004321,4.6330984
node/1160390781,Veltem,stop,,50.9003438,4.6331187
node/1160390854,Veltem,stop,,50.9004686,4.633094
node/1161266502,Kortenberg,stop,,50.892835,4.5408415
node/1161521898,Angleur,stop,2,50.6131606,5.5986843
node/1161542011,Zaventem,stop,,50.884823,4.4733056
node/1161970654,Zaventem,stop,,50.8849516,4.4733683
node/1161970742,Nossegem,stop,,50.8833054,4.5056128
node/1161970907,Brussels Airport-Zaventem,stop,,50.8983447,4.4823821
node/1162281015,Diegem,stop,,50.8899079,4.4456299
node/1163255137,Ougrée,stop,,50.6054485,5.5363778
node/1163302447,Bressoux,stop,,50.6444123,5.6131558
node/1163535230,Angleur,stop,5,50.6130525,5.5986234
node/1163536375,Angleur,stop,4,50.6130841,5.5986413
node/1163832577,Voroux,stop,,50.6607901,5.4302104
node/1163832851,Fexhe-le-Haut-Clocher,stop,,50.6643276,5.3969293
node/1164168322,Okegem,station,FKO,50.856544,4.0536641
node/1164678455,Mons,stop,,50.4540401,3.9419912
node/1164678724,Mons,stop,,50.4539779,3.9421286
node/1164678814,Mons,stop,,50.4541114,3.9417988
node/1164678968,Mons,stop,,50.4541251,3.9417451
node/1164683150,Nimy,stop,,50.4716191,3.9561194
node/1164685645,Obourg,stop,,50.4698176,4.0070001
node/1164695869,Havré,stop,,50.4707194,4.0593296
node/1166218560,La Louvière-Centre,stop,,50.478068,4.1804838
node/1166218576,La Louvière-Centre,stop,,50.4780874,4.1804377
node/1170069112,Morlanwelz,stop,,50.4585261,4.2470783
node/1177734937,Bokrijk,stop,,50.9559488,5.4093781
node/1178257779,Gent-Sint-Pieters,station,FGSP,51.0355237,3.7107158
node/1185894415,Marchienne-Zone,stop,,50.3979664,4.3907899
node/1187342960,Charleroi-Ouest,stop,,50.4112576,4.436859
node/1187343018,Charleroi-Ouest,stop,,50.411296,4.4367359
node/1187343046,Charleroi-Ouest,stop,,50.4112453,4.4369015
node/1187977663,Marchienne-au-Pont,stop,,50.4122864,4.3940812
node/1187978033,Marchienne-au-Pont,stop,,50.4123685,4.3942567
node/1187978745,Marchienne-au-Pont,stop,,50.4123506,4.3942118
node/1188042015,Couillet,stop,,50.3927088,4.4688509
node/1189863748,Aiseau,stop,,50.4294926,4.5846711
node/1189863756,Farciennes,stop,,50.4291713,4.5526885
node/1193212723,Pont-de-Seraing,stop,,50.6196888,5.5100742
node/1194537747,Hourpes,stop,,50.3648845,4.3085162
node/1194537802,Landelies,stop,,50.3773279,4.3505984
node/1195741688,Forchies,stop,,50.4331709,4.3258657
node/1197205667,Piéton,stop,,50.43489,4.2890002
node/1199006120,Marloie,stop,,50.2023553,5.3133677
node/1199006815,Marloie,stop,,50.2023445,5.3134152
node/1209685098,Namur,stop,,50.4690979,4.8625631
node/1209685204,Namur,stop,,50.4692631,4.8625333
node/1209685416,Namur,stop,,50.468858,4.8625903
node/1209685576,Namur,stop,,50.4693614,4.8625238
node/1209685738,Namur,stop,,50.4692294,4.8625396
node/1209685770,Namur,stop,,50.4691285,4.8625577
node/1209685883,Namur,stop,,50.4689612,4.8625648
node/1209685961,Namur,stop,,50.4688252,4.8625929
node/1225021937,Châtelet,stop,,50.409638,4.5203405
node/1225022019,Châtelet,stop,,50.4095485,4.520491
node/1225080325,Manage,stop,,50.5063217,4.234867
node/1225080489,Manage,stop,,50.5062304,4.2347576
node/1225080660,Manage,stop,,50.5062554,4.2347881
node/1225861502,Mol,stop,,51.1906106,5.1145072
node/1225861647,Mol,stop,,51.1905783,5.1145227
node/1229565387,Herentals,stop,,51.1807447,4.8278148
node/1229565808,Herentals,stop,,51.1808501,4.82771
node/1229565984,Herentals,stop,,51.1807753,4.8277884
node/1231240030,Neerpelt,stop,,51.2218905,5.4372749
node/1231240069,Neerpelt,stop,,51.2218749,5.4374341
node/1231240167,Neerpelt,stop,,51.2218933,5.4372201
node/1235130655,Jemappes,stop,,50.4525861,3.8859282
node/1235738044,Liège-Guillemins,stop,,50.6243164,5.5664376
node/1235738052,Liège-Guillemins,stop,,50.6244824,5.5667843
node/1235738055,Liège-Guillemins,stop,,50.6245432,5.5669141
node/1235738056,Liège-Guillemins,stop,,50.6242191,5.5662807
node/1235738077,Liège-Guillemins,stop,,50.6244611,5.5667378
node/1235738096,Liège-Guillemins,stop,,50.624402,5.5666057
node/1235738107,Liège-Guillemins,stop,,50.6245632,5.5669612
node/1235738108,Liège-Guillemins,stop,,50.6242919,5.5663957
node/1236940045,Saint-Ghislain,stop,,50.4425752,3.8193138
node/1236945659,Quaregnon,stop,,50.4498114,3.8558443
node/1240011947,Sint-Niklaas,stop,,51.171923,4.1442895
node/1240011987,Sint-Niklaas,stop,,51.1720676,4.144163
node/1240012107,Sint-Niklaas,stop,,51.1721462,4.1453388
node/1240012114,Sint-Niklaas,stop,,51.1720333,4.144191
node/1240012377,Sint-Niklaas,stop,,51.1721624,4.1440973
node/1240012522,Sint-Niklaas,stop,,51.1719538,4.1442604
node/1240986440,Nieuwkerken-Waas,stop,,51.1853353,4.1850721
node/1245618213,Poix-Saint-Hubert,stop,,50.0194139,5.2927133
node/1247375096,Puurs,stop,,51.0771398,4.2831749
node/1247488156,Boom,stop,,51.0908384,4.3603907
node/1247488392,Boom,stop,,51.0908553,4.3603467
node/1248353612,Niel,stop,,51.1113206,4.3392991
node/1248382410,Schelle,stop,,51.1237698,4.3401303
node/1248382414,Hemiksem,stop,,51.1354432,4.3383332
node/1248382901,Schelle,stop,,51.1261479,4.3401609
node/1248417923,Hoboken-Polder,stop,,51.1831886,4.3489272
node/1248438067,Antwerpen-Zuid,stop,,51.1975227,4.3909817
node/1255791819,Aarschot,stop,,50.9841941,4.8232626
node/1255791854,Aarschot,stop,,50.9840969,4.8236024
node/1255791915,Aarschot,stop,,50.9841102,4.8235577
node/1255791935,Aarschot,stop,,50.9841649,4.8233892
node/1255791956,Aarschot,stop,,50.9841514,4.8234314
node/1256554307,Langdorp,stop,,51.0024573,4.8636744
node/1277189163,Wondelgem,stop,,51.0889206,3.7195447
node/1295838570,Viville,stop,,49.6882101,5.7859405
node/1307660429,Frameries,halt,LRS,50.4057561,3.9064436
node/1309049124,Bruxelles-Chapelle - Brussel Kapellekerk,stop,,50.8412341,4.3487379
node/1309049583,Bruxelles-Chapelle - Brussel Kapellekerk,stop,,50.8411418,4.3487891
node/1309049610,Bruxelles-Chapelle - Brussel Kapellekerk,stop,,50.8413596,4.3486684
node/1309049649,Bruxelles-Chapelle - Brussel Kapellekerk,stop,,50.8412648,4.3487209
node/1309145362,Bruxelles-Midi - Brussel-Zuid,stop,,50.8353735,4.336082
node/1309145594,Bruxelles-Midi - Brussel-Zuid,stop,,50.8353535,4.3361221
node/1309163456,Bruxelles-Midi - Brussel-Zuid,stop,,50.8354373,4.3359421
node/1309163563,Bruxelles-Midi - Brussel-Zuid,stop,,50.8354572,4.3359005
node/1309177511,Bruxelles-Midi - Brussel-Zuid,stop,,50.8355324,4.3357089
node/1309177518,Bruxelles-Midi - Brussel-Zuid,stop,,50.8354398,4.3356653
node/1309182829,Bruxelles-Midi - Brussel-Zuid,stop,,50.8357059,4.3353403
node/1309182835,Bruxelles-Midi - Brussel-Zuid,stop,,50.8357858,4.3351675
node/1309182938,Bruxelles-Midi - Brussel-Zuid,stop,,50.835684,4.3353862
node/1309182958,Bruxelles-Midi - Brussel-Zuid,stop,,50.8357663,4.3352046
node/1310535324,Mouscron - Moeskroen,stop,,50.7398347,3.2279037
node/1310535385,Mouscron - Moeskroen,stop,,50.7399894,3.2276342
node/1310535441,Mouscron - Moeskroen,stop,,50.7399275,3.227743
node/1311029887,Forest-Midi - Vorst-Zuid,stop,,50.8077508,4.3084693
node/1311029900,Forest-Midi - Vorst-Zuid,stop,,50.8078195,4.3082425
node/1312295776,Ruisbroek,stop,,50.7903899,4.2941148
node/1312309000,Ruisbroek,stop,,50.7912131,4.2950695
node/1312315909,Lot,stop,,50.7658609,4.2732537
node/1312315910,Lot,stop,,50.7659091,4.2731319
node/1312315914,Lot,stop,,50.7658421,4.2733017
node/1312982952,Simonis,stop,,50.8635454,4.3311523
node/1313002744,Tour et Taxis - Thurn en Taxis,stop,,50.8722985,4.3416926
node/1313002787,Tour et Taxis - Thurn en Taxis,stop,,50.8722795,4.3417321
node/1313036486,Bockstael,stop,,50.8795098,4.348405
node/1313036497,Bockstael,stop,,50.8794798,4.348382
node/1313200729,Bruxelles-Nord - Brussel-Noord,stop,,50.8605558,4.3614754
node/1313200787,Bruxelles-Nord - Brussel-Noord,stop,,50.8606093,4.3612189
node/1313200809,Bruxelles-Nord - Brussel-Noord,stop,,50.8604305,4.3620869
node/1313200843,Bruxelles-Nord - Brussel-Noord,stop,,50.8605659,4.3614199
node/1313200866,Bruxelles-Nord - Brussel-Noord,stop,,50.8603919,4.3622911
node/1313200904,Bruxelles-Nord - Brussel-Noord,stop,,50.8604431,4.3620347
node/1313200934,Bruxelles-Nord - Brussel-Noord,stop,,50.8604771,4.3618897
node/1313200938,Bruxelles-Nord - Brussel-Noord,stop,,50.8605153,4.3616713
node/1313200974,Bruxelles-Nord - Brussel-Noord,stop,,50.8604011,4.3622429
node/1313201021,Bruxelles-Nord - Brussel-Noord,stop,,50.8605977,4.3612702
node/1313201028,Bruxelles-Nord - Brussel-Noord,stop,,50.8604848,4.3618346
node/1313201033,Bruxelles-Nord - Brussel-Noord,stop,,50.8605254,4.3616274
node/1315010151,Bleret,stop,,50.6851513,5.2867457
node/1315044531,Momalle,stop,,50.6699045,5.3674724
node/1315044538,Bierset-Awans,stop,,50.6582073,5.4569328
node/1315044541,Fexhe-le-Haut-Clocher,stop,,50.6639437,5.3991426
node/1315190968,Heusden,stop,,51.0382961,5.2807986
node/1315191939,Beverlo,stop,,51.0888625,5.2345844
node/1320786077,Antwerpen-Berchem,stop,,51.1998381,4.4325645
node/1320786186,Antwerpen-Berchem,stop,,51.1998588,4.4326079
node/1323879288,Diest,stop,,50.9934156,5.0501092
node/1323916402,Testelt,stop,,51.0098732,4.9468284
node/1323916478,Testelt,stop,,51.0097533,4.9468147
node/1323916554,Zichem,stop,,51.0063816,4.9882886
node/1327741604,Saint-Ghislain,stop,,50.4426929,3.8192343
node/1329541424,Mechelen-Nekkerspoel,stop,,51.0302236,4.4902649
node/1329541520,Mechelen-Nekkerspoel,stop,,51.0302205,4.4904262
node/1329541571,Mechelen-Nekkerspoel,stop,,51.0302217,4.4904789
node/1329600250,Haversin,stop,,50.2490982,5.1943397
node/1329688221,Mechelen,stop,,51.0176993,4.4840114
node/1329688233,Mechelen,stop,,51.0176342,4.4841562
node/1329688323,Mechelen,stop,,51.0176124,4.4842019
node/1329688353,Mechelen,stop,,51.0175616,4.4843432
node/1329693729,Mechelen,stop,,51.0179221,4.4835872
node/1329693854,Mechelen,stop,,51.0179422,4.4835498
node/1330001270,Muizen,stop,,51.0082509,4.5140008
node/1330001305,Muizen,stop,,51.0090778,4.5126339
node/1330007198,Muizen,stop,,51.0080274,4.5146358
node/1349538716,Ath,stop,,50.6269173,3.7772602
node/1349538719,Ath,stop,,50.6269493,3.7772628
node/1349546078,Ath,stop,,50.6270379,3.7772605
node/1377515481,Brugge-Sint-Pieters,stop,,51.2229176,3.201755
node/1391581790,Gendron-Celles,stop,,50.2104467,4.9646282
node/1396293203,Beekkant,stop,,50.8530481,4.3227246
node/1400486686,Herent,stop,,50.9038867,4.6753328
node/1414910222,Wezemaal,stop,,50.9563934,4.7480598
node/1421165110,Arlon,stop,,49.680169,5.8094284
node/1446361411,Melsele,stop,,51.2108218,4.2880062
node/1453742121,Hergenrath,stop,2,50.7090338,6.0432516
node/1453872867,Chênée,stop,,50.6074842,5.6173949
node/1453872876,Chênée,stop,,50.6075596,5.6174485
node/1457272488,Marche-en-Famenne,stop,,50.222458,5.3460255
node/1461533226,Duffel,stop,,51.0913785,4.492756
node/1461578240,Duffel,stop,,51.0913876,4.4928108
node/1461578247,Duffel,stop,,51.0914073,4.4930162
node/1461578266,Duffel,stop,,51.0914032,4.4929591
node/1461599041,Sint-Katelijne-Waver,stop,,51.0707579,4.4957769
node/1461599049,Sint-Katelijne-Waver,stop,,51.0707581,4.4957238
node/1461599071,Sint-Katelijne-Waver,stop,,51.0707484,4.4958993
node/1461599077,Sint-Katelijne-Waver,stop,,51.0707476,4.4959584
node/1480270443,Etterbeek,stop,,50.8218798,4.3899681
node/1496550717,Fontaine-Valmont,stop,,50.321206,4.2128644
node/1496550719,Thuin,stop,,50.3425461,4.2884031
node/1496553211,Erquelinnes-Village,stop,,50.3099725,4.1308411
node/1496553212,Labuissière,stop,,50.3162805,4.1863354
node/1496553213,Solre-sur-Sambre,stop,,50.3127746,4.1581662
node/1496569616,Roux,stop,,50.4429304,4.3940241
node/1496569679,Roux,stop,,50.4429255,4.394084
node/1496569682,Roux,stop,,50.4429603,4.3938823
node/1496569683,Roux,stop,,50.442964,4.3938246
node/1516414635,Kapellen,station,LKP,51.3134658,4.4327583
node/1518030773,Waarschoot,stop,,51.154432,3.6152129
node/1532040440,Hever,stop,,50.997395,4.5385139
node/1533217965,Thieu,stop,,50.4693116,4.0962965
node/1543246317,Schendelbeke,halt,FED,50.7979479,3.8997223
node/1557327560,Bruxelles-Ouest - Brussel-West,stop,,50.850376,4.3219082
node/1575956145,Buda,stop,,50.9080824,4.4176387
node/1575956223,Buda,stop,,50.9081012,4.417598
node/1577334894,Geel,stop,,51.1690382,4.9895855
node/1580901393,Schaerbeek - Schaarbeek,stop,,50.8777824,4.3782634
node/1580901395,Schaerbeek - Schaarbeek,stop,,50.8778128,4.3782301
node/1580904642,Schaerbeek - Schaarbeek,stop,,50.8778912,4.3781102
node/1580904645,Schaerbeek - Schaarbeek,stop,,50.8779204,4.3780787
node/1580945581,Schaerbeek - Schaarbeek,stop,,50.878002,4.3779626
node/1580945582,Schaerbeek - Schaarbeek,stop,,50.8780256,4.3779267
node/1580949180,Schaerbeek - Schaarbeek,stop,,50.8781134,4.377819
node/1580949181,Schaerbeek - Schaarbeek,stop,,50.8781412,4.3777923
node/1580949182,Schaerbeek - Schaarbeek,stop,,50.8782166,4.37766
node/1580949183,Schaerbeek - Schaarbeek,stop,,50.8782436,4.3776284
node/1580956604,Schaerbeek - Schaarbeek,stop,,50.87832,4.3775046
node/1580956606,Schaerbeek - Schaarbeek,stop,,50.8783454,4.3774714
node/1580956609,Schaerbeek - Schaarbeek,stop,,50.878428,4.3773673
node/1584951481,Aarsele,station,FAR,50.9845,3.4185022
node/1586135606,Bertrix,stop,,49.8524175,5.2681903
node/1590950927,Hillegem,stop,,50.8918708,3.8595924
node/1606739624,Soignies,stop,,50.5730476,4.0694351
node/1611761867,Antwerpen-Noorderdokken,stop,,51.261354,4.4278949
node/1611761869,Antwerpen-Noorderdokken,stop,,51.2613591,4.427841
node/1611761871,Antwerpen-Noorderdokken,stop,,51.2613888,4.4276294
node/1618969672,Archennes,stop,,50.754183,4.6624141
node/1623683596,Gouvy,stop,,50.1895479,5.9538745
node/1625648757,Wolfstee,stop,,51.1685803,4.7850731
node/1629303240,Dolhain-Gileppe,stop,2,50.6261614,5.9385017
node/1630227740,Olen,stop,,51.1741395,4.9011156
node/1631807174,Bouwel,stop,,51.1657461,4.7471232
node/1634330013,Blankenberge,station,FBK,51.3123397,3.1339182
node/1640542561,Bilzen,station,FIE,50.8684996,5.5095108
node/1648604903,Balen,stop,,51.1687464,5.1654806
node/1648677678,Gembloux,stop,,50.570149,4.6915149
node/1648677715,Gembloux,stop,,50.5704935,4.6911796
node/1648677719,Gembloux,stop,,50.5705473,4.6912849
node/1678636188,Sint-Genesius-Rode - Rhode-Saint-Genèse,stop,,50.7479802,4.3619352
node/1678636199,Sint-Genesius-Rode - Rhode-Saint-Genèse,stop,,50.7479874,4.3619828
node/1695150217,Nivelles,stop,,50.601247,4.3352517
node/1695150225,Nivelles,stop,,50.6012132,4.3355801
node/1695150271,Nivelles,stop,,50.6012338,4.3353969
node/1695150278,Nivelles,stop,,50.6012273,4.3354448
node/1696387990,Mons,stop,,50.4541796,3.9416001
node/1698078215,Ville-Pommerœul,stop,,50.4653592,3.7228056
node/1701346023,Scheldewindeke,stop,,50.9359764,3.778273
node/1702713575,Aye,stop,,50.2243902,5.3010383
node/1702713654,Chapois,stop,,50.2618389,5.1250258
node/1706377814,Verviers-Central,stop,,50.5874266,5.8544402
node/1706377840,Verviers-Central,stop,,50.5875295,5.8542653
node/1706377848,Verviers-Central,stop,,50.58751,5.8543107
node/1712740319,Blaton,stop,,50.505238,3.6667886
node/1712747906,Blaton,stop,,50.5053302,3.66692
node/1714760108,Erpe-Mere,stop,,50.929243,3.9628398
node/1723887879,Beveren,stop,,51.2082957,4.2598966
node/1723887886,Zwijndrecht,stop,,51.2140405,4.3294642
node/1725477126,Tielen,stop,,51.2419059,4.8943966
node/1734076031,Evere,stop,,50.8671448,4.4004078
node/1734076099,Evere,stop,,50.868449,4.4015239
node/1734089592,Meiser,stop,,50.8551319,4.3942169
node/1749738479,Tollembeek,stop,,50.7352271,3.993349
node/1782729462,Izegem,station,LZG,50.9211098,3.2145318
node/1784914732,Ottignies,stop,,50.6739467,4.5682661
node/1788949044,Moustier,stop,,50.4528725,4.6947597
node/1788955755,Flawinne,stop,,50.4562783,4.8052943
node/1788955764,Ronet,stop,,50.4583713,4.8296062
node/1788955769,Floreffe,stop,,50.4431887,4.7622252
node/1788955776,Franière,stop,,50.4397127,4.7334556
node/1793345123,Bordet,stop,,50.8772861,4.4095222
node/1793345132,Bordet,stop,,50.8772735,4.4095714
node/1795446270,Terhagen,stop,,50.9012502,3.895658
node/1795552819,Bambrugge,stop,,50.9136856,3.9357498
node/1806838747,Noorderkempen,stop,,51.357221,4.6329145
node/1806843035,Noorderkempen,stop,,51.3571127,4.6331554
node/1813901287,Flawinne,stop,,50.4562066,4.8053016
node/1828330595,Paliseul,stop,,49.8951515,5.118779
node/1831553355,Weerde,stop,,50.977956,4.4720505
node/1831553396,Weerde,stop,,50.9779454,4.4721177
node/1831555556,Hofstade,stop,,50.988545,4.4984649
node/1832176503,Eppegem,stop,,50.9585849,4.4578016
node/1832176505,Eppegem,stop,,50.9585971,4.4577567
node/1832282244,Vilvoorde,stop,,50.9245714,4.4329913
node/1832282245,Vilvoorde,stop,,50.9245192,4.433179
node/1832282246,Vilvoorde,stop,,50.9245303,4.4331305
node/1832282248,Vilvoorde,stop,,50.9244816,4.4333206
node/1832681499,Kontich-Lint,stop,,51.1339664,4.4767955
node/1833121227,Mortsel,stop,,51.1829753,4.4486836
node/1860776516,Rochefort-Jemelle,stop,,50.1602792,5.2666684
node/1860776517,Rochefort-Jemelle,stop,,50.1602199,5.2670488
node/1860776519,Rochefort-Jemelle,stop,,50.1603193,5.2665042
node/1860776520,Rochefort-Jemelle,stop,,50.1602143,5.2671033
node/1861290386,Forrières,stop,,50.1323822,5.2766679
node/1862653064,Libramont,stop,,49.9198921,5.3793921
node/1862681624,Poix Saint-Hubert,stop,,50.0193948,5.2926693
node/1867686380,Erbisœul,stop,,50.5071804,3.8879328
node/1867686436,Ghlin,stop,,50.4874998,3.9063478
node/1874680052,Paradis,stop,,50.405207,4.3375391
node/1904524217,Beringen,stop,,51.0502283,5.2365868
node/1925200486,Delacroix,stop,,50.8455634,4.323732
node/1934322007,Courrière,stop,,50.3889951,4.9951612
node/1935321253,Piges,stop,,50.41556,4.4366924
node/1935424881,Pétria,stop,,50.4060935,4.3121192
node/1935424882,Pétria,stop,,50.4061797,4.311335
node/1936802810,Neufchâteau,stop,,49.854181,5.4525339
node/1944381534,Bruxelles-Central - Brussel-Centraal,stop,,50.8450945,4.3570447
node/1944381542,Bruxelles-Central - Brussel-Centraal,stop,,50.8451457,4.3568971
node/1944381547,Bruxelles-Central - Brussel-Centraal,stop,,50.8451696,4.3568269
node/1944381550,Bruxelles-Central - Brussel-Centraal,stop,,50.8452476,4.3566089
node/1944381554,Bruxelles-Central - Brussel-Centraal,stop,,50.8452248,4.3566802
node/1944381585,Bruxelles-Central - Brussel-Centraal,stop,,50.8453011,4.3564653
node/1944410159,Bruxelles-Congrès - Brussel-Congres,stop,,50.851822,4.3627141
node/1944410162,Bruxelles-Congrès - Brussel-Congres,stop,,50.8518689,4.3625662
node/1958825571,Uccle-Calevoet - Ukkel-Kalevoet,stop,,50.791886,4.3320007
node/1958834052,Uccle-Stalle - Ukkel-Stalle,stop,,50.8023086,4.3239158
node/1958834062,Uccle-Stalle - Ukkel-Stalle,stop,,50.8022987,4.3238709
node/1958841506,Forest-Est - Vorst-Oost,stop,,50.8093547,4.3206379
node/1977413037,Weerde,stop,,50.9774403,4.470712
node/1984334965,Langdorp,stop,,51.002493,4.8636649
node/1996609828,Landelies,stop,,50.3773513,4.35057
node/2026788271,Villers-la-Ville,stop,,50.5778954,4.5340174
node/2033131286,Habay,halt,MHB,49.7181097,5.6327136
node/2041607070,Courcelles-Motte,stop,,50.4633247,4.4009165
node/2077964687,Péruwelz,stop,,50.5136111,3.5918607
node/2077994093,Callenelle,halt,FCA,50.5302405,3.5205581
node/2078764164,Neerpelt,station,LNP,51.2218575,5.4372387
node/2101668768,Simonis,station,,50.8631917,4.330489
node/2139128263,Tienen,stop,,50.8078174,4.9259914
node/2139128524,Tienen,stop,,50.8076888,4.9257767
node/2150122716,La Roche,stop,,50.610491,4.5396815
node/2150122726,Faux,stop,,50.6212739,4.5486705
node/2165827962,Eichem,halt,FIC,50.8241716,3.9939848
node/2165827963,Idegem,halt,FID,50.8013874,3.9203974
node/2177561063,Diest,stop,,50.9935066,5.0501489
node/2182273532,Genly,stop,,50.3914986,3.9111709
node/2187296562,Halle,stop,,50.7340627,4.2410628
node/2187296563,Halle,stop,,50.7340869,4.2410133
node/2187296564,Halle,stop,,50.7341455,4.2408821
node/2187296565,Halle,stop,,50.7341686,4.2408368
node/2187337528,Halle,stop,,50.7342258,4.2407208
node/2187460463,Buizingen,stop,,50.7513515,4.2583879
node/2187460489,Buizingen,stop,,50.7513962,4.2582717
node/2188685450,Huizingen,stop,,50.751632,4.2653345
node/2189161494,Waterloo,stop,,50.4170234,4.4509137
node/2193100816,Moensberg,stop,,50.7794596,4.3334988
node/2194177663,Saint-Job - Sint-Job,stop,,50.7938478,4.3611891
node/2194184890,Vivier d'Oie - Diesdelle,stop,,50.7959932,4.3720056
node/2194246650,Boondael - Boondaal,stop,,50.8021409,4.3936795
node/2194246693,Boondael - Boondaal,stop,,50.8021329,4.3937273
node/2194268136,Arcades - Arcaden,stop,,50.8095919,4.3983152
node/2194329373,Delta,stop,,50.8188281,4.4039824
node/2194329377,Delta,stop,,50.8188029,4.4041042
node/2194343998,Delta,stop,,50.8181503,4.4039281
node/2194362683,Watermael - Watermaal,station,FW,50.8085093,4.4001819
node/2194362765,Watermael - Watermaal,stop,,50.8083975,4.4003405
node/2194692709,Merode,stop,,50.8388924,4.4000165
node/2203063084,Germoir - Mouterij,stop,,50.8302076,4.3794796
node/2203071195,Neufvilles,stop,,50.5433305,4.0104164
node/2203516807,Genval,stop,4,50.7255511,4.5151567
node/2203516817,La Hulpe,stop,3,50.7383431,4.4972075
node/2203525892,La Hulpe,station,ML,50.7382901,4.4970994
node/2203525893,Profondsart,halt,LPF,50.6995037,4.5455429
node/2203525894,Rixensart,stop,1,50.713011,4.5314275
node/2210554382,Ottignies,stop,,50.6739624,4.5684964
node/2210554393,Ottignies,stop,,50.6740583,4.5689005
node/2210554408,Ottignies,stop,,50.6742271,4.5694665
node/2210554412,Ottignies,stop,,50.6741406,4.5690198
node/2210554413,Ottignies,stop,,50.6740472,4.5688487
node/2210554416,Ottignies,stop,,50.6741912,4.5692903
node/2210554421,Ottignies,stop,,50.6742005,4.5693322
node/2211614601,Nismes,halt,LIN,50.0845804,4.5576227
node/2211749729,Farciennes,stop,,50.429185,4.5526403
node/2212795808,Mont-Saint-Guibert,stop,,50.638146,4.6129829
node/2212818366,Court-Saint-Étienne,stop,,50.6470617,4.566145
node/2212818419,Céroux-Mousty,stop,,50.6603042,4.5691662
node/2214726583,Le Campinaire,stop,,50.4238903,4.5431173
node/2218661552,Blanmont,stop,,50.620257,4.6359114
node/2218661555,Chastre,stop,,50.6078435,4.6498311
node/2218661559,Ernage,stop,,50.5920374,4.6675821
node/2218661637,Blanmont,stop,,50.6202368,4.6358682
node/2228915098,Céroux-Mousty,stop,,50.6594248,4.5690715
node/2235412281,Herentals,station,FHT,51.1809816,4.828734
node/2235412366,Herentals,stop,,51.1809559,4.8276247
node/2248781735,Essen,stop,,51.4626838,4.4511968
node/2287056237,Sclessin,stop,,50.6112619,5.5539861
node/2291455701,Schellebelle,stop,,51.0030496,3.9199918
node/2291455715,Schellebelle,stop,,51.0031071,3.919981
node/2291455733,Schellebelle,stop,,51.0031392,3.919989
node/2295808117,Lonzée,stop,,50.551819,4.7203249
node/2295865762,Groenendaal,stop,,50.7665723,4.4480735
node/2295982879,Rhisnes,stop,,50.4992247,4.8018443
node/2295982963,Beuzet,stop,,50.534382,4.7479097
node/2305889923,Frameries,stop,,50.4057539,3.9064683
node/2318036035,Waremme,stop,,50.6943603,5.2500208
node/2332079867,Eupen,stop,2,50.6350905,6.0389139
node/2340145621,Houyet,stop,3,50.1906776,5.005865
node/2340150047,Carlsbourg,stop,,49.9073564,5.0873962
node/2340169741,Hony,stop,,50.5400383,5.573802
node/2340170715,Poulseur,stop,,50.5092289,5.5787044
node/2340183068,Marloie,stop,,50.2022944,5.3135144
node/2340186535,Grupont,stop,,50.0907122,5.2807409
node/2340186956,Aye,stop,,50.2244018,5.3010867
node/2343212512,Tilff,station,MTF,50.570522,5.583679
node/2344399208,Wetteren,stop,,51.0015336,3.8820863
node/2344399210,Wetteren,stop,,51.0015651,3.8820651
node/2344494402,Merelbeke,stop,,51.0200683,3.7646116
node/2344494404,Merelbeke,stop,,51.020092,3.7646481
node/2344494407,Merelbeke,stop,,51.0201602,3.7647649
node/2353348182,Melle,stop,,51.0026167,3.7972689
node/2353373119,Melle,stop,,51.0025959,3.7972304
node/2353396269,Kwatrecht,stop,,50.9917277,3.8285503
node/2353396288,Kwatrecht,stop,,50.9917631,3.8285561
node/2355094640,Gent-Sint-Pieters,stop,,51.0356366,3.7104576
node/2355094668,Gent-Sint-Pieters,stop,,51.0359705,3.7106415
node/2355231697,Gent-Sint-Pieters,stop,,51.0355319,3.710396
node/2365572748,Hombourg (History Park),station,,50.7234085,5.9128064
node/2365928002,Visé,station,FVS,50.739208,5.6922541
node/2368465586,Alma,station,,50.8496906,4.4528546
node/2385589460,Soleilmont,stop,,50.4305883,4.5027778
node/2387890426,Ville-Pommerœul,stop,,50.4645891,3.7243902
node/2423044041,Schulen,stop,,50.9641229,5.1855257
node/2423044055,Schulen,stop,,50.9641544,5.1855421
node/2430011432,Landen,stop,,50.7479028,5.0797221
node/2430011825,Landen,stop,,50.7477117,5.0795881
node/2430011833,Landen,stop,,50.7477964,5.0796509
node/2430011837,Landen,stop,,50.7478268,5.0796725
node/2430011845,Landen,stop,,50.7479339,5.0797458
node/2457214029,Mons,stop,,50.4539625,3.9421831
node/2480347498,Pry,halt,PRY,50.2692544,4.4290252
node/2510577796,Heusden,stop,,51.03833,5.2808042
node/2540120495,Welkenraedt,station,GWK,50.6596575,5.9754899
node/2540120496,Welkenraedt,stop,,50.6593926,5.9755368
node/2577070027,Silly,stop,,50.6627641,3.9361934
node/2578315160,Vertrijk,stop,,50.8360633,4.835331
node/2588150725,Philippeville,stop,,50.1902853,4.5351356
node/2655542491,Yves-Gomezée,stop,,50.2370014,4.5006756
node/2661395840,Beignée,stop,,50.3332377,4.4065754
node/2661395847,Berzée,stop,,50.2860301,4.4053497
node/2661395856,Cour-sur-Heure,stop,,50.3007459,4.3919545
node/2663744947,Jamioulx,halt,GJ,50.3528342,4.4114464
node/2663751169,Leman,stop,,50.5999492,5.4678953
node/2711358661,Lembeek,stop,,50.7136953,4.2201073
node/2775980334,Hamont,stop,,51.2461293,5.5423541
node/2792396885,Huy,stop,,50.5271808,5.233607
node/2792399731,Huy,stop,,50.526884,5.2330737
node/2794332227,Huy,stop,,50.5275393,5.2340334
node/2794357032,Ampsin,stop,,50.5393317,5.2900332
node/2794357043,Ampsin,stop,,50.5392964,5.2900383
node/2794369322,Amay,stop,,50.5458599,5.3205028
node/2794369330,Amay,stop,,50.5461832,5.320971
node/2794457317,Haute-Flone,stop,,50.5541263,5.3311433
node/2794457320,Haute-Flone,stop,,50.5541471,5.3310976
node/2794970281,Jemeppe-sur-Meuse,stop,,50.6186661,5.4985631
node/2794970347,Flémalle-Grande,stop,,50.6049574,5.4802527
node/2798123200,Engis,stop,,50.58286,5.4028386
node/2798124624,Engis,stop,,50.5828942,5.4028167
node/2798185116,Flémalle-Haute,stop,,50.5946705,5.4564077
node/2798191744,Flémalle-Haute,stop,,50.5945995,5.4564679
node/2798192918,Flémalle-Haute,stop,,50.5947661,5.456301
node/2798196599,Flémalle-Haute,stop,,50.5945694,5.4564908
node/2798284156,Leman,stop,,50.5999174,5.4679261
node/2798290091,Flémalle-Grande,stop,,50.6048974,5.4803157
node/2798310559,Jemeppe-sur-Meuse,stop,,50.618634,5.498586
node/2798332387,Statte,stop,,50.5278718,5.2206862
node/2798384034,Statte,stop,,50.5281071,5.219502
node/2798403917,Statte,stop,,50.5281453,5.2195372
node/2798405992,Bas Oha,stop,,50.5232294,5.1922328
node/2798408492,Bas Oha,stop,,50.5232047,5.1922738
node/2798412645,Statte,stop,,50.5280499,5.2194471
node/2809394678,Andenne,stop,,50.4968165,5.0957812
node/2809394695,Château de Seilles,stop,,50.4972254,5.0820243
node/2809997462,Namêche,stop,,50.4700564,4.9974727
node/2810041566,Sclaigneaux,stop,,50.4921852,5.0265089
node/2810043014,Namêche,stop,,50.4700259,4.9974906
node/2810508742,Marche-les-Dames,stop,,50.4806505,4.965468
node/2821888038,Etterbeek,stop,,50.8217972,4.3897795
node/2821888039,Etterbeek,stop,,50.8218974,4.3900123
node/2821888075,Germoir - Mouterij,stop,,50.8302483,4.3795772
node/2825103548,Luttre,stop,,50.5060774,4.3837903
node/2825103552,Luttre,stop,,50.5060479,4.3837738
node/2825103561,Luttre,stop,,50.5061508,4.3838556
node/2825150134,Luttre,stop,,50.5059761,4.3837151
node/2825231749,Obaix-Buzet,stop,,50.5355806,4.3636232
node/2833921322,Pont-à-Celles,stop,,50.5129175,4.3618368
node/2833922969,Gouy-Lez-Piéton,stop,,50.4967733,4.3254016
node/2840581070,Cambron-Casteau,stop,,50.5870157,3.8738841
node/2887030643,Waremme,stop,,50.6943916,5.2500318
node/2895305956,Familleureux,stop,,50.5192007,4.2120345
node/2895309804,Écaussinnes,stop,,50.5621772,4.1568429
node/2895309815,Écaussinnes,stop,,50.5621203,4.1567493
node/2904094798,Braine-l'Alleud,stop,,50.6844219,4.3757727
node/2929614444,Brugge,station,FR,51.1969806,3.2172409
node/2937490727,Bilzen,stop,,50.8685159,5.5093156
node/2937540462,Diepenbeek,stop,,50.9108354,5.4192772
node/2937797846,Alken,stop,,50.8867681,5.2924588
node/2938517757,Sint-Truiden,stop,,50.8172613,5.1757715
node/2938517758,Sint-Truiden,stop,,50.8173055,5.175685
node/2940961494,Neerwinden,stop,,50.7637432,5.0355277
node/2940961936,Ezemaal,stop,,50.7713989,4.9952683
node/2940961937,Ezemaal,stop,,50.7714189,4.9953074
node/2959833649,Harelbeke,halt,FHL,50.8562081,3.3145195
node/2960298020,Belsele,stop,,51.1505811,4.0877
node/2960298021,Sinaai,stop,,51.1433937,4.068569
node/2979655032,Herseaux - Herzeeuw,stop,,50.7165003,3.2403943
node/2979656537,Herseaux - Herzeeuw,stop,,50.7139029,3.2455713
node/2980057792,Blankenberge,stop,,51.3120005,3.1339
node/2980057793,Blankenberge,stop,,51.3120172,3.1339404
node/2980057795,Blankenberge,stop,,51.3120787,3.134067
node/2980057797,Blankenberge,stop,,51.3120958,3.1341073
node/2980057800,Blankenberge,stop,,51.3121545,3.1342315
node/2980057801,Blankenberge,stop,,51.312176,3.1342682
node/2980057804,Blankenberge,stop,,51.3122312,3.1344018
node/2981565075,Fraipont,stop,1,50.5650984,5.7236809
node/2981565076,Liège-Carré,stop,,50.6405381,5.5618765
node/2981565077,Nessonvaux,stop,1,50.5720434,5.7419399
node/2981565078,Pepinster,station,FPS,50.5681605,5.8063587
node/2981565079,Verviers-Palais,halt,GVO,50.5908024,5.8642865
node/2982447359,Bruxelles-Luxembourg - Brussel-Luxemburg,stop,,50.8381672,4.3738422
node/2982447360,Bruxelles-Luxembourg - Brussel-Luxemburg,stop,,50.8381958,4.3736804
node/2982447361,Bruxelles-Luxembourg - Brussel-Luxemburg,stop,,50.8382321,4.3734676
node/2982447362,Bruxelles-Schuman - Brussel-Schuman,stop,,50.8430524,4.3803346
node/2982447363,Herstal,stop,1,50.6607535,5.6229294
node/2982447364,Liers,stop,1,50.6981542,5.569257
node/2982447365,Liège-Saint-Lambert,stop,,50.646523,5.57093
node/2982447366,Milmort,stop,1,50.6932868,5.5996162
node/2982447408,Herstal,stop,2,50.6606705,5.6230116
node/2982615658,Auvelais,stop,,50.4491318,4.6311071
node/2982615659,Franière,stop,,50.439679,4.7334295
node/2982615660,Jemeppe-sur-Sambre,stop,,50.4514363,4.6637771
node/2982615662,Tamines,stop,,50.4325917,4.6098044
node/2982874234,Erbisœul,halt,FIU,50.5071308,3.8879277
node/2982874235,Hennuyères,stop,,50.651287,4.1764266
node/2982874236,Jurbise,stop,,50.5300564,3.9098985
node/2982874237,Masnuy-Saint-Pierre,stop,,50.5363728,3.9618277
node/2982874238,Neufvilles,stop,,50.5433575,4.0103809
node/2982874239,Tubize,stop,,50.6917638,4.2057814
node/2982874265,Jurbise,stop,,50.5301291,3.9097823
node/2982874266,Jurbise,stop,,50.5301576,3.9097379
node/2982874267,Jurbise,stop,,50.5302166,3.9096453
node/2982874478,Soignies,stop,,50.5731611,4.0693492
node/2983703987,Lissewege,stop,,51.2947418,3.19447
node/2983906118,Zeebrugge-Dorp,stop,,51.3263192,3.1942651
node/2984208636,Leuze,stop,,50.6005529,3.6166529
node/2984429257,Holleken,stop,,50.7671851,4.354561
node/2984429258,Lillois,stop,,50.6450289,4.3651636
node/2985104667,Heist,stop,,51.3338821,3.2391805
node/2985104668,Heist,stop,,51.3339131,3.2391695
node/2985114261,Duinbergen,stop,,51.338295,3.2636589
node/2985114266,Duinbergen,stop,,51.338329,3.2636547
node/2985126979,Knokke,stop,,51.3398956,3.2848231
node/2986092766,Assesse,stop,,50.368235,5.0224697
node/2986092767,Braibant,halt,MBRBT,50.3169377,5.0676289
node/2986092769,Ciney,stop,,50.2920333,5.0905146
node/2986092770,Courrière,stop,,50.3889848,4.995111
node/2986092771,Dave-Saint-Martin,stop,,50.4289417,4.8843143
node/2986092773,Jambes-Est,stop,,50.4548842,4.8802801
node/2986092774,Marbehan,stop,,49.727389,5.5397757
node/2986092775,Naninne,stop,,50.4195688,4.929883
node/2986092776,Neufchâteau,stop,,49.8542021,5.4525749
node/2986092777,Sart-Bernard,stop,,50.4064566,4.9492895
node/2986092778,Stockem,stop,,49.6909137,5.7675855
node/2986092779,Viville,stop,,49.6881769,5.7859291
node/2986201538,Arlon,stop,,49.6801372,5.8094098
node/2995963561,Quévy,stop,,50.341358,3.9094834
node/2999261280,Fontaine,stop,,50.406479,4.3272086
node/2999261281,Fontaine,stop,,50.4067649,4.3266376
node/2999261282,Paradis,stop,,50.4052761,4.338792
node/2999261287,Gazomètre,stop,,50.4220739,4.4744691
node/2999261293,Soleilmont,stop,,50.4302304,4.5023184
node/2999261303,Morgnies,stop,,50.4042513,4.3647689
node/2999261315,Leernes,stop,,50.4015239,4.3476028
node/2999261316,Leernes,stop,,50.4018568,4.3465317
node/2999261320,De Cartier,stop,,50.4071945,4.395883
node/2999261321,De Cartier,stop,,50.407027,4.3954108
node/2999261322,Moulin,stop,,50.4085501,4.3878931
node/2999261323,Moulin,stop,,50.4086744,4.3866769
node/3004720224,Jambes,stop,,50.4545888,4.8759612
node/3004722710,Jambes,stop,,50.4522319,4.8739177
node/3005140314,Merchtem,stop,,50.9540986,4.2234926
node/3005140315,Mollem,stop,,50.9326646,4.2163196
node/3005140316,Opwijk,stop,,50.9747486,4.1871912
node/3005140320,Zellik,stop,,50.8893484,4.275627
node/3005140412,Jette,stop,,50.8808789,4.3281844
node/3005610525,Comines - Komen,station,FOI,50.7717486,2.9985049
node/3005846928,Brugge,stop,,51.1968229,3.216942
node/3005846929,Brugge,stop,,51.1968419,3.2169857
node/3005847037,Brugge,stop,,51.1968928,3.2171544
node/3005847039,Brugge,stop,,51.1969105,3.217202
node/3005847040,Brugge,stop,,51.1969654,3.217364
node/3005847041,Brugge,stop,,51.1970281,3.2175514
node/3005847044,Brugge,stop,,51.1969805,3.2174117
node/3005847045,Brugge,stop,,51.1970446,3.2176003
node/3005847053,Brugge,stop,,51.1970927,3.2177431
node/3006758738,Boortmeerbeek,stop,,50.9819652,4.5737577
node/3006758739,Wijgmaal,stop,,50.9227354,4.7014475
node/3006758771,Haacht,stop,,50.9661126,4.6137744
node/3008600093,Bomal,stop,,50.377031,5.51945
node/3008600094,Comblain-la-Tour,stop,,50.456643,5.5670946
node/3008600095,Esneux,stop,,50.5304858,5.5728086
node/3008600096,Hamoir,stop,,50.4287923,5.5338992
node/3008600097,Hony,stop,,50.5400513,5.5737558
node/3008600098,Melreux-Hotton,stop,,50.2842837,5.4408964
node/3008600099,Méry,stop,,50.5479611,5.5871507
node/3008600100,Rivage,stop,,50.4861744,5.5854923
node/3008600101,Sy,stop,,50.4031543,5.5237443
node/3008600102,Tilff,stop,,50.5705398,5.5836772
node/3008600845,Bomal,stop,,50.3770494,5.5193351
node/3008910191,Zedelgem,stop,,51.1262651,3.1633684
node/3009180547,Torhout,stop,,51.0648193,3.105764
node/3009180548,Torhout,stop,,51.0648226,3.1057116
node/3009257603,Lichtervelde,station,FLC,51.0252191,3.1268061
node/3009257607,Lichtervelde,stop,,51.0249663,3.1268683
node/3009257609,Lichtervelde,stop,,51.0250389,3.1269621
node/3009257611,Lichtervelde,stop,,51.0250662,3.1269969
node/3009257612,Lichtervelde,stop,,51.0251206,3.1270745
node/3009257614,Lichtervelde,stop,,51.0251453,3.127109
node/3009321852,Courcelles-Motte,stop,,50.4633453,4.400729
node/3009557602,Kortemark,stop,,51.0252147,3.0446694
node/3009557605,Kortemark,stop,,51.0252487,3.0446657
node/3009628263,Diksmuide,stop,,51.0327529,2.8693374
node/3009628265,Diksmuide,stop,,51.0327762,2.8693007
node/3010310305,Veurne,stop,,51.0737903,2.6708625
node/3010401252,De Panne,stop,,51.0771661,2.6022159
node/3010401280,De Panne,stop,,51.0772566,2.6022391
node/3010401288,De Panne,stop,,51.0772899,2.6022335
node/3012017290,Chapelle-Dieu,stop,,50.5578731,4.6985647
node/3016060963,Beauraing,stop,,50.1146559,4.9567859
node/3016060964,Carlsbourg,stop,,49.907384,5.0874238
node/3016060965,Dinant,stop,,50.2611621,4.9078008
node/3016060966,Gedinne,stop,,49.9843149,4.9782448
node/3016060967,Gendron-Celles,stop,,50.2104513,4.964681
node/3016060968,Graide,stop,,49.9338556,5.0433701
node/3016060969,Paliseul,stop,,49.8951807,5.1188123
node/3016065907,Houyet,stop,1,50.1897976,5.0061221
node/3016066737,Dinant,stop,,50.2610981,4.9076487
node/3016096328,Marbehan,stop,,49.727359,5.5395895
node/3016212713,Aubange,stop,,49.5635407,5.7994154
node/3016212714,Halanzy,stop,,49.5559429,5.7427837
node/3016213128,Athus,stop,,49.5639319,5.8293232
node/3016213129,Athus,stop,,49.5639499,5.8292702
node/3016498434,Oostkamp,stop,,51.1543638,3.257303
node/3016498435,Oostkamp,stop,,51.1543921,3.2573345
node/3016522810,Beernem,stop,,51.1280982,3.3295508
node/3016522811,Beernem,stop,,51.1281301,3.3295703
node/3017838240,Maria-Aalter,stop,,51.1081302,3.385154
node/3017838241,Maria-Aalter,stop,,51.1081587,3.3851852
node/3017964141,Aalter,stop,,51.0919794,3.4486722
node/3017964146,Aalter,stop,,51.0920743,3.4487208
node/3017964148,Aalter,stop,,51.0921062,3.4487384
node/3017964154,Aalter,stop,,51.0922053,3.4487743
node/3017997389,Bellem,stop,,51.0834061,3.4887567
node/3017997390,Bellem,stop,,51.0834388,3.4887747
node/3018027619,Hansbeke,stop,,51.0730141,3.5367954
node/3018027628,Hansbeke,stop,,51.0734456,3.534647
node/3020130313,Landegem,stop,,51.0646661,3.5744688
node/3020130319,Landegem,stop,,51.0647623,3.5745228
node/3020130320,Landegem,stop,,51.0647961,3.5745418
node/3020130326,Landegem,stop,,51.064891,3.574599
node/3020164699,Drongen,stop,,51.0473262,3.6544194
node/3020164700,Drongen,stop,,51.0473576,3.6544384
node/3020301529,Gent-Sint-Pieters,stop,12,51.0350174,3.7101193
node/3022329193,De Pinte,stop,,50.9966525,3.6498298
node/3022329199,De Pinte,stop,,50.9966805,3.6498025
node/3022329219,De Pinte,stop,,50.9967665,3.6497183
node/3022329225,De Pinte,stop,,50.9967974,3.649693
node/3022628847,Deinze,stop,,50.978349,3.5364593
node/3022628848,Deinze,stop,,50.978381,3.5364399
node/3022646362,Deinze,stop,,50.9784775,3.5363895
node/3022646370,Deinze,stop,,50.9785199,3.5363717
node/3022675389,Deinze,stop,,50.9786112,3.5363288
node/3022977906,Aarsele,stop,,50.9844938,3.4183957
node/3022977908,Aarsele,stop,,50.9845276,3.4184014
node/3023042349,Tielt,stop,,50.9904227,3.3296658
node/3023042350,Tielt,stop,,50.9904515,3.3296436
node/3023548826,Roeselare,stop,,50.9492811,3.1302083
node/3023548827,Roeselare,stop,,50.949309,3.1304142
node/3023548828,Roeselare,stop,,50.9492865,3.130262
node/3023557446,Roeselare,station,FRL,50.9489228,3.1304614
node/3024680874,Izegem,stop,,50.9210928,3.2145573
node/3024680892,Izegem,stop,,50.9211265,3.2145496
node/3024905620,Ingelmunster,stop,,50.9138807,3.2554546
node/3024905621,Ingelmunster,stop,,50.9138876,3.2555105
node/3025340531,Bissegem,stop,,50.8261994,3.2253555
node/3025340532,Bissegem,stop,,50.8262311,3.2253355
node/3025463089,Wevelgem,stop,,50.8111533,3.1826692
node/3025463091,Wevelgem,stop,,50.8111809,3.1826381
node/3025813201,Menen,stop,,50.7994159,3.1138436
node/3025813202,Menen,stop,,50.7994399,3.1137992
node/3026019038,Wervik,stop,,50.7817979,3.0462994
node/3026019047,Wervik,stop,,50.781832,3.046298
node/3026108708,Comines - Komen,stop,,50.771792,2.9987259
node/3026108710,Comines - Komen,stop,,50.771823,2.9987084
node/3027436820,Ieper,stop,,50.8478444,2.8765489
node/3027763844,Poperinge,stop,,50.8542709,2.7377238
node/3027763925,Poperinge,stop,,50.8544187,2.7371621
node/3028253065,Waregem,station,FVG,50.8917047,3.4243419
node/3028256967,Waregem,stop,,50.8916768,3.4244119
node/3028256969,Waregem,stop,,50.8917133,3.4243921
node/3028256971,Waregem,stop,,50.8917812,3.4242763
node/3028463440,Harelbeke,stop,,50.8562692,3.3146254
node/3028463441,Harelbeke,stop,,50.8562915,3.3145866
node/3028787737,Kortrijk,stop,,50.8239685,3.2644629
node/3028787738,Kortrijk,stop,,50.8240082,3.2644579
node/3028787794,Kortrijk,stop,,50.8241079,3.2644455
node/3028787799,Kortrijk,stop,,50.8241436,3.2644411
node/3028797028,Kortrijk,stop,,50.8242507,3.2644314
node/3028797032,Kortrijk,stop,,50.8242836,3.264422
node/3028797573,Kortrijk,stop,,50.8243833,3.2644112
node/3028816903,Kortrijk,stop,,50.8244178,3.2644076
node/3034994967,Vichte,stop,,50.8335175,3.3923282
node/3034994972,Vichte,stop,,50.8335521,3.3923321
node/3037045127,Anzegem,stop,,50.8262663,3.4948988
node/3037045131,Anzegem,stop,,50.8263002,3.4949013
node/3039227213,Oudenaarde,stop,,50.8513385,3.6016962
node/3039227216,Oudenaarde,stop,,50.8513577,3.601656
node/3039227217,Oudenaarde,stop,,50.8514192,3.6015277
node/3039227219,Oudenaarde,stop,,50.8514405,3.6014854
node/3039227222,Oudenaarde,stop,,50.8515013,3.6013563
node/3044403249,Ronse - Renaix,stop,,50.7423567,3.6027116
node/3044774508,Zingem,stop,,50.9080695,3.6462906
node/3045929468,Munkzwalm,stop,,50.8755658,3.7325822
node/3045929470,Munkzwalm,stop,,50.8756001,3.7325885
node/3046159529,Zottegem,stop,,50.868933,3.8146003
node/3046159530,Zottegem,stop,,50.868937,3.814546
node/3046159531,Zottegem,stop,,50.8689463,3.8144183
node/3046159532,Zottegem,stop,,50.86891,3.8149204
node/3046159633,Zottegem,stop,,50.8689203,3.8147784
node/3046159634,Zottegem,stop,,50.8689262,3.8147275
node/3046387972,Wezemaal,stop,,50.9563711,4.7481016
node/3046489208,Balegem-Zuid,stop,,50.8992047,3.8066893
node/3046489221,Balegem-Zuid,stop,,50.9004804,3.8059066
node/3046508968,Balegem-Dorp,stop,,50.9187945,3.7921045
node/3046533554,Scheldewindeke,stop,,50.9374165,3.7777785
node/3046562506,Moortsele,stop,,50.9527802,3.7808698
node/3046562507,Moortsele,stop,,50.9527962,3.7808253
node/3046573770,Landskouter,stop,,50.9708268,3.7915362
node/3046573771,Landskouter,stop,,50.9708449,3.7914923
node/3046579581,Gontrode,stop,,50.9797236,3.8014048
node/3047301202,Merelbeke,station,FKR,51.0201762,3.7645867
node/3049051895,Lierde,stop,,50.815959,3.8268771
node/3049051897,Lierde,stop,,50.8159821,3.8269129
node/3057156677,Geraardsbergen,stop,,50.7702248,3.8717757
node/3057156680,Geraardsbergen,stop,,50.7701844,3.8719597
node/3057156682,Geraardsbergen,stop,,50.7702142,3.8718221
node/3057166546,Geraardsbergen,stop,,50.7702587,3.8716271
node/3057179171,Geraardsbergen,stop,A,50.7694707,3.8717668
node/3057656507,Viane-Moerbeke,stop,,50.7519526,3.9166548
node/3057760095,Galmaarden,stop,,50.7436062,3.9663766
node/3057808111,Tollembeek,stop,,50.7361527,3.99109
node/3057852457,Herne,stop,,50.724349,4.0135355
node/3057943523,Enghien - Edingen,stop,,50.6972419,4.0467752
node/3057943525,Enghien - Edingen,stop,,50.6972721,4.0467985
node/3057943531,Enghien - Edingen,stop,,50.6973426,4.0468531
node/3057943532,Enghien - Edingen,stop,,50.6973728,4.0468765
node/3057943539,Enghien - Edingen,stop,,50.697449,4.0469343
node/3059214107,Schendelbeke,stop,,50.7979774,3.8999416
node/3059214110,Schendelbeke,stop,,50.7980086,3.8999241
node/3059293641,Idegem,stop,,50.8013631,3.9203829
node/3059293644,Idegem,stop,,50.8013934,3.9203625
node/3059355799,Zandbergen,stop,,50.806935,3.9571003
node/3059355804,Zandbergen,stop,,50.8069685,3.9570967
node/3060839077,Eichem,stop,,50.8244319,3.9944547
node/3060839078,Eichem,stop,,50.8244604,3.9944213
node/3064987350,Ninove,stop,,50.8394304,4.0260947
node/3064987353,Ninove,stop,,50.8394636,4.0260817
node/3065034188,Okegem,stop,,50.8569274,4.0539769
node/3065034189,Okegem,stop,,50.8569399,4.0539272
node/3065081553,Iddergem,stop,,50.8774986,4.06904
node/3065081554,Iddergem,stop,,50.8775143,4.0689927
node/3067695107,Hillegem,stop,,50.891255,3.8573203
node/3067700479,Herzele,stop,,50.8970248,3.8799172
node/3069285564,Terhagen,stop,,50.901785,3.8972229
node/3069307190,Burst,stop,,50.9067753,3.9205898
node/3069307196,Burst,stop,,50.9068674,3.9205642
node/3070556772,Vijfhuizen,stop,,50.9433404,3.9830879
node/3070612638,Aalst-Kerrebroek,halt,FLSKB,50.9482577,4.0248473
node/3070612643,Aalst-Kerrebroek,stop,,50.9482248,4.0245101
node/3070796182,Ede,stop,,50.9110491,3.9881243
node/3070893206,Haaltert,stop,,50.9068688,4.0235712
node/3070914710,Welle,stop,,50.902987,4.0510837
node/3070914711,Welle,stop,,50.9030175,4.0511082
node/3071006094,Denderleeuw,stop,,50.8916576,4.071787
node/3071006095,Denderleeuw,stop,,50.8916834,4.0718267
node/3071006097,Denderleeuw,stop,,50.8917909,4.0719794
node/3071007612,Denderleeuw,stop,,50.8915581,4.0716237
node/3071007613,Denderleeuw,stop,,50.891585,4.0716609
node/3071009332,Denderleeuw,stop,,50.8913705,4.0713865
node/3071023410,Denderleeuw,stop,,50.8917651,4.0719385
node/3075491580,Fontaine-Valmont,stop,,50.3211733,4.2128813
node/3075491581,Labuissière,stop,,50.3162524,4.1863458
node/3075491582,Lobbes,stop,,50.3461347,4.2617024
node/3075491583,Solre-sur-Sambre,stop,,50.3127412,4.1581723
node/3075491584,Thuin,stop,,50.342513,4.2883992
node/3075492281,Hourpes,stop,,50.3648835,4.3085646
node/3075505317,Erquelinnes-Village,stop,,50.3099457,4.1308619
node/3077234541,Erembodegem,stop,,50.9196933,4.055364
node/3077473634,Aalst,stop,,50.9432177,4.0394634
node/3077483277,Aalst,stop,,50.9430758,4.0392954
node/3077483278,Aalst,stop,,50.9431053,4.0393306
node/3077489491,Aalst,stop,,50.9428784,4.0390731
node/3077489495,Aalst,stop,,50.942963,4.0391619
node/3077489496,Aalst,stop,,50.9429941,4.039195
node/3079282528,Lede,stop,,50.9706454,3.9856873
node/3079282529,Lede,stop,,50.9706715,3.9857196
node/3079308905,Serskamp,stop,,50.984783,3.9590795
node/3079308906,Serskamp,stop,,50.9848054,3.9591186
node/3084588309,Wetteren,station,FVT,51.0016172,3.8824487
node/3087867922,Houraing,stop,,50.7033954,3.8353388
node/3087867923,Papignies,stop,,50.6867062,3.8235481
node/3087867924,Rebaix,stop,,50.6615849,3.7939227
node/3087911880,Lens,stop,,50.5590778,3.903365
node/3088283352,Wichelen,stop,,51.0018438,3.9702711
node/3088283356,Wichelen,stop,,51.0018791,3.9702688
node/3088374639,Schoonaarde,stop,,51.0031568,4.0115012
node/3088374640,Schoonaarde,stop,,51.0031858,4.0114746
node/3088404625,Oudegem,stop,,51.0149535,4.0635409
node/3088404627,Oudegem,stop,,51.0149874,4.0635198
node/3089188022,Dendermonde,stop,,51.0228016,4.1008087
node/3089188023,Dendermonde,stop,,51.0228335,4.1007907
node/3089188024,Dendermonde,stop,,51.0229259,4.1007357
node/3089188026,Dendermonde,stop,,51.0229592,4.1007196
node/3089191865,Dendermonde,stop,,51.0224381,4.1010143
node/3089197168,Dendermonde,stop,,51.0226733,4.1008753
node/3089197169,Dendermonde,stop,,51.0227051,4.1008541
node/3089202936,Dendermonde,stop,,51.0225528,4.1009494
node/3089202937,Dendermonde,stop,,51.0225815,4.1009332
node/3089559350,Sint-Gillis,stop,,51.0211267,4.1184593
node/3089559351,Sint-Gillis,stop,,51.0211422,4.1185025
node/3089661084,Zele,stop,,51.0731988,4.0420072
node/3089661085,Zele,stop,,51.0732306,4.0420465
node/3089833894,Lokeren,stop,,51.1075183,3.986358
node/3089833895,Lokeren,stop,,51.1075459,3.9863271
node/3091058051,Beervelde,stop,,51.0870444,3.8792364
node/3091058063,Beervelde,stop,,51.0873596,3.8808488
node/3091116156,Beervelde,station,FVB,51.087163,3.8798459
node/3092966624,Gent-Dampoort,stop,,51.0556003,3.7406744
node/3092966625,Gent-Dampoort,stop,,51.0556186,3.7408344
node/3093143499,Gentbrugge,stop,,51.0388023,3.7560563
node/3093143500,Gentbrugge,stop,,51.0388199,3.7561058
node/3097944169,Evergem,stop,,51.1070902,3.7022881
node/3099084869,Eeklo,stop,,51.1807528,3.575264
node/3099104651,Eeklo Oostveld,stop,,51.1831055,3.5725771
node/3099162495,Balgerhoeke,halt,FBH,51.2039025,3.5175434
node/3099231464,Maldegem,stop,,51.2047977,3.446535
node/3100467146,Baasrode-Noord,station,LDR,51.0289212,4.1788083
node/3100499396,Sint-Amands,station,LSP,51.0515271,4.2067001
node/3100526909,Oppuurs,station,LPU,51.070282,4.2451806
node/3100553434,Puurs (Seinhuiskaai),halt,,51.0780191,4.2773363
node/3100806558,Baasrode-Zuid,stop,2,51.0193346,4.1543693
node/3100806560,Baasrode-Zuid,stop,,51.019366,4.1543769
node/3100840514,Buggenhout,stop,,51.0162622,4.2009824
node/3100840520,Buggenhout,stop,,51.0162988,4.2009874
node/3100943250,Malderen,stop,,51.0143906,4.2292955
node/3100943253,Malderen,stop,,51.0144374,4.2276249
node/3102004998,Londerzeel,stop,,51.0092305,4.2979978
node/3102005001,Londerzeel,stop,,51.0092628,4.2980056
node/3102090512,Kapelle-op-den-Bos,stop,,51.0108071,4.3591049
node/3102090515,Kapelle-op-den-Bos,stop,,51.0108425,4.3591016
node/3102597622,Willebroek,stop,,51.0664084,4.3561894
node/3102600339,Willebroek,stop,,51.0664411,4.3561952
node/3105726206,Groenendaal,stop,,50.7664395,4.4479639
node/3105726209,Groenendaal,stop,,50.7664684,4.4479922
node/3117331553,Theux,station,FTX,50.5362043,5.8150624
node/3146649980,Waterloo,stop,,50.4173296,4.4504454
node/3151587283,Samaritaine,stop,,50.419796,4.4609133
node/3151588751,Gilly,stop,,50.4235981,4.4791313
node/3151588755,Gilly,stop,,50.4239554,4.4799495
node/3175070997,Palais,stop,,50.4149252,4.4425282
node/3175071000,Samaritaine,stop,,50.4200924,4.4616608
node/3175071005,Gazomètre,stop,,50.4216824,4.473685
node/3194617430,Beringen,stop,,51.0502574,5.2366143
node/3195758390,Puurs,stop,,51.0772535,4.2832276
node/3195758399,Puurs,stop,,51.0771721,4.2831899
node/3223968040,Temse,stop,,51.1261379,4.2211974
node/3223968041,Temse,stop,,51.126147,4.2211178
node/3238538638,Braine-l'Alleud,stop,,50.6844002,4.3759944
node/3241612003,Heverlee,stop,,50.8623295,4.6950172
node/3244971384,Sint-Joris-Weert,stop,,50.8006355,4.6517129
node/3244971571,Oud-Heverlee,stop,,50.835491,4.6533604
node/3248201141,Oostende,stop,,51.2281509,2.9260391
node/3248201146,Oostende,stop,,51.2285827,2.9262636
node/3248201148,Oostende,stop,,51.2286127,2.926428
node/3248204057,Oostende,stop,,51.2285308,2.9260091
node/3248204058,Oostende,stop,,51.2285407,2.9260597
node/3248204059,Oostende,stop,,51.2285722,2.9262141
node/3248204060,Oostende,stop,,51.2286255,2.9264913
node/3265306432,Fleurus,stop,,50.482264,4.5439374
node/3265575037,Tilly,stop,,50.5576404,4.5523393
node/3265599232,Faux,stop,,50.6212543,4.5487123
node/3266042625,Évrehailles,halt,,50.333978,4.9308843
node/3266203405,Bruxelles-Central - Brussel-Centraal,station,FBCL,50.8454639,4.3569867
node/3327004794,Forchies,halt,LFC,50.4331671,4.3245404
node/3358586244,Verviers-Palais,stop,1,50.5908188,5.8642843
node/3370959173,Archennes,stop,,50.7541918,4.6624659
node/3370959174,Florival,stop,,50.7615513,4.6540679
node/3370959175,Gastuche,stop,,50.7364703,4.6499828
node/3370959176,Pécrot,stop,,50.7786661,4.651483
node/3392485194,Heist-op-den-Berg,station,GHO,51.0738368,4.7085994
node/3422370315,Villette,station,,50.4064521,4.4349532
node/3427853367,Begijnendijk,stop,,51.0220758,4.8003511
node/3472686259,Gare Centrale,stop,,50.4051241,4.4372473
node/3472686260,Gare Centrale,stop,,50.4052305,4.4365854
node/3484829966,Gent-Sint-Pieters,stop,,51.0351477,3.7101827
node/3541806031,Gare du Midi - Zuidstation,stop,,50.8362554,4.3384865
node/3558402318,Antwerpen-Centraal,stop,,51.2163426,4.4211138
node/3643225282,La Louvière-Centre,stop,,50.4780216,4.1806163
node/3724964726,Heide,station,MID,51.3647922,4.460573
node/3732211330,Aywaille,stop,,50.4728298,5.6728713
node/3732211376,Gouvy,stop,,50.189476,5.953716
node/3732216085,Vielsalm,stop,,50.2787473,5.9092877
node/3740352423,Palais,station,,50.4148326,4.4429532
node/3740435068,Basse-Wavre,stop,,50.7243617,4.6216905
node/3740481417,Meiser,stop,,50.8551302,4.3941645
node/3751806428,Tournai,stop,,50.612926,3.3968155
node/3751806429,Tournai,stop,,50.6129533,3.3968338
node/3751806430,Tournai,stop,,50.6130316,3.3968876
node/3751806431,Tournai,stop,,50.6131382,3.3969516
node/3756291385,Senenne,station,,50.3167819,5.0246512
node/3829787373,Gare du train à vapeur,station,,50.5851701,3.8849961
node/3833189777,Schaerbeek - Schaarbeek,station,FSR,50.878395,4.3784579
node/3887847332,Bruxelles-Luxembourg - Brussel-Luxemburg,station,LX,50.8382113,4.3736635
node/3887855857,Meiser,halt,MEI,50.8550938,4.3941906
node/3887858947,Linkebeek,halt,LKN,50.7736831,4.3394231
node/3907415823,Bierges-Walibi,stop,,50.7057229,4.5921354
node/3907415824,Limal,stop,,50.6916494,4.5755545
node/3951995378,Bleret,stop,,50.6855035,5.2850507
node/3975478437,Drongen,stop,,51.0472292,3.6543618
node/3992684949,Hôtel des Monnaies - Munthof,stop,,50.8334251,4.3494486
node/4019772510,Hergenrath,halt,REG,50.709035,6.0432248
node/4019798883,Welkenraedt,stop,,50.6593078,5.9755468
node/4019798886,Welkenraedt,stop,,50.659515,5.9755205
node/4019798887,Welkenraedt,stop,,50.6595473,5.9755171
node/4021608024,Dolhain-Gileppe,stop,1,50.6261649,5.9384537
node/4021608025,Franchimont,station,FRO,50.5255053,5.8224344
node/4021608027,Pepinster-Cité,halt,FPSC,50.5635615,5.8043459
node/4021608028,Theux,stop,,50.5362478,5.8151467
node/4021608029,Theux,stop,,50.536267,5.815197
node/4021608030,Spa,station,FSS,50.490188,5.8555278
node/4021608031,Spa-Géronstère,station,FSSG,50.4892744,5.8670106
node/4021608032,Verviers-Central,stop,,50.5875889,5.8541139
node/4072257233,,stop,,50.3262309,4.9781959
node/4107983284,Bruxelles-Schuman - Brussel-Schuman,stop,,50.8426809,4.3809224
node/4107983285,Bruxelles-Schuman - Brussel-Schuman,stop,,50.8427146,4.3809191
node/4161867158,Maffle,stop,,50.6148803,3.7992842
node/4209210889,Dolhain-Gileppe,halt,GDL,50.6261611,5.9384754
node/4211136007,Bruxelles-Midi - Brussel-Zuid,stop,,50.8360251,4.3346637
node/4211136008,Bruxelles-Midi - Brussel-Zuid,stop,,50.835629,4.3355301
node/4211136009,Bruxelles-Midi - Brussel-Zuid,stop,,50.8356013,4.335575
node/4211136010,Bruxelles-Midi - Brussel-Zuid,stop,,50.8352887,4.3362638
node/4211136011,Bruxelles-Midi - Brussel-Zuid,stop,,50.8352661,4.3363058
node/4211136012,Bruxelles-Midi - Brussel-Zuid,stop,,50.8360041,4.3347193
node/4211136013,Bruxelles-Midi - Brussel-Zuid,stop,,50.8352033,4.3364398
node/4211136014,Bruxelles-Midi - Brussel-Zuid,stop,,50.8351825,4.3364815
node/4211136016,Bruxelles-Midi - Brussel-Zuid,stop,,50.8359498,4.3348515
node/4211136017,Bruxelles-Midi - Brussel-Zuid,stop,,50.8358766,4.3349859
node/4211136018,Bruxelles-Midi - Brussel-Zuid,stop,,50.8358539,4.3350306
node/4232376084,Berchem-Sainte-Agathe - Sint-Agatha-Berchem,stop,,50.8727777,4.2902138
node/4232376085,Dilbeek,stop,,50.8660808,4.2458082
node/4232376086,Essene-Lombeek,stop,,50.8823839,4.1186046
node/4232376087,Groot-Bijgaarden,stop,,50.8683453,4.2739922
node/4232376088,Sint-Martens-Bodegem,stop,,50.8672709,4.2061857
node/4232376389,Ternat,stop,,50.8746711,4.1656118
node/4290859582,Antwerpen-Zuid,stop,,51.1974964,4.3909463
node/4299013619,Berzée,stop,,50.2851285,4.4066879
node/4299013620,Cour-sur-Heure,stop,,50.3007372,4.3920005
node/4299013627,Walcourt,stop,,50.2595466,4.4361381
node/4299013628,Walcourt,stop,,50.2595508,4.4360932
node/4299013677,Ham-sur-Heure,stop,,50.3200867,4.4049444
node/4299033903,Quiévrain,stop,,50.41027,3.6866132
node/4299033904,Quiévrain,stop,,50.4103108,3.6865906
node/4306334279,Cambron-Casteau,stop,,50.5860412,3.8757078
node/4333858840,Trois-Ponts,stop,,50.36919,5.8731716
node/4333858841,Trois-Ponts,station,FNO,50.3691636,5.8730278
node/4333879887,Spa,stop,,50.490199,5.8557006
node/4348294294,Habay,stop,,49.7181288,5.6327213
node/4360014928,Beersel,stop,,50.7669531,4.303036
node/4360014929,Beersel,stop,,50.766971,4.3029944
node/4369471740,Gouvy,stop,,50.1895238,5.9538209
node/4414707652,Gare de l'Ouest - Weststation,stop,,50.8489054,4.3208966
node/4414707660,Montgomery,stop,,50.837818,4.4067244
node/4414707683,Schuman,stop,,50.8429709,4.3811459
node/4414707916,De Brouckère,stop,,50.8495952,4.3528082
node/4419032119,Merode,stop,,50.8396117,4.3972892
node/4426891082,Gare Centrale - Centraal Station,stop,,50.8461665,4.3589342
node/4426921966,Pétillon,stop,,50.827304,4.4040128
node/4430895596,Mechelen,stop,,51.0174897,4.4845433
node/4430895597,Mechelen,stop,,51.0175113,4.4845065
node/4515409969,Drongen,stop,,51.0474549,3.6544915
node/4533096671,Pepinster,stop,1,50.5683548,5.8064417
node/4566092189,Liedekerke,stop,,50.8824953,4.0950321
node/4566092190,Liedekerke,stop,,50.8826145,4.0950297
node/4566092192,Liedekerke,stop,,50.882528,4.0950315
node/4594476893,Heverlee,stop,,50.8625021,4.6967196
node/4618293151,Parc - Park,stop,,50.845512,4.3616098
node/4618293165,Parc - Park,station,,50.8456068,4.3622545
node/4623339106,Essen,station,FES,51.4626799,4.45117
node/4623344474,Kalmthout,station,FKTH,51.3910924,4.466644
node/4623344475,Wildert,station,GWD,51.4276753,4.4634184
node/4623345362,Sint-Mariaburg,station,GSM,51.2907893,4.4351343
node/4623345363,Kijkuit,station,GKT,51.3791307,4.4673221
node/4623345562,Ekeren,station,LKR,51.2817684,4.434336
node/4625937939,Wildert,stop,,51.4276709,4.4633915
node/4625937940,Wildert,stop,,51.4276787,4.4634433
node/4626084237,Kalmthout,stop,,51.3906592,4.4667002
node/4626084261,Kalmthout,stop,,51.391992,4.4665687
node/4627228553,Kijkuit,stop,,51.3791248,4.4672975
node/4627228718,Kijkuit,stop,,51.3791245,4.4673492
node/4628106447,Heide,stop,,51.3637209,4.4600179
node/4628106448,Heide,stop,,51.3656857,4.4610282
node/4628378838,Kapellen,stop,,51.3151415,4.4336403
node/4628378839,Kapellen,stop,,51.3125229,4.4322789
node/4628471973,Sint-Mariaburg,stop,2,51.2907926,4.435159
node/4628471974,Sint-Mariaburg,stop,1,51.2907842,4.4351049
node/4630028371,Ekeren,stop,,51.2822862,4.434479
node/4630028372,Ekeren,stop,,51.2822806,4.4345331
node/4635996314,Antwerpen-Centraal,stop,,51.2163445,4.4213405
node/4635996315,Antwerpen-Centraal,stop,,51.2163757,4.4207864
node/4652618319,Sainte-Catherine - Sint-Katelijne,stop,,50.8525306,4.3475798
node/4652618331,Sainte-Catherine - Sint-Katelijne,stop,,50.8517485,4.3481001
node/4657152930,CERIA - COOVI,stop,,50.8164579,4.2902438
node/4657152946,Eddy Merckx,stop,,50.8165404,4.2813685
node/4657152970,CERIA - COOVI,stop,,50.8161398,4.289
node/4657152975,Eddy Merckx,stop,,50.8168625,4.2801153
node/4657395772,Erasme - Erasmus,stop,,50.8152265,4.2663954
node/4657395774,Erasme - Erasmus,stop,,50.8152455,4.2677602
node/4657499220,Jacques Brel,stop,,50.8433537,4.3178439
node/4657499226,Veeweyde - Veeweide,stop,,50.8290794,4.3004298
node/4657499234,Bizet,stop,,50.8246486,4.2965199
node/4659456710,La Roue - Het Rad,stop,,50.8214957,4.2942289
node/4659456713,La Roue - Het Rad,stop,,50.8207388,4.2936018
node/4660314069,Bizet,stop,,50.8251782,4.2975564
node/4663528287,Veeweyde - Veeweide,stop,,50.8298779,4.3008718
node/4663791874,Saint-Guidon - Sint-Guido,stop,,50.8346134,4.3050303
node/4663791875,Saint-Guidon - Sint-Guido,stop,,50.8353638,4.3056557
node/4665044941,Delacroix,stop,,50.8449884,4.3247366
node/4668276642,Aumale,stop,,50.8399542,4.3130066
node/4668276644,Aumale,stop,,50.8394067,4.3119765
node/4668276654,Jacques Brel,stop,,50.8441583,4.3182474
node/4668545287,Gare de l'Ouest - Weststation,stop,,50.849418,4.3215955
node/4668545288,Gare de l'Ouest - Weststation,stop,,50.848619,4.3211585
node/4668862175,Gare de l'Ouest - Weststation,stop,,50.8481137,4.3204065
node/4668862182,Gare de l'Ouest - Weststation,stop,,50.8488697,4.3210592
node/4669201726,Beekkant,stop,8743,50.8538848,4.3230182
node/4669201727,Beekkant,stop,,50.8538408,4.3232206
node/4669201734,Beekkant,stop,8744,50.8530041,4.322927
node/4672163955,Osseghem - Ossegem,stop,,50.8564827,4.3250418
node/4672163960,Osseghem - Ossegem,stop,,50.8573177,4.3253256
node/4672441873,Étangs Noirs - Zwarte Vijvers,stop,,50.8571071,4.3328557
node/4672441878,Étangs Noirs - Zwarte Vijvers,stop,,50.8570622,4.3315125
node/4674530181,Comte de Flandre - Graaf van Vlaanderen,stop,,50.8545822,4.3407782
node/4676912807,De Brouckère,stop,,50.8502512,4.3519509
node/4682150161,Gare Centrale - Centraal Station,stop,,50.8469251,4.3583472
node/4683178492,Arts-Loi - Kunst-Wet,stop,,50.8456821,4.3681565
node/4683178503,Arts-Loi - Kunst-Wet,stop,,50.8453933,4.3694371
node/4683653556,Arts-Loi - Kunst-Wet,stop,,50.8458921,4.3689679
node/4683653558,Arts-Loi - Kunst-Wet,stop,,50.8450998,4.3685224
node/4685261993,Maelbeek - Maalbeek,stop,,50.8436811,4.3776042
node/4685261994,Maelbeek - Maalbeek,stop,,50.8439868,4.3763346
node/4685567630,Schuman,stop,,50.8426829,4.3823337
node/4686808481,Thieffry,stop,,50.8333053,4.4017902
node/4687003301,Merode,stop,,50.8393131,4.3985583
node/4687124672,Montgomery,station,,50.837836,4.4075685
node/4687128522,Montgomery,stop,,50.8378397,4.408055
node/4689113746,Beaulieu,stop,,50.8151653,4.4089741
node/4689113752,Beaulieu,stop,,50.8150268,4.4103112
node/4690365592,Pétillon,stop,,50.8281408,4.4037497
node/4690599573,Hankar,stop,,50.8217153,4.4055643
node/4690599577,Hankar,stop,,50.820876,4.4053022
node/4695785309,Herrmann-Debroux,stop,,50.8121575,4.4280122
node/4695877582,Demey,stop,,50.8137265,4.4204111
node/4695877584,Demey,stop,,50.8132767,4.4215878
node/4696844431,Crainhem - Kraainem,stop,,50.8485254,4.4588338
node/4696844434,Crainhem - Kraainem,stop,,50.8492987,4.4582586
node/4697030007,Vandervelde,stop,,50.8473524,4.4464367
node/4697030014,Vandervelde,stop,,50.8475052,4.4477528
node/4697385078,Alma,stop,,50.8494097,4.4523477
node/4697385081,Alma,stop,,50.8499715,4.4533614
node/4697453574,Joséphine-Charlotte,stop,,50.8405759,4.4141538
node/4697453577,Joséphine-Charlotte,stop,,50.8399555,4.4132447
node/4697917013,Gribaumont,stop,,50.8423904,4.4178229
node/4697917016,Gribaumont,stop,,50.8425826,4.4191288
node/4698032757,Stockel - Stokkel,stop,,50.8416536,4.4643011
node/4698032758,Stockel - Stokkel,stop,,50.8425064,4.4639226
node/4699459649,Tomberg,stop,,50.8438613,4.4254062
node/4701737703,Roodebeek,stop,,50.8475477,4.4363749
node/4701737705,Roodebeek,stop,,50.8474215,4.4350284
node/4701795479,Gare de l'Ouest - Weststation,stop,,50.8458333,4.319284
node/4705271311,Trône - Troon,stop,,50.8408411,4.3662866
node/4705271315,Trône - Troon,stop,,50.8416526,4.366746
node/4709988058,Louise - Louiza,stop,,50.8354793,4.3550854
node/4709988065,Louise - Louiza,stop,,50.8350519,4.3539116
node/4731070084,Liers,stop,3,50.6982798,5.5692583
node/4745980143,Botanique - Kruidtuin,stop,,50.8541422,4.365108
node/4745980144,Botanique - Kruidtuin,stop,,50.8537666,4.366318
node/4772577027,Rogier,stop,,50.855669,4.3578885
node/4772577035,Rogier,stop,,50.8552385,4.3590757
node/4772610929,Rogier,station,,50.8555685,4.3580819
node/4772943719,Madou,stop,,50.8494533,4.3692266
node/4772943720,Madou,stop,,50.8504816,4.3689867
node/4784566847,Elisabeth,stop,,50.8632839,4.3304148
node/4784566852,Simonis,stop,,50.8635529,4.3308548
node/4788402465,Elisabeth,stop,,50.8628015,4.331569
node/4788662860,Ribaucourt,stop,,50.8602835,4.3403019
node/4788662862,Ribaucourt,stop,,50.860671,4.3390374
node/4791383039,Yser - IJzer,stop,,50.8571475,4.351969
node/4791383042,Yser - IJzer,stop,,50.8574539,4.3506602
node/4793334874,Thuin,halt,NTH,50.3425342,4.2884624
node/4807999088,Waterloo,station,,50.4172178,4.4506453
node/4807999089,Parc,station,,50.409434,4.4487945
node/4817814070,Porte de Namur - Naamsepoort,stop,,50.8380319,4.3611188
node/4817814071,Porte de Namur - Naamsepoort,stop,,50.8384909,4.3622674
node/4818893881,Bloc U,station,,50.658168,4.1018492
node/4818893882,Rognon,stop,,50.6519983,4.1066858
node/4818893883,Rognon,stop,,50.6519876,4.1066552
node/4832491972,Belgica,stop,,50.8687938,4.3371702
node/4872188811,Clemenceau,stop,,50.8415256,4.3304288
node/4872188818,Clemenceau,stop,,50.8408217,4.3312162
node/4874531564,Erquelinnes,stop,,50.3037261,4.1123575
node/4878030837,Gare du Midi - Zuidstation,stop,,50.8367039,4.3373314
node/4878787366,Gare du Midi - Zuidstation,station,,50.836539,4.3379305
node/4879977747,Hôtel des Monnaies - Munthof,stop,,50.8332589,4.3481169
node/4892413637,Porte de Hal - Hallepoort,stop,,50.8337178,4.3434074
node/4892413639,Porte de Hal - Hallepoort,stop,,50.8342669,4.3423574
node/4892514008,Porte de Hal - Hallepoort,station,,50.8339923,4.3428824
node/4902681745,Pannenhuis,station,,50.8735372,4.3429602
node/4902681749,Pannenhuis,stop,,50.8731696,4.3426027
node/4902681752,Pannenhuis,stop,,50.8739048,4.3433177
node/4945638138,Brugge,stop,,51.1967677,3.2167778
node/4946185364,Leuven,stop,,50.8814004,4.716137
node/4946768217,Gent-Sint-Pieters,stop,,51.0358698,3.7105841
node/4946768218,Gent-Sint-Pieters,stop,,51.0358029,3.7105519
node/4946768219,Gent-Sint-Pieters,stop,,51.0357005,3.7104916
node/4947299413,Lier,stop,,51.1359513,4.5603167
node/4947299415,La Louvière-Sud,stop,,50.4653073,4.1882871
node/4947299417,Mechelen,stop,,51.0178547,4.4837084
node/4947299418,Mechelen,stop,,51.0178363,4.4837464
node/4947299419,Mechelen,stop,,51.0177759,4.4838793
node/4949856477,La Louvière-Sud,stop,,50.4652097,4.188241
node/4949856517,Namur,stop,,50.4694935,4.8624978
node/4949857922,Froyennes,stop,,50.628716,3.3570999
node/4949857923,Saint-Ghislain,stop,,50.4426613,3.8192564
node/4949858022,Andenne,stop,,50.496851,5.0957765
node/4949858026,La Louvière-Sud,stop,,50.4653395,4.1882998
node/4949858027,Froyennes,stop,,50.6287423,3.3571376
node/4950592078,Tongeren,stop,,50.7841197,5.474128
node/4950773609,Saint-Ghislain,stop,,50.4424561,3.8194008
node/4951105804,Hasselt,stop,,50.930793,5.3268633
node/4951105805,Mol,stop,,51.1907101,5.1144664
node/4951649625,Mechelen-Nekkerspoel,stop,,51.0302249,4.490207
node/4951649844,Mortsel-Oude-God,stop,,51.1710459,4.4558134
node/4951649845,Essen,stop,,51.4626566,4.4509946
node/4953313946,Gent-Sint-Pieters,stop,,51.0354848,3.7103676
node/4953465158,Leuven,stop,,50.8814449,4.7163792
node/4953465159,Leuven,stop,,50.8814603,4.7165214
node/4953465160,Leuven,stop,,50.881469,4.7165723
node/4953465161,Leuven,stop,,50.8814906,4.7167234
node/4953465162,Heist-op-den-berg,stop,,51.0736166,4.7091611
node/4953465163,Heist-op-den-berg,stop,,51.0736441,4.7091926
node/4957300082,Vivier d'Oie - Diesdelle,stop,,50.7959617,4.3720094
node/4957300083,Saint-Job - Sint-Job,stop,,50.7938751,4.3611639
node/4958773365,Turnhout,stop,,51.3228692,4.9379383
node/4958868945,Uccle-Calevoet - Ukkel-Kalevoet,stop,,50.7918731,4.3319508
node/4958868946,Forest-Est - Vorst-Oost,stop,,50.8101048,4.3209491
node/4958869089,Mechelen-Nekkerspoel,stop,,51.0302241,4.4900453
node/4958869090,Mechelen-Nekkerspoel,stop,,51.0302247,4.4899912
node/4959662319,Buizingen,stop,,50.7513277,4.2584331
node/4960366051,La Louvière-Sud,stop,,50.4654346,4.1883402
node/4960366052,Thieu,stop,,50.4697735,4.0988331
node/4960402205,Wespelaar-Tildonk,stop,,50.9585481,4.6377227
node/4960402206,Wespelaar-Tildonk,stop,,50.9575837,4.639668
node/4962218100,Wavre,stop,,50.7162452,4.6050929
node/4962688611,Huizingen,stop,,50.7515994,4.265342
node/4962688612,Moensberg,stop,,50.7794865,4.3334703
node/4962688613,Haren,stop,,50.888694,4.419815
node/4964549324,Vilvoorde,stop,,50.9244675,4.4333698
node/4966521743,Mechelen,stop,,51.0177587,4.4839189
node/4966521744,Hofstade,stop,,50.9885156,4.4984874
node/4966521745,Arcades - Arcaden,stop,,50.809573,4.3983621
node/4966552041,Rixensart,stop,2,50.7129908,4.5313853
node/4966552043,Boitsfort - Bosvoorde,stop,,50.7950821,4.4078811
node/4966837009,Aalst,stop,,50.9431844,4.0394238
node/4966837010,Bruxelles-Ouest - Brussel-West,stop,,50.8503674,4.3219605
node/4966837011,Simonis,stop,,50.8635252,4.33119
node/4967653670,Gavere-Asper,stop,,50.9291129,3.6400253
node/4967653677,Wondelgem,stop,,51.0889135,3.7196042
node/4967772061,Saint-Denis Bovesse,stop,,50.5207885,4.7688077
node/4967780954,Gembloux,stop,,50.5706172,4.6914467
node/4967780962,Ernage,stop,,50.5920197,4.6675341
node/4967780967,Chastre,stop,,50.6078254,4.6497856
node/4968584786,Grupont,stop,,50.0907267,5.2806928
node/4968584787,Haversin,stop,,50.2491149,5.1943838
node/4968584788,Ciney,stop,,50.2919998,5.0903925
node/4968585572,Libramont,stop,,49.9197778,5.3791997
node/4968585573,Libramont,stop,,49.9197999,5.3792414
node/4968585579,Libramont,stop,,49.9198678,5.3793538
node/4968944671,Bertrix,stop,,49.8523655,5.2679902
node/4969738513,Lokeren,stop,,51.1076294,3.9862401
node/4969738514,Lokeren,stop,,51.107658,3.9862116
node/4969738515,Nieuwkerken-Waas,stop,,51.1853036,4.1850918
node/4969738516,Melsele,stop,,51.2105931,4.2855197
node/4970106780,Ronet,stop,,50.4584222,4.8294856
node/4970106806,Moustier,stop,,50.4528371,4.6947649
node/4970106813,Le Campinaire,stop,,50.4239697,4.5430676
node/4970107394,Floreffe,stop,,50.4431577,4.7622452
node/4970107427,Flawinne,stop,,50.4562293,4.8072669
node/4970107468,Couillet,stop,,50.3928268,4.468877
node/4970107470,Couillet,stop,,50.3927411,4.4688581
node/4970107730,Lodelinsart,stop,,50.4338009,4.4663074
node/4970107731,Fleurus,stop,,50.4822527,4.5439835
node/4970107744,La Roche,stop,,50.6104761,4.5397309
node/4970532478,Merelbeke,stop,,51.0201897,3.7647921
node/4970532479,Brugge-Sint-Pieters,stop,,51.2229118,3.201808
node/4971222876,Godarville,stop,,50.4929318,4.290307
node/4971222877,Carnières,stop,,50.4479542,4.2641006
node/4972143649,Charleroi-Central,stop,,50.4039641,4.4390263
node/4972143650,Charleroi-Central,stop,,50.4039044,4.4390008
node/4972211896,Arlon,stop,,49.6802602,5.8094728
node/4972227688,Arlon,stop,,49.6800457,5.8093656
node/4973683712,Marche-lez-Écaussinnes,stop,,50.5471551,4.1758375
node/4973731144,Boechout,stop,,51.162531,4.4964555
node/4973731145,Berlaar,stop,,51.1138361,4.638172
node/4973731146,Melkouwen,stop,,51.0952713,4.6709382
node/4973731147,Booischot,stop,,51.0374401,4.773185
node/4973731148,Begijnendijk,stop,,51.0229471,4.7987345
node/4975552870,Bouwel,stop,,51.1655427,4.7448488
node/4975552871,Kessel,stop,,51.1511662,4.6190105
node/4975592558,Balegem-Dorp,stop,,50.9201319,3.7909202
node/4975705160,Brugelette,stop,,50.5941674,3.8522588
node/4975705162,Maffle,stop,,50.6149016,3.7993233
node/4975981421,Liège-Saint-Lambert,stop,,50.6463965,5.5710188
node/4975981422,Liège-Saint-Lambert,stop,,50.6466166,5.5708882
node/4977861279,Walcourt,stop,,50.2595697,4.435885
node/4977862154,Mariembourg,stop,,50.0956133,4.5249118
node/4985942784,Antwerpen-Centraal,stop,,51.216346,4.4210422
node/4991938902,Ronse - Renaix,stop,,50.7423883,3.6026927
node/5019824567,Beignée,stop,,50.333239,4.4066292
node/5041130444,Louvain-la-Neuve,station,LNO,50.669712,4.6160384
node/5117245255,Athus,station,MH,49.5639089,5.8292864
node/5236690424,Boechout,station,GBC,51.1632038,4.4951029
node/5236691811,Nijlen,station,FJE,51.1597466,4.6665642
node/5236691898,Bouwel,station,FOW,51.1656586,4.7462187
node/5236693738,Wolfstee,station,LWO,51.1685644,4.7850797
node/5257610749,Roi Baudouin - Koning Boudewijn,stop,,50.8965173,4.328397
node/5257610750,Heysel - Heizel,stop,,50.8967909,4.3366283
node/5257610751,Stuyvenbergh,stop,8804,50.8853222,4.3431389
node/5307127700,Liège-Guillemins,station,FL,50.624728,5.567065
node/5334823333,Tienen,station,FTNN,50.8078688,4.9261879
node/5351222086,Heysel - Heizel,stop,,50.8970687,4.3353037
node/5351252284,Heysel - Heizel,stop,,50.8966835,4.3365364
node/5368442765,Bressoux,station,FBX,50.6444511,5.6131398
node/5370990582,Chênée,station,FCH,50.6075232,5.6174231
node/5370990616,Angleur,station,,50.6131234,5.5986637
node/5370990617,Angleur,stop,6,50.6129765,5.5985783
node/5378745728,Trooz,halt,FRZ,50.5732348,5.6885307
node/5378745732,Trooz,stop,1,50.5732508,5.6885437
node/5380583021,Lemonnier,station,,50.8402745,4.3409753
node/5382893851,Anneessens,station,,50.8443013,4.345455
node/5383309894,Nessonvaux,halt,FNV,50.5720282,5.7419487
node/5383310865,Fraipont,halt,FIP,50.5650811,5.7236771
node/5391076209,Lier,station,FLR,51.1358421,4.5619531
node/5435074763,Juslenville,station,FJL,50.5447202,5.8100648
node/5450310126,Gouvy,station,FVY,50.1896189,5.9540191
node/5450310140,Vielsalm,station,FVI,50.2787325,5.9095207
node/5450310145,Coo,halt,COO,50.3910631,5.8809281
node/5450434202,Melreux-Hotton,station,MLR,50.2839828,5.4409722
node/5450440057,Marche-en-Famenne,halt,MCH,50.2224969,5.3459878
node/5450440093,Marloie,station,MML,50.2025003,5.3139556
node/5450583991,Sy,halt,SY,50.4031698,5.5237592
node/5450587661,Bomal,station,MBM,50.3768695,5.5195859
node/5450587713,Barvaux,halt,LBV,50.3490942,5.5014037
node/5450677961,Comblain-la-Tour,halt,MCT,50.4566595,5.5671182
node/5450678272,Hamoir,station,LHM,50.4287902,5.5339242
node/5450896270,Esneux,station,LSN,50.530508,5.5728356
node/5450896295,Poulseur,halt,MPS,50.509234,5.5787582
node/5450903203,Rivage,station,MRV,50.4860898,5.585541
node/5451076130,Méry,halt,MRY,50.5479511,5.5871867
node/5451076171,Hony,halt,MHN,50.5400977,5.5738252
node/5451456277,Liège-Carré,halt,FLJ,50.6405734,5.5619218
node/5451456278,Liège-Saint-Lambert,station,FLGP,50.6464988,5.5709122
node/5451456298,Herstal,station,LHS,50.6607262,5.6229797
node/5451456318,Milmort,halt,LTM,50.6932584,5.5996791
node/5451456319,Liers,station,LSL,50.6981667,5.5690642
node/5451463141,Glons,halt,LGL,50.7501841,5.5354178
node/5451889157,Tongeren,stop,,50.7840815,5.473777
node/5451889158,Tongeren,stop,,50.7840844,5.4738291
node/5451889159,Tongeren,station,FTG,50.7840282,5.4735866
node/5454793748,Hasselt,station,FHS,50.9309341,5.3275497
node/5454793812,Diepenbeek,halt,GDP,50.9105288,5.4203402
node/5455051620,Alken,station,,50.8867147,5.2925362
